     2.11           OBSERVATION DATA    G (GPS)             RINEX VERSION / TYPE
teqc  2010Oct21     administrateur ccgps20111014 15:25:54UTCPGM / RUN BY / DATE
Solaris 5.9|UltraSparc IIe|cc -xarch=v9 SC5.8|=+-|*Sparc    COMMENT
teqc  2010Oct21     administrateur ccgps20111014 12:07:42UTCCOMMENT
teqc  2009Oct19     CNES                20111014 08:47:57UTCCOMMENT
MSXP|IAx86-PII|bcc32 5.0|MSWin95->XP|486/DX+                COMMENT
teqc  2009Oct19                         20111014 08:47:56UTCCOMMENT
BIT 2 OF LLI FLAGS DATA COLLECTED UNDER A/S CONDITION       COMMENT
KERG                                                        MARKER NAME
91201M002                                                   MARKER NUMBER
CARDALIAGUET        CNES                                    OBSERVER / AGENCY
04004               ASHTECH UZ-12       CN00-1A01           REC # / TYPE / VERS
CR6200539022        ASH701945E_M    SNOW                    ANT # / TYPE
  1406342.3800  3918168.1400 -4816177.9100                  APPROX POSITION XYZ
        0.4200        0.0000        0.0000                  ANTENNA: DELTA H/E/N
     1     1                                                WAVELENGTH FACT L1/2
     7    L1    L2    C1    P1    P2    D1    D2            # / TYPES OF OBSERV
    30.0000                                                 INTERVAL
Version: Version:                                           COMMENT
Project: A__________________________                        COMMENT
 SNR is mapped to RINEX snr flag value [0-9]                COMMENT
  L1 & L2: min(max(int(snr_dBHz/6), 0), 9)                  COMMENT
pseudorange smoothing corrections not applied               COMMENT
Forced Modulo Decimation to 30 seconds                      COMMENT
  2011    10     9     0     0    0.0000000     GPS         TIME OF FIRST OBS
                                                            END OF HEADER
 11 10  9  0  0  0.0000000  0  8G28G32G17G14G19G20G01G11
 -10580796.25748  -8176399.71847  21714229.0704   21714228.4804   21714229.4794
     -1427.5774
 -20504986.51248 -15908009.66148  20629908.2894   20629907.8764   20629910.7864
      1018.9304
 -10364049.00947  -8000499.07246  22807865.1054   22807865.1414   22807867.6834
      3126.5954
  -5482914.61647  -4232184.95846  23490675.0274   23490674.9224   23490679.0224
      -756.5014
  -7570189.52847  -5816484.88246  23164991.0204   23164989.4554   23164991.0194
     -3367.4104
 -15517894.40248 -12031328.09547  21129960.7604   21129960.2414   21129962.3854
      2071.9804
 -11300843.20849  -8789318.15548  20250670.0884   20250669.6134   20250674.7784
      -207.1734
 -18647504.27548 -14459529.50148  20754239.4004   20754238.9944   20754240.5444
      -923.8814
 11 10  9  0  0 30.0000000  0  8G28G32G17G14G19G20G01G11
 -10537663.78548  -8142789.92647  21722436.4004   21722436.9904   21722437.8004
     -1447.8544
 -20535277.65548 -15931613.13048  20624144.2914   20624143.7374   20624146.5154
      1000.4844
 -10457741.66747  -8073506.35046  22790036.7124   22790036.3344   22790037.9714
      3119.5014
  -5459914.66947  -4214262.55346  23495052.5954   23495050.8134   23495056.8984
      -777.1174
  -7469047.57947  -5737673.05446  23184237.9774   23184236.5594   23184237.5924
     -3375.0004
 -15579844.62048 -12079600.98647  21118172.2984   21118171.5394   21118173.3174
      2058.0364
 -11294455.38049  -8784340.64248  20251885.5624   20251885.2434   20251890.1464
      -218.7544
 -18619627.38748 -14437807.29748  20759544.1014   20759543.6014   20759545.0214
      -934.4594
 11 10  9  0  1  0.0000000  0  8G28G32G17G14G19G20G01G11
 -10493914.46948  -8108699.54147  21730762.2574   21730761.2994   21730763.2974
     -1468.9044
 -20565007.29148 -15954779.11548  20618486.8344   20618486.5144   20618489.2314
       981.2534
 -10551212.75947  -8146340.99046  22772249.0334   22772249.7984   22772251.5874
      3111.4944
  -5436297.70647  -4195859.82246  23499546.8894   23499546.6324   23499550.6744
      -798.0614
  -7367675.94047  -5658682.26246  23203528.2334   23203527.4434   23203528.1994
     -3383.3164
 -15641364.24348 -12127538.34947  21106465.4494   21106465.3574   21106466.8454
      2043.1314
 -11287705.80349  -8779081.27248  20253170.1234   20253169.9034   20253174.9604
      -231.3894
 -18591426.74948 -14415832.83048  20764910.7584   20764910.5954   20764911.8694
      -945.7224
 11 10  9  0  1 30.0000000  0  8G28G32G17G14G19G20G01G11
 -10449545.97448  -8074126.68447  21739204.9824   21739204.5914   21739205.6134
     -1489.0074
 -20594170.37848 -15977503.64048  20612937.2404   20612936.7544   20612939.7664
       963.0924
 -10644455.54947  -8218997.71246  22754505.8024   22754506.9604   22754508.0274
      3104.5654
  -5412059.64347  -4176973.10646  23504158.9404   23504159.3944   23504161.5504
      -817.7354
  -7266072.22947  -5579510.62646  23222862.9614   23222862.2664   23222863.1994
     -3390.3814
 -15702447.88648 -12175135.99947  21094841.7804   21094841.2774   21094843.0034
      2028.9334
 -11280590.48349  -8773536.90948  20254523.8314   20254524.0324   20254528.8814
      -242.9654
 -18562898.11448 -14393602.74748  20770339.4494   20770339.5614   20770340.7894
      -956.1074
 11 10  9  0  2  0.0000000  0  8G28G32G17G14G19G20G01G11
 -10404562.99448  -8039074.97147  21747764.8304   21747765.2424   21747765.2924
     -1509.9304
 -20622769.29048 -15999788.53948  20607494.9574   20607494.4364   20607497.6644
       943.5244
 -10737470.91847  -8291477.20946  22736805.7724   22736806.1884   22736807.3614
      3096.2864
  -5387204.64847  -4157605.72146  23508888.2104   23508888.9534   23508892.2114
      -838.9134
  -7164240.92547  -5500161.63946  23242240.3754   23242240.0514   23242240.7784
     -3398.4074
 -15763097.56648 -12222395.49847  21083300.1104   21083300.1364   21083301.6604
      2014.0214
 -11273112.77949  -8767710.21548  20255946.9464   20255946.9354   20255951.9664
      -255.7434
 -18534044.73048 -14371119.60348  20775830.0934   20775829.9544   20775830.9924
      -967.4944
 11 10  9  0  2 30.0000000  0  8G28G32G17G14G19G20G01G11
 -10358964.92647  -8003543.97447  21756442.0354   21756441.9854   21756442.9434
     -1530.9114
 -20650800.58048 -16021631.15448  20602161.0154   20602160.5384   20602163.5874
       924.3034
 -10830254.05147  -8363775.73446  22719149.2284   22719149.6554   22719150.9194
      3088.3644
  -5361730.03347  -4137755.56246  23513735.8294   23513736.1654   23513739.7414
      -860.1574
  -7062180.91347  -5420634.43246  23261661.3094   23261661.3374   23261662.9964
     -3406.4294
 -15823309.22748 -12269313.69447  21071842.1574   21071841.8624   21071843.2674
      1999.1554
 -11265269.93549  -8761598.99048  20257439.6604   20257439.2814   20257444.4514
      -268.1404
 -18504863.83748 -14348381.23648  20781382.8694   20781382.7394   20781383.9954
      -978.7494
 11 10  9  0  3  0.0000000  0  8G28G32G17G14G19G20G01G11
 -10312756.68847  -7967537.53247  21765235.2734   21765234.0734   21765235.3784
     -1551.0284
 -20678266.51748 -16043033.19448  20596934.4514   20596933.7824   20596936.8964
       905.2894
 -10922805.76547  -8435893.94346  22701537.2954   22701537.6744   22701539.4764
      3080.7414
  -5335638.90347  -4117424.72146  23518700.3974   23518702.3184   23518705.4224
      -880.6754
  -6959896.58647  -5340932.43846  23281126.4514   23281126.4114   23281126.2694
     -3413.9184
 -15883084.25048 -12315891.64747  21060467.7134   21060467.4574   21060468.8024
      1984.5894
 -11257065.03349  -8755205.58648  20259000.9814   20259000.9054   20259005.7984
      -280.2144
 -18475358.31648 -14325389.91448  20786997.7104   20786997.5644   20786998.8884
      -989.5864
 11 10  9  0  3 30.0000000  0  8G28G32G17G14G19G20G01G11
 -10265939.59048  -7931056.62247  21774143.6544   21774143.3864   21774144.8434
     -1571.8264
 -20705166.06348 -16063993.90748  20591815.5104   20591815.0334   20591817.8954
       886.2834
 -11015122.46547  -8507829.02447  22683969.7094   22683970.0624   22683972.3854
      3072.3434
  -5308932.53146  -4096614.71946  23523782.7904   23523782.9494   23523786.2624
      -901.4714
  -6857388.89047  -5261056.39246  23300633.3244   23300631.9174   23300633.0204
     -3421.7014
 -15942421.19148 -12362128.22847  21049176.2304   21049175.4624   21049177.2784
      1969.5104
 -11248498.00349  -8748530.08748  20260631.1294   20260630.9954   20260635.7924
      -292.7474
 -18445528.02948 -14302145.56048  20792674.2414   20792674.0974   20792675.4554
     -1000.8114
 11 10  9  0  4  0.0000000  0  8G28G32G17G14G19G20G01G11
 -10218513.64148  -7894101.32847  21783168.9304   21783168.9694   21783169.6534
     -1591.1674
 -20731496.48848 -16084511.13848  20586804.9464   20586804.5344   20586807.2894
       868.1004
 -11107200.22147  -8579577.92247  22666448.3744   22666448.7244   22666450.6274
      3065.0084
  -5281609.14747  -4075323.69046  23528983.2724   23528981.7164   23528987.4324
      -921.4954
  -6754657.02547  -5181005.67846  23320181.6674   23320180.7944   23320182.1844
     -3428.0884
 -16001316.64948 -12408020.82447  21037968.5854   21037968.1064   21037970.0874
      1955.6324
 -11239566.49349  -8741570.44248  20262330.8194   20262330.4964   20262335.7254
      -303.9804
 -18415370.72748 -14278646.39648  20798412.9584   20798412.7194   20798414.0534
     -1010.7004
 11 10  9  0  4 30.0000000  0  8G28G32G17G14G19G20G01G11
 -10170482.64448  -7856674.56947  21792309.0854   21792308.9604   21792309.2974
     -1611.2164
 -20757258.85048 -16104585.70448  20581902.8804   20581902.4424   20581905.0594
       849.2214
 -11199038.25847  -8651140.01047  22648971.8834   22648971.8174   22648974.3454
      3057.0094
  -5253670.81347  -4053553.40846  23534300.0544   23534299.5204   23534302.9144
      -941.6794
  -6651704.22447  -5100782.82346  23339773.3974   23339771.7554   23339773.1324
     -3435.6804
 -16059771.30748 -12453569.91747  21026845.3604   21026844.6354   21026846.6174
      1941.0204
 -11230272.56149  -8734328.34048  20264099.2014   20264099.2484   20264104.1754
      -315.8674
 -18384888.37948 -14254893.95648  20804213.6234   20804213.7114   20804214.6084
     -1021.5344
 11 10  9  0  5  0.0000000  0  8G28G32G17G14G19G20G01G11
 -10121849.22248  -7818778.38347  21801563.6744   21801562.8334   21801563.6614
     -1631.6954
 -20782453.44548 -16124217.90848  20577108.4884   20577107.7874   20577110.8224
       829.7834
 -11290635.51547  -8722514.51747  22631541.3764   22631542.2854   22631543.6354
      3048.6734
  -5225119.65147  -4031305.88346  23539731.9554   23539731.4244   23539735.3084
      -962.3434
  -6548533.07747  -5020389.80546  23359406.7274   23359406.1234   23359406.5254
     -3443.3504
 -16117784.57048 -12498775.06747  21015805.9154   21015805.2144   21015806.2124
      1925.8814
 -11220617.35849  -8726804.81848  20265936.8084   20265936.5804   20265941.3354
      -328.5004
 -18354081.56748 -14230888.67048  20810076.1084   20810076.0684   20810077.3694
     -1032.7954
 11 10  9  0  5 30.0000000  0  8G28G32G17G14G19G20G01G11
 -10072616.15548  -7780414.97847  21810932.1534   21810931.4224   21810932.9784
     -1651.5034
 -20807080.25948 -16143407.68548  20572422.0104   20572421.5214   20572424.9364
       810.9474
 -11381989.85247  -8793699.72847  22614157.4654   22614158.0754   22614159.7904
      3040.4204
  -5195956.67347  -4008581.56646  23545281.7404   23545282.3324   23545284.5864
      -982.6354
  -6445145.54547  -4939828.18246  23379080.0904   23379079.8214   23379081.3944
     -3450.2754
 -16175355.77748 -12543635.75547  21004849.9994   21004849.8474   21004851.1184
      1911.2044
 -11210601.48549  -8719000.23148  20267842.6194   20267842.2744   20267847.5134
      -340.4844
 -18322950.82148 -14206630.96748  20816000.0584   20815999.9734   20816001.1954
     -1043.6494
 11 10  9  0  6  0.0000000  0  8G28G32G17G14G19G20G01G11
 -10022778.38148  -7741580.36747  21820416.2774   21820415.5584   21820416.5954
     -1670.7634
 -20831131.43148 -16162148.84048  20567845.1884   20567844.5484   20567847.3634
       792.4914
 -11473091.85347  -8864688.27847  22596821.8234   22596821.9704   22596823.4444
      3032.8854
  -5166175.48647  -3985375.41046  23550948.8504   23550948.3594   23550950.9924
     -1002.8494
  -6341536.04647  -4859093.60646  23398796.4394   23398795.5484   23398798.1674
     -3456.8734
 -16232476.65348 -12588145.51647  20993980.3524   20993980.3304   20993981.8144
      1896.9724
 -11200217.98849  -8710909.18048  20269818.3544   20269818.0654   20269823.4284
      -352.0064
 -18291489.10048 -14182115.35348  20821986.9114   20821986.8544   20821988.2654
     -1053.7884
 11 10  9  0  6 30.0000000  0  8G28G32G17G14G19G20G01G11
  -9972349.06248  -7702284.77947  21830012.4184   21830012.2354   21830013.1974
     -1691.1864
 -20854617.80048 -16180449.91448  20563375.7844   20563375.1654   20563378.4894
       773.2774
 -11563950.18447  -8935486.97147  22579532.0094   22579532.5664   22579532.9994
      3024.4464
  -5135788.43447  -3961697.06946  23556731.8494   23556731.5924   23556734.8414
     -1023.0844
  -6237717.06547  -4778195.79646  23418552.9694   23418553.0584   23418553.9444
     -3464.2644
 -16289157.26148 -12632312.25447  20983194.8674   20983194.1694   20983195.9084
      1881.8104
 -11189478.24849  -8702540.54448  20271862.1544   20271862.0274   20271867.0204
      -364.1064
 -18259707.74848 -14157350.64948  20828034.7834   20828034.7554   20828035.8204
     -1064.7024
 11 10  9  0  7  0.0000000  0  8G28G32G17G14G19G20G01G11
  -9921324.29847  -7662525.21247  21839721.9614   21839721.5354   21839723.2014
     -1711.2454
 -20877532.75248 -16198305.76348  20559015.5504   20559015.1214   20559017.7524
       753.7124
 -11654556.73747  -9006089.51347  22562290.7164   22562290.4164   22562291.8574
      3015.4004
  -5104790.46647  -3937542.86946  23562631.5634   23562629.7814   23562634.0984
     -1044.0924
  -6133683.99947  -4697131.15346  23438349.4294   23438349.5034   23438351.0814
     -3472.0484
 -16345390.77048 -12676130.62947  20972493.8824   20972492.9794   20972495.0194
      1866.2774
 -11178376.46149  -8693889.85348  20273974.8104   20273974.6654   20273979.5784
      -376.8214
 -18227600.65748 -14132332.18048  20834144.6234   20834144.7424   20834145.7734
     -1076.2624
 11 10  9  0  7 30.0000000  0  8G28G32G17G14G19G20G01G11
  -9869707.61247  -7622304.44147  21849544.3924   21849544.4464   21849544.6394
     -1731.0694
 -20899876.83248 -16215716.73048  20554763.7494   20554762.9964   20554765.7984
       734.5634
 -11744910.02747  -9076494.67747  22545096.4674   22545097.3054   22545098.4694
      3007.0434
  -5073183.02147  -3912913.73346  23568645.3654   23568644.6774   23568648.7624
     -1064.4954
  -6029439.66147  -4615901.88946  23458187.0444   23458186.6364   23458187.3464
     -3478.8344
 -16401176.29148 -12719599.88847  20961877.7874   20961876.9154   20961879.1204
      1851.3904
 -11166913.31249  -8684957.34948  20276155.9924   20276155.7814   20276160.8454
      -388.7664
 -18195168.91248 -14107060.71648  20840315.9934   20840315.9144   20840316.8914
     -1087.1284
 11 10  9  0  8  0.0000000  0  8G28G32G17G14G19G20G01G11
  -9817501.91548  -7581624.65147  21859478.6144   21859478.1924   21859479.3904
     -1750.4084
 -20921651.06248 -16232683.69348  20550619.7154   20550619.3014   20550622.1634
       715.8254
 -11835008.91547  -9146701.61447  22527950.9084   22527951.8454   22527953.5764
      2998.6074
  -5040968.91747  -3887811.98646  23574774.1324   23574775.3494   23574778.3084
     -1084.2444
  -5924986.94647  -4534510.24446  23478063.4524   23478062.7514   23478064.1704
     -3485.5114
 -16456514.68748 -12762720.73747  20951347.4984   20951347.7794   20951349.0954
      1836.7454
 -11155091.06949  -8675745.13648  20278405.6854   20278405.4544   20278410.5354
      -400.4004
 -18162414.14648 -14081537.55248  20846549.1024   20846549.0384   20846550.4414
     -1097.5944
 11 10  9  0  8 30.0000000  0  8G28G32G17G14G19G20G01G11
  -9764706.84247  -7540485.62547  21869524.9014   21869523.9784   21869526.2204
     -1769.2614
 -20942851.92948 -16249203.84348  20546585.7684   20546584.9944   20546588.2694
       697.4474
 -11924848.16647  -9216706.22547  22510855.8014   22510855.6314   22510857.9144
      2990.4214
  -5008146.19547  -3862236.27046  23581021.5494   23581021.2064   23581024.3784
     -1103.9984
  -5820324.28347  -4452955.02646  23497980.2564   23497979.5574   23497980.1254
     -3491.8694
 -16511401.71548 -12805489.86847  20940903.0394   20940902.4584   20940904.1644
      1822.3554
 -11142907.08949  -8666251.23648  20280724.3994   20280724.1004   20280728.8214
      -411.8804
 -18129333.16848 -14055760.17148  20852844.2774   20852844.2334   20852845.3644
     -1107.8134
 11 10  9  0  9  0.0000000  0  8G28G32G17G14G19G20G01G11
  -9711326.96247  -7498890.92247  21879683.1674   21879682.5334   21879684.3244
     -1788.8264
 -20963481.48348 -16265278.86748  20542660.0124   20542659.5034   20542662.7564
       678.3514
 -12014428.04047  -9286508.71847  22493808.5014   22493808.6754   22493810.4214
      2981.8104
  -4974717.47547  -3836188.11646  23587383.6334   23587384.7054   23587384.9724
     -1124.1564
  -5715455.62447  -4371239.30746  23517936.4514   23517935.3304   23517935.8144
     -3498.8734
 -16565838.49048 -12847908.20847  20930544.0144   20930543.2854   20930545.3014
      1807.3024
 -11130363.55549  -8656477.17748  20283111.4244   20283111.1774   20283116.1554
      -423.8704
 -18095928.61048 -14029730.63948  20859201.1814   20859200.7094   20859202.0254
     -1118.6994
 11 10  9  0  9 30.0000000  0  8G28G32G17G14G19G20G01G11
  -9657365.63947  -7456843.14147  21889951.6574   21889952.4964   21889952.6194
     -1808.6824
 -20983540.18648 -16280909.04848  20538842.7084   20538842.3994   20538845.5534
       658.6314
 -12103747.03147  -9356107.93047  22476811.7094   22476811.7864   22476813.7344
      2972.6114
  -4940684.78947  -3809669.29746  23593859.7384   23593859.4384   23593860.5434
     -1145.0014
  -5610383.55447  -4289365.09446  23537931.2184   23537929.6804   23537931.1794
     -3505.9744
 -16619825.36448 -12889975.95047  20920270.9524   20920269.7764   20920272.1794
      1791.5764
 -11117461.98649  -8646424.26548  20285566.4364   20285566.5544   20285571.5074
      -436.5144
 -18062201.71648 -14003449.95448  20865618.9964   20865618.8134   20865619.9644
     -1129.9864
 11 10  9  0 10  0.0000000  0  8G28G32G17G14G19G20G01G11
  -9602821.78848  -7414341.43147  21900331.2484   21900331.0384   21900331.1244
     -1827.9264
 -21003024.74348 -16296091.83748  20535135.6004   20535134.8494   20535137.5054
       639.8314
 -12192799.55647  -9425499.50047  22459865.3524   22459866.6784   22459867.2844
      2963.8474
  -4906046.18747  -3782678.06946  23600451.3644   23600450.4664   23600454.9524
     -1164.8174
  -5505106.61447  -4207331.22346  23557964.4654   23557963.5894   23557964.8504
     -3512.9024
 -16673357.99448 -12931689.75947  20910083.7404   20910083.2804   20910085.1544
      1776.6444
 -11104198.97849  -8636089.56148  20288090.5604   20288090.3154   20288095.7344
      -448.3404
 -18028149.38648 -13976915.67047  20872098.9844   20872098.9644   20872100.1154
     -1140.6684
 11 10  9  0 10 30.0000000  0  8G28G32G17G14G19G20G01G11
  -9547696.76248  -7371386.90047  21910820.6794   21910821.4874   21910821.7224
     -1847.4834
 -21021933.76048 -16310826.17548  20531536.8454   20531536.4724   20531539.2264
       620.5124
 -12281582.53847  -9494681.05847  22442970.9194   22442970.6874   22442973.5764
      2954.9984
  -4870802.41547  -3755215.27546  23607157.2254   23607157.5324   23607166.4274
     -1185.4174
  -5399625.17347  -4125137.99346  23578037.3084   23578036.3004   23578037.8024
     -3519.7154
 -16726434.48248 -12973048.15447  20899983.6344   20899984.0244   20899985.0174
      1761.3694
 -11090573.71649  -8625472.49948  20290683.4984   20290683.2624   20290688.3474
      -460.6354
 -17993770.48048 -13950126.93748  20878641.0804   20878640.7584   20878641.9164
     -1151.5984
 11 10  9  0 11  0.0000000  0  8G28G32G17G14G19G20G01G11
  -9492001.73647  -7327988.20047  21921419.1384   21921418.8304   21921420.5394
     -1866.3634
 -21040275.72748 -16325118.64748  20528046.6214   20528046.0024   20528048.9354
       601.7134
 -12370102.22547  -9563657.44147  22426125.5784   22426126.3884   22426128.6444
      2946.0204
  -4834961.52647  -3727286.97246  23613976.9764   23613977.4654   23613979.6304
     -1204.8524
  -5293949.74247  -4042793.60046  23598146.4114   23598144.7854   23598147.4494
     -3525.9154
 -16779062.23048 -13014056.87647  20889969.4224   20889968.4324   20889970.3514
      1746.3184
 -11076594.99249  -8614579.74448  20293343.3374   20293342.9474   20293348.1834
      -472.2884
 -17959074.21448 -13923090.94248  20885243.7104   20885243.7414   20885244.4064
     -1162.1964
 11 10  9  0 11 30.0000000  0  8G28G32G17G14G19G20G01G11
  -9435726.69547  -7284137.53547  21932128.0754   21932128.1304   21932128.4334
     -1885.6654
 -21058037.98848 -16338959.44048  20524666.7814   20524666.1224   20524669.1044
       582.3094
 -12458344.08147  -9632417.34947  22409334.4254   22409334.3214   22409336.0724
      2936.6144
  -4798514.08147  -3698885.99346  23620913.3784   23620911.5514   23620917.0084
     -1225.6034
  -5188069.57247  -3960289.67246  23618294.8234   23618294.2334   23618295.0584
     -3532.9754
 -16831227.91348 -13054705.48147  20880042.0424   20880041.8794   20880043.4104
      1730.9624
 -11062251.37249  -8603402.76748  20296072.7374   20296072.5944   20296077.4014
      -484.4054
 -17924048.02848 -13895797.86248  20891908.8414   20891908.3114   20891910.1464
     -1173.2724
 11 10  9  0 12  0.0000000  0  8G28G32G17G14G19G20G01G11
  -9378885.50547  -7239845.71447  21942944.7764   21942944.5004   21942945.7354
     -1903.5684
 -21075231.60048 -16352357.09748  20521394.5944   20521394.1184   20521397.3514
       564.2554
 -12546317.01447  -9700967.69947  22392593.3734   22392594.2694   22392595.1714
      2928.6214
  -4761472.59347  -3670022.43346  23627962.5094   23627961.6894   23627965.7544
     -1243.8514
  -5081997.67847  -3877636.36246  23638479.9144   23638478.5794   23638480.5704
     -3538.4044
 -16882942.41948 -13095002.55647  20870201.1954   20870200.9064   20870202.7624
      1716.8784
 -11047554.54049  -8591950.66648  20298869.4414   20298869.0954   20298874.3894
      -495.1544
 -17888703.57048 -13868256.75748  20898634.8124   20898634.3274   20898635.6444
     -1182.8954
 11 10  9  0 12 30.0000000  0  8G28G32G17G14G19G20G01G11
  -9321478.09047  -7195112.67347  21953869.1664   21953867.9284   21953870.0034
     -1923.6944
 -21091854.21848 -16365309.81548  20518231.7814   20518231.1674   20518234.3254
       543.9674
 -12634016.43247  -9769304.90447  22375905.5104   22375905.4534   22375906.4144
      2918.0584
  -4723836.21147  -3640695.46246  23635123.6804   23635123.2274   23635126.3744
     -1265.1394
  -4975733.27947  -3794833.06446  23658701.7394   23658700.1164   23658701.4494
     -3546.3014
 -16934202.13048 -13134945.18247  20860447.2404   20860446.3584   20860448.5544
      1700.4134
 -11032502.31449  -8580221.66248  20301733.7944   20301733.4044   20301738.4454
      -508.3544
 -17853038.63648 -13840465.91947  20905421.5484   20905421.5684   20905422.8274
     -1194.8224
 11 10  9  0 13  0.0000000  0  8G28G32G17G14G19G20G01G11
  -9263500.78147  -7149935.55047  21964901.4894   21964900.9934   21964902.3474
     -1942.6274
 -21107899.41248 -16377812.63548  20515178.3534   20515178.0954   20515181.3054
       524.7124
 -12721433.76048  -9837422.31047  22359270.3954   22359270.4274   22359272.1934
      2908.5664
  -4685599.06747  -3610900.34446  23642399.5414   23642400.0124   23642401.9034
     -1284.9124
  -4869271.77547  -3711876.15446  23678960.2434   23678959.0414   23678961.1684
     -3552.5554
 -16985000.26748 -13174528.24247  20850780.6774   20850780.1634   20850781.7104
      1685.0134
 -11017088.78349  -8568211.15648  20304666.9904   20304666.7854   20304671.7494
      -520.4284
 -17817047.32548 -13812420.73447  20912270.5864   20912270.1244   20912271.4024
     -1205.7034
 11 10  9  0 13 30.0000000  0  8G28G32G17G14G19G20G01G11
  -9204961.67347  -7104320.66847  21976041.0764   21976041.1434   21976042.8254
     -1960.7084
 -21123372.46548 -16389869.60748  20512233.9534   20512233.2684   20512236.5824
       506.1504
 -12808572.42247  -9905322.58047  22342688.2644   22342687.7974   22342689.9244
      2899.8084
  -4646768.35547  -3580642.70946  23649789.8134   23649789.4984   23649793.8104
     -1304.3684
  -4762620.49247  -3628771.37246  23699255.7674   23699254.4754   23699255.6114
     -3558.1534
 -17035341.18348 -13213754.98347  20841200.8404   20841200.5184   20841202.7114
      1670.2384
 -11001319.69249  -8555923.59748  20307667.7294   20307667.6274   20307672.6334
      -531.9814
 -17780735.37948 -13784125.71847  20919180.4214   20919180.3944   20919181.8294
     -1215.8114
 11 10  9  0 14  0.0000000  0  8G28G32G17G14G19G20G01G11
  -9145859.58747  -7058267.10947  21987287.9204   21987287.7414   21987289.0204
     -1979.2604
 -21138269.84848 -16401478.02048  20509399.2734   20509398.4504   20509401.8574
       487.3174
 -12895426.64747  -9973001.17847  22326160.3464   22326160.5214   22326162.9714
      2890.8474
  -4607341.58747  -3549920.59446  23657291.9914   23657292.2184   23657295.7884
     -1324.0184
  -4655777.64847  -3545517.32246  23719587.3754   23719586.6734   23719588.3834
     -3564.1854
 -17085220.72748 -13252622.23947  20831709.2004   20831708.6604   20831711.2194
      1655.1814
 -10985191.76749  -8543356.36448  20310736.6844   20310736.6294   20310741.4674
      -543.3214
 -17744099.30948 -13755578.12247  20926151.8404   20926152.0414   20926153.3184
     -1226.2814
 11 10  9  0 14 30.0000000  0  8G28G32G17G14G19G20G01G11
  -9086198.85247  -7011778.25347  21998641.4274   21998640.9774   21998641.5174
     -1998.4234
 -21152592.73549 -16412638.70648  20506673.7234   20506673.3474   20506676.2174
       467.5304
 -12981995.21847 -10040457.17047  22309686.5214   22309686.2754   22309688.8904
      2880.3504
  -4567321.80347  -3518736.34746  23664907.1864   23664907.6444   23664910.8754
     -1344.0264
  -4548746.36747  -3462116.44046  23739954.5564   23739954.2574   23739955.1114
     -3571.3014
 -17134639.21948 -13291130.18847  20822305.2684   20822304.7804   20822306.7404
      1639.1824
 -10968706.86749  -8530510.98448  20313873.5364   20313873.4704   20313878.4194
      -556.0664
 -17707140.92448 -13726779.39947  20933184.7624   20933184.9764   20933186.2584
     -1237.8354
 11 10  9  0 15  0.0000000  0  8G28G32G17G14G19G20G01G11
  -9025984.53847  -6964858.03847  22010099.3214   22010098.8764   22010100.2564
     -2016.2664
 -21166344.18149 -16423354.17748  20504056.8294   20504056.5394   20504059.3424
       448.9354
 -13068278.82547 -10107691.13747  22293267.6164   22293268.0794   22293270.2284
      2871.5364
  -4526713.02647  -3487093.20146  23672635.6564   23672634.9394   23672637.1194
     -1363.2714
  -4441530.78847  -3378571.96046  23760357.1904   23760356.2924   23760358.0284
     -3576.8214
 -17183598.74948 -13329280.48047  20812988.6574   20812988.1754   20812989.9224
      1624.3104
 -10951868.03249  -8517389.75948  20317077.8944   20317077.8464   20317082.7784
      -567.0184
 -17669863.21648 -13697731.85647  20940278.6314   20940278.4704   20940279.8424
     -1247.7644
 11 10  9  0 15 30.0000000  0  8G28G32G17G14G19G20G01G11
  -8965214.48947  -6917504.78547  22021663.2804   22021663.4894   22021664.6114
     -2034.7714
 -21179519.16749 -16433620.42848  20501549.6394   20501549.4374   20501552.4384
       429.5594
 -13154270.31347 -10174697.44147  22276903.4274   22276903.8774   22276905.4064
      2861.3654
  -4485511.97047  -3454988.45646  23680475.4194   23680475.8114   23680479.4454
     -1383.3364
  -4334128.22847  -3294881.77946  23780795.2414   23780795.6144   23780795.7114
     -3582.9764
 -17232094.24348 -13367069.24447  20803760.2784   20803759.9294   20803762.2094
      1608.7904
 -10934671.02849  -8503989.47748  20320350.3724   20320350.6114   20320355.2844
      -579.2614
 -17632261.64248 -13668431.96047  20947433.9274   20947433.7544   20947434.9764
     -1258.6404
 11 10  9  0 16  0.0000000  0  8G28G32G17G14G19G20G01G11
  -8903894.30747  -6869722.85147  22033332.8394   22033331.5874   22033333.4624
     -2053.3174
 -21192120.57748 -16443439.74648  20499151.9194   20499151.4324   20499154.5464
       410.2024
 -13239970.42047 -10241476.65847  22260595.3704   22260596.1084   22260597.6624
      2851.6214
  -4443722.87547  -3422425.53446  23688426.7494   23688427.5524   23688430.8804
     -1402.8214
  -4226543.16747  -3211049.37246  23801268.5054   23801266.8664   23801268.1934
     -3589.2524
 -17280127.12648 -13404497.46347  20794619.6544   20794619.4964   20794621.3904
      1593.2474
 -10917118.98149  -8490312.54648  20323690.3724   20323690.2784   20323695.1594
      -591.1954
 -17594339.20648 -13638882.02347  20954650.3314   20954650.2194   20954652.0124
     -1269.5814
 11 10  9  0 16 30.0000000  0  8G28G32G17G14G19G20G01G11
  -8842026.02747  -6821513.80547  22045106.2204   22045104.8304   22045106.8764
     -2071.2974
 -21204147.85749 -16452811.68048  20496863.2044   20496862.7914   20496865.7204
       391.3804
 -13325376.31147 -10308026.64847  22244343.9194   22244343.9174   22244345.5894
      2841.8224
  -4401346.53447  -3389404.97846  23696492.5874   23696491.6754   23696493.8134
     -1422.3624
  -4118776.78847  -3127075.68046  23821775.3764   23821774.4904   23821775.7024
     -3595.1964
 -17327696.32948 -13441564.42147  20785567.9264   20785567.3374   20785569.3734
      1577.9194
 -10899211.66749  -8476358.81148  20327098.2104   20327097.9464   20327103.0124
      -602.9824
 -17556095.76648 -13609081.93947  20961927.7474   20961927.9264   20961929.3864
     -1280.1604
 11 10  9  0 17  0.0000000  0  8G28G32G17G14G19G20G01G11
  -8779613.74647  -6772880.86447  22056982.2194   22056981.8324   22056983.4114
     -2089.5444
 -21215602.66349 -16461737.52248  20494683.4214   20494683.1904   20494686.0054
       372.3064
 -13410487.50847 -10374347.03747  22228147.7684   22228147.3284   22228149.8794
      2831.9114
  -4358386.75247  -3355930.08546  23704667.5504   23704668.3844   23704670.6024
     -1442.2894
  -4010832.33647  -3042963.23846  23842316.6234   23842315.3034   23842317.0024
     -3601.3514
 -17374802.70248 -13478270.67447  20776603.7474   20776603.4034   20776605.2414
      1562.5004
 -10880951.28849  -8462130.05148  20330573.1254   20330572.9324   20330578.0014
      -614.7304
 -17517533.16048 -13579033.17247  20969266.2934   20969266.0324   20969267.1614
     -1290.7494
 11 10  9  0 17 30.0000000  0  8G28G32G17G14G19G20G01G11
  -8716659.09147  -6723825.31947  22068962.0854   22068961.9834   22068962.8024
     -2107.6874
 -21226483.82249 -16470216.33748  20492612.7294   20492612.3994   20492615.3304
       352.8194
 -13495300.23948 -10440434.87347  22212008.2354   22212008.0594   22212009.6814
      2821.9274
  -4314843.47447  -3322000.44446  23712951.6144   23712951.8334   23712955.9724
     -1461.3394
  -3902710.42747  -2958712.51246  23862891.2534   23862889.9624   23862892.1184
     -3607.2314
 -17421444.54548 -13514614.99447  20767728.0684   20767727.6814   20767729.5124
      1546.6964
 -10862336.65049  -8447625.16448  20334115.2554   20334115.1054   20334120.3724
      -626.6174
 -17478650.23748 -13548734.80747  20976665.3974   20976664.8424   20976666.5224
     -1301.7284
 11 10  9  0 18  0.0000000  0  8G28G32G17G14G19G20G01G11
  -8653162.12647  -6674347.21747  22081045.1214   22081045.5904   22081046.3384
     -2125.4934
 -21236788.52149 -16478245.97048  20490651.9924   20490651.6044   20490654.4644
       333.9084
 -13579809.39748 -10506286.13447  22195926.9754   22195926.4884   22195928.3314
      2812.0334
  -4270714.90047  -3287614.76046  23721351.3344   23721351.3964   23721353.6054
     -1480.2204
  -3794409.77447  -2874322.51746  23883500.8374   23883500.2224   23883502.7814
     -3612.9234
 -17467617.80548 -13550594.20847  20758941.7394   20758940.9264   20758943.3424
      1531.5224
 -10843365.34449  -8432842.36148  20337725.3094   20337725.1944   20337730.2534
      -638.1524
 -17439444.39048 -13518184.83347  20984126.2254   20984126.2034   20984127.1404
     -1312.1214
 11 10  9  0 18 30.0000000  0  8G28G32G17G14G19G20G01G11
  -8589128.77047  -6624451.13147  22093230.4694   22093230.3424   22093231.0774
     -2143.3864
 -21246520.52449 -16485829.33548  20488799.9364   20488799.5524   20488802.7754
       314.7744
 -13664016.35848 -10571901.94547  22179902.9264   22179901.9894   22179904.1764
      2801.8844
  -4226006.26447  -3252776.95046  23729858.3564   23729859.2924   23729862.9764
     -1499.7834
  -3685936.10847  -2789797.71846  23904142.8614   23904142.6014   23904143.8084
     -3618.7104
 -17513325.72648 -13586210.89347  20750243.7424   20750243.2884   20750245.5004
      1515.7154
 -10824041.41849  -8417784.81748  20341402.8384   20341402.5274   20341407.4214
      -650.1804
 -17399919.66248 -13487386.37947  20991647.2014   20991646.8624   20991648.7054
     -1322.8714
 11 10  9  0 19  0.0000000  0  8G28G32G17G14G19G20G01G11
  -8524559.66647  -6574137.57347  22105517.5144   22105516.8064   22105518.1714
     -2161.1184
 -21255677.61449 -16492964.71848  20487057.6104   20487056.8564   20487060.0714
       295.7864
 -13747916.64148 -10637278.79447  22163936.8984   22163937.4544   22163938.3464
      2791.5864
  -4180716.48947  -3217486.11846  23738475.8404   23738475.0554   23738477.6284
     -1519.0484
  -3577288.47747  -2705137.35946  23924817.8864   23924816.9894   23924819.4354
     -3624.4184
 -17558565.54148 -13621462.71147  20741635.2764   20741634.6494   20741636.6314
      1500.3294
 -10804362.90449  -8402450.95548  20345147.6344   20345147.5624   20345152.2694
      -661.7464
 -17360073.92148 -13456337.77047  20999229.6214   20999229.7534   20999231.0364
     -1333.4834
 11 10  9  0 19 30.0000000  0  8G28G32G17G14G19G20G01G11
  -8459458.17147  -6523409.16847  22117906.6004   22117906.2054   22117907.2114
     -2178.6584
 -21264260.82249 -16499652.98048  20485424.0424   20485423.8464   20485426.7154
       276.7584
 -13831508.44948 -10702415.29147  22148029.6994   22148029.6124   22148032.4794
      2781.3174
  -4134848.51747  -3181744.70446  23747206.3974   23747206.1204   23747207.6534
     -1538.5914
  -3468469.57947  -2620343.54146  23945525.4394   23945524.3284   23945527.3484
     -3630.0104
 -17603337.04848 -13656349.63647  20733115.3644   20733114.8224   20733116.7414
      1484.8454
 -10784330.73649  -8386841.44848  20348959.3274   20348959.0274   20348964.3214
      -673.5304
 -17319907.96648 -13425039.65947  21006872.8384   21006872.6394   21006874.4944
     -1344.0874
 11 10  9  0 20  0.0000000  0  8G28G32G17G14G19G20G01G11
  -8393827.82147  -6472268.66247  22130395.0284   22130394.9764   22130395.5974
     -2196.9834
 -21272271.11948 -16505894.83948  20483900.0284   20483899.4074   20483902.3654
       257.1204
 -13914790.79148 -10767310.65047  22132181.9514   22132182.2254   22132183.6064
      2770.4354
  -4088404.53747  -3145554.33146  23756043.2194   23756044.7644   23756047.0864
     -1558.0434
  -3359482.08247  -2535418.35446  23966264.7484   23966264.6884   23966265.9944
     -3636.0774
 -17647640.64648 -13690872.00647  20724684.6914   20724683.9674   20724686.5784
      1468.4834
 -10763946.56749  -8370957.74548  20352838.3744   20352838.0854   20352843.4054
      -685.8754
 -17279423.40248 -13393493.26347  21014577.0794   21014576.6304   21014578.3694
     -1355.3034
 11 10  9  0 20 30.0000000  0  8G28G32G17G14G19G20G01G11
  -8327672.70247  -6420719.23647  22142984.0404   22142983.3004   22142984.6824
     -2213.9894
 -21279709.60649 -16511691.01748  20482484.2944   20482484.0474   20482486.7364
       238.4154
 -13997762.32648 -10831963.75847  22116393.1024   22116393.0164   22116393.7894
      2760.7134
  -4041388.29747  -3108918.56246  23764988.3934   23764988.2414   23764994.3664
     -1576.8364
  -3250328.59547  -2450363.79846  23987036.3534   23987035.4054   23987037.4924
     -3641.1424
 -17691476.78548 -13725030.14747  20716342.9594   20716342.2154   20716344.9904
      1453.4824
 -10743211.61249  -8354800.67948  20356784.1274   20356784.1114   20356789.2474
      -696.9674
 -17238621.47848 -13361699.57247  21022341.1774   21022341.0814   21022342.3404
     -1365.2584
 11 10  9  0 21  0.0000000  0  8G28G32G17G14G19G20G01G11
  -8260991.22847  -6368759.66447  22155672.8464   22155672.6344   22155673.5944
     -2230.9154
 -21286572.13449 -16517038.43148  20481178.6574   20481178.0014   20481180.8284
       219.4564
 -14080415.81148 -10896369.06547  22100664.3414   22100664.0934   22100666.7464
      2750.2364
  -3993795.66947  -3071833.29946  23774046.5684   23774046.5904   23774049.8274
     -1595.6424
  -3141006.52847  -2365177.91646  24007840.0994   24007838.0684   24007840.0994
     -3646.5084
 -17734840.27748 -13758819.97947  20708091.4444   20708090.8374   20708092.7864
      1437.9424
 -10722121.87249  -8338367.18548  20360797.5954   20360797.5574   20360802.6834
      -708.6504
 -17197497.68648 -13329655.07447  21030167.0374   21030166.7224   21030168.1804
     -1375.7614
 11 10  9  0 21 30.0000000  0  8G28G32G17G14G19G20G01G11
  -8193788.87347  -6316394.21947  22168461.4024   22168460.9684   22168462.7604
     -2248.8044
 -21292861.63249 -16521939.34548  20479981.6174   20479980.8554   20479984.0374
       200.0734
 -14162751.74948 -10960526.94747  22084996.2544   22084995.9504   22084998.0334
      2739.2304
  -3945632.04447  -3034303.53746  23783211.7084   23783211.3044   23783214.8284
     -1614.7874
  -3031520.38647  -2279864.17846  24028673.9724   24028673.9044   24028675.4234
     -3652.3224
 -17777733.16248 -13792243.10547  20699929.4664   20699928.8784   20699931.2914
      1421.9044
 -10700680.39349  -8321659.63748  20364877.9294   20364877.8564   20364882.6954
      -720.6894
 -17156055.34248 -13297362.34747  21038053.1854   21038052.9014   21038054.4834
     -1386.6924
 11 10  9  0 22  0.0000000  0  8G28G32G17G14G19G20G01G11
  -8126068.01047  -6263624.73547  22181347.8794   22181347.6234   22181349.7564
     -2265.8944
 -21298577.98949 -16526393.62848  20478893.9314   20478893.1754   20478896.3174
       180.9824
 -14244767.93348 -11024435.66247  22069389.2524   22069389.2004   22069391.2844
      2728.6694
  -3896898.39847  -2996329.49346  23792485.4504   23792484.6514   23792487.5354
     -1633.8814
  -2921871.48246  -2194423.60046  24049539.7924   24049539.2154   24049542.2004
     -3657.7254
 -17820154.56648 -13825298.79547  20691856.4174   20691856.0134   20691858.1454
      1406.1714
 -10678887.19749  -8304677.98348  20369024.9534   20369024.7824   20369029.8704
      -732.2654
 -17114294.30448 -13264821.29147  21046000.0624   21046000.0164   21046001.6424
     -1397.3374
 11 10  9  0 22 30.0000000  0  8G28G32G17G14G19G20G01G11
  -8057833.36947  -6210454.92147  22194332.9214   22194331.4884   22194334.2414
     -2282.8974
 -21303723.49049 -16530403.12548  20477914.6284   20477914.2544   20477917.2114
       162.1984
 -14326464.13548 -11088095.04547  22053843.0014   22053843.3324   22053845.2244
      2717.9034
  -3847596.94447  -2957912.34846  23801866.9394   23801868.3894   23801868.9854
     -1652.8674
  -2812063.93447  -2108859.41946  24070436.0634   24070435.3554   24070437.6204
     -3662.4824
 -17862105.87948 -13857988.17347  20683873.6704   20683873.0434   20683875.3264
      1390.7274
 -10656744.53249  -8287423.96648  20373238.5884   20373238.2474   20373243.5694
      -743.9794
 -17072216.78048 -13232033.63547  21054007.2874   21054007.4174   21054008.0934
     -1407.5744
 11 10  9  0 23  0.0000000  0  8G28G32G17G14G19G20G01G11
  -7989084.49447  -6156884.40647  22207415.6634   22207415.2374   22207415.9174
     -2300.7774
 -21308295.04949 -16533965.37648  20477044.6494   20477044.4244   20477047.2654
       142.3134
 -14407834.65248 -11151500.65847  22038358.8234   22038358.6484   22038360.3784
      2706.3584
  -3797728.49647  -2919053.78746  23811357.4574   23811355.5044   23811363.5624
     -1671.9364
  -2702095.77246  -2023170.09246  24091361.7994   24091360.4664   24091362.5544
     -3668.7684
 -17903583.21548 -13890308.19747  20675980.6954   20675979.8804   20675982.3434
      1374.1514
 -10634249.62649  -8269895.46548  20377519.1314   20377519.0634   20377524.1354
      -756.2214
 -17029819.94848 -13198997.15547  21062074.9784   21062075.1304   21062076.6094
     -1419.0434
 11 10  9  0 23 30.0000000  0  8G28G32G17G14G19G20G01G11
  -7919826.18547  -6102916.93346  22220594.6734   22220594.9534   22220595.5544
     -2317.6924
 -21312294.47649 -16537081.78648  20476283.5344   20476283.1164   20476285.9764
       123.2974
 -14488878.26048 -11214651.52647  22022936.2374   22022936.7234   22022937.7504
      2695.4774
  -3747294.98647  -2879754.99046  23820952.6544   23820951.7014   23820955.2204
     -1690.9534
  -2591970.41846  -1937358.26646  24112318.0764   24112316.9544   24112321.1904
     -3673.8694
 -17944587.52548 -13922259.60647  20668177.8024   20668177.2214   20668179.7364
      1358.5774
 -10611404.42849  -8252094.01948  20381866.3504   20381866.2904   20381871.3874
      -767.8274
 -16987105.41548 -13165713.10747  21070203.4274   21070203.1504   21070204.8744
     -1429.5544
 11 10  9  0 24  0.0000000  0  8G28G32G17G14G19G20G01G11
  -7850062.17847  -6048555.40846  22233870.1174   22233870.1954   22233871.0114
     -2334.8694
 -21315723.27049 -16539753.51148  20475631.3124   20475630.8164   20475633.5944
       103.7154
 -14569594.31448 -11277547.15547  22007576.5074   22007577.1714   22007578.6784
      2684.1594
  -3696300.27947  -2840018.72346  23830657.6504   23830655.0714   23830663.9704
     -1710.0034
  -2481690.90446  -1851426.34446  24133304.0534   24133303.6194   24133306.1234
     -3679.5744
 -17985119.82448 -13953843.25447  20660464.8774   20660464.5354   20660466.5874
      1342.2504
 -10588210.68849  -8234021.03948  20386280.0784   20386279.7174   20386284.8404
      -779.8254
 -16944074.86148 -13132182.81347  21078391.7684   21078391.9044   21078393.4744
     -1440.5614
 11 10  9  0 24 30.0000000  0  8G28G32G17G14G19G20G01G11
  -7779793.19947  -5993800.40246  22247242.0604   22247242.6134   22247243.0674
     -2350.6544
 -21318579.62649 -16541979.16248  20475087.5134   20475086.7744   20475089.9074
        85.8604
 -14649978.32048 -11340184.01347  21992280.0404   21992279.9814   21992282.4854
      2674.0164
  -3644743.49447  -2799844.85346  23840470.0294   23840470.0574   23840472.2914
     -1727.6004
  -2371256.83046  -1765373.96246  24154318.9154   24154317.6214   24154320.2154
     -3683.3484
 -18025176.96048 -13985056.65847  20652842.4374   20652841.8564   20652844.0114
      1327.4874
 -10564666.34049  -8215674.84148  20390760.4284   20390760.3394   20390765.4754
      -790.4614
 -16900726.23848 -13098404.69247  21086640.6964   21086640.3944   21086642.2544
     -1450.0614
 11 10  9  0 25  0.0000000  0  9G23G28G32G17G14G19G20G01G11
   -297696.60546   -170169.25845  24868501.2804   24868503.6374   24868505.1834
      3768.9214
  -7709022.98247  -5938654.83046  22260709.3864   22260709.3414   22260710.0604
     -2367.3124
 -21320864.51449 -16543759.56248  20474652.6874   20474652.0924   20474655.3784
        66.8114
 -14730028.41748 -11402560.70247  21977046.4214   21977046.9644   21977048.1574
      2662.7644
  -3592627.29547  -2759234.92446  23850385.6414   23850386.0204   23850389.5554
     -1746.6144
  -2260670.51347  -1679202.96946  24175363.1644   24175362.0334   24175363.4154
     -3689.0294
 -18064759.25248 -14015900.09247  20645310.2754   20645309.4764   20645311.9764
      1311.6944
 -10540772.62449  -8197056.51448  20395307.3924   20395307.3954   20395312.3744
      -802.2454
 -16857060.15648 -13064379.17147  21094950.2034   21094950.2864   21094951.2994
     -1460.6284
 11 10  9  0 25 30.0000000  0  9G23G28G32G17G14G19G20G01G11
   -410788.95446   -258293.17545  24846980.7734   24846977.2984   24846980.4604
      3770.3494
  -7637754.32847  -5883120.84546  22274271.3514   22274270.8424   22274272.3424
     -2383.8564
 -21322578.53749 -16545095.16148  20474326.4344   20474326.0434   20474328.8214
        47.6764
 -14809742.57248 -11464675.62247  21961878.1194   21961877.4914   21961880.0364
      2651.5024
  -3539952.82947  -2718189.67846  23860409.5774   23860409.0864   23860413.3624
     -1765.3324
  -2149933.94046  -1592914.88646  24196435.5644   24196434.5194   24196436.2254
     -3693.7574
 -18103866.38148 -14046373.18347  20637868.1914   20637867.6624   20637869.6424
      1295.7044
 -10516529.77549  -8178166.03548  20399920.8054   20399920.5814   20399925.8854
      -813.8414
 -16813077.63348 -13030107.10047  21103319.9594   21103319.8604   21103321.2044
     -1471.3154
 11 10  9  0 26  0.0000000  0  8G28G32G17G14G19G20G01G11
  -7565990.72447  -5827201.20346  22287927.8754   22287927.6944   22287928.6424
     -2400.5874
 -21323722.45449 -16545986.59548  20474108.9264   20474108.3004   20474111.2614
        28.3574
 -14889118.71748 -11526527.16847  21946773.1234   21946772.8044   21946774.8074
      2639.9274
  -3486722.92647  -2676711.69346  23870540.4784   23870539.5824   23870541.3534
     -1783.2394
  -2039049.05546  -1506511.21146  24217535.4514   24217535.8514   24217538.6234
     -3698.9254
 -18142498.08948 -14076475.83447  20630516.9694   20630516.3804   20630518.6764
      1279.7524
 -10491938.58149  -8159004.10048  20404600.3994   20404600.1084   20404605.2714
      -825.7514
 -16768778.89748 -12995588.61247  21111749.6154   21111749.9914   21111750.7434
     -1482.0574
 11 10  9  0 26 30.0000000  0  9G23G28G32G17G14G19G20G01G11
  -2212494.46946  -1662219.63445  24803920.8544   24803922.8014   24803920.5784
      3772.3774
  -7493734.64347  -5770897.80746  22301677.6454   22301677.7294   22301678.5134
     -2417.1394
 -21324296.14649 -16546433.72448  20473999.7764   20473999.5204   20474002.3304
         9.2174
 -14968154.34448 -11588113.37047  21931732.8874   21931733.1854   21931735.1374
      2628.5124
  -3432939.27147  -2634802.35746  23880772.6274   23880772.9604   23880776.8874
     -1802.5854
  -1928017.40147  -1419993.19646  24238665.5574   24238664.0854   24238666.3944
     -3703.1804
 -18180653.62148 -14106207.46247  20623256.1254   20623256.1594   20623257.5924
      1263.5354
 -10466998.99749  -8139570.64148  20409345.9114   20409345.9564   20409351.3244
      -837.4184
 -16724163.88848 -12960823.64047  21120239.4554   21120238.7644   21120240.9964
     -1492.8284
 11 10  9  0 27  0.0000000  0  9G23G28G32G17G14G19G20G01G11
  -2325682.53746  -1750418.10445  24782381.3714   24782381.4424   24782383.9624
      3772.9384
  -7420989.62347  -5714213.41746  22315520.9484   22315520.6264   22315521.4044
     -2433.2944
 -21324300.37849 -16546437.01148  20473998.9344   20473998.2334   20474001.2794
        -9.6794
 -15046847.58048 -11649432.77447  21916758.4164   21916758.1974   21916759.8824
      2617.0274
  -3378603.91647  -2592463.25246  23891113.3634   23891114.3174   23891114.3854
     -1820.4124
  -1816841.15547  -1333362.51546  24259822.6414   24259820.4864   24259821.7204
     -3708.5924
 -18218332.92148 -14135567.97247  20616086.1794   20616085.3114   20616087.7594
      1247.5984
 -10441712.11149  -8119866.61848  20414158.2464   20414157.9374   20414163.2144
      -849.1924
 -16679233.56248 -12925812.98947  21128789.4904   21128789.6864   21128790.9004
     -1503.2804
 11 10  9  0 27 30.0000000  0  9G23G28G32G17G14G19G20G01G11
  -2438897.08546  -1838637.18645  24760835.1084   24760834.2464   24760838.1204
      3774.6424
  -7347758.62247  -5657150.34146  22329455.9724   22329455.5974   22329457.7084
     -2449.1274
 -21323735.85749 -16545997.14948  20474106.5834   20474106.5514   20474108.9064
       -28.2854
 -15125195.83948 -11710483.35447  21901848.9804   21901848.9704   21901851.5594
      2605.8684
  -3323719.26147  -2549696.05246  23901559.2854   23901558.9464   23901560.1394
     -1838.5754
  -1705522.28746  -1246620.68646  24281004.3134   24281003.4784   24281006.0624
     -3712.9534
 -18255535.47948 -14164556.96547  20609006.9344   20609006.2004   20609008.1194
      1232.1724
 -10416078.45849  -8099892.46248  20419036.2454   20419036.0104   20419041.3234
      -860.3054
 -16633988.36248 -12890556.98147  21137399.1964   21137398.9954   21137400.6694
     -1513.3874
 11 10  9  0 28  0.0000000  0  9G23G28G32G17G14G19G20G01G11
  -2552134.13146  -1926873.91145  24739289.6204   24739288.8764   24739289.8974
      3774.8994
  -7274043.27747  -5599709.87846  22343483.8744   22343482.7824   22343485.1334
     -2465.4314
 -21322601.72749 -16545113.45848  20474322.2514   20474321.7904   20474324.8964
       -47.4254
 -15203195.64748 -11771262.40747  21887006.1794   21887006.6074   21887008.0324
      2593.9244
  -3268285.79146  -2506501.41146  23912105.9154   23912104.9364   23912109.8274
     -1856.7484
  -1594061.42546  -1159768.18946  24302215.4904   24302214.1604   24302217.6444
     -3718.0814
 -18292259.81648 -14193173.40847  20602018.3914   20602017.9924   20602020.1714
      1216.1274
 -10390096.95049  -8079647.22248  20423980.3184   20423980.1224   20423985.5444
      -871.9944
 -16588427.28048 -12855054.86847  21146069.3574   21146069.0294   21146071.0434
     -1524.1234
 11 10  9  0 28 30.0000000  0  9G23G28G32G17G14G19G20G01G11
  -2665392.52446  -2015127.18845  24717738.1994   24717738.7024   24717737.4914
      3775.5224
  -7199848.65547  -5541895.93446  22357602.5514   22357601.9084   22357604.2884
     -2481.1284
 -21320900.17649 -16543787.55348  20474645.9424   20474645.6194   20474648.2304
       -66.3604
 -15280846.90448 -11831769.86347  21872229.8554   21872229.6654   21872230.9984
      2582.4114
  -3212306.22846  -2462880.79146  23922758.6484   23922759.6354   23922760.7384
     -1875.0364
  -1482462.11147  -1072807.84346  24323452.1774   24323451.3484   24323453.5794
     -3722.3284
 -18328507.29148 -14221418.21548  20595120.9134   20595120.0494   20595122.5194
      1200.2924
 -10363769.94149  -8059132.76548  20428990.3094   20428990.0014   20428995.4514
      -883.3524
 -16542552.48048 -12819308.31447  21154799.0974   21154799.2964   21154800.2334
     -1534.3124
 11 10  9  0 29  0.0000000  0  9G23G28G32G17G14G19G20G01G11
  -2778665.64046  -2103391.98345  24696181.9384   24696184.4774   24696180.4004
      3776.4554
  -7125173.42547  -5483707.47346  22371812.4334   22371812.1214   22371813.2744
     -2496.9344
 -21318627.67549 -16542016.74148  20475078.5854   20475077.7934   20475081.3964
       -85.0434
 -15358142.90548 -11892000.47247  21857520.7014   21857521.1154   21857523.1654
      2570.9624
  -3155779.71747  -2418833.93746  23933516.0364   23933515.9744   23933520.4144
     -1892.7844
  -1370721.85346   -985737.66546  24344715.7094   24344713.1194   24344717.1224
     -3726.7544
 -18364273.57848 -14249288.10647  20588314.6164   20588314.2224   20588316.0424
      1184.4124
 -10337093.63349  -8038346.12148  20434066.6864   20434066.4034   20434071.7604
      -894.7864
 -16496360.16848 -12783314.31147  21163589.1244   21163589.0194   21163590.6764
     -1544.8574
 11 10  9  0 29 30.0000000  0  9G23G28G32G17G14G19G20G01G11
  -2891952.74046  -2191667.67345  24674624.7724   24674624.3414   24674627.5234
      3775.7534
  -7050023.14547  -5425148.84046  22386113.4684   22386113.2124   22386113.9214
     -2513.0654
 -21315787.48049 -16539803.64448  20475619.0204   20475618.7764   20475621.5874
      -104.2934
 -15435084.21148 -11951954.73047  21842879.1724   21842879.5994   21842881.0534
      2558.5714
  -3098710.65746  -2374364.60246  23944374.9194   23944373.4964   23944378.7634
     -1911.4974
  -1258845.15446   -898561.18146  24366005.2834   24366005.2304   24366006.7154
     -3731.6524
 -18399560.57948 -14276784.50347  20581599.8424   20581599.5794   20581601.3234
      1168.0534
 -10310070.93349  -8017289.53748  20439208.9314   20439208.6804   20439213.9154
      -906.8604
 -16449853.17548 -12747075.09147  21172439.3104   21172439.4324   21172440.7104
     -1555.6754
 11 10  9  0 30  0.0000000  0  9G23G28G32G17G14G19G20G01G11
  -3005254.00846  -2279954.35045  24653064.1884   24653062.9334   24653066.9704
      3776.4964
  -6974403.82147  -5366224.72946  22400503.7244   22400503.1594   22400503.1434
     -2528.9094
 -21312382.98549 -16537150.82448  20476266.9864   20476266.2874   20476269.5814
      -123.2914
 -15511671.31048 -12011632.98947  21828305.2674   21828305.4964   21828307.5294
      2546.6254
  -3041104.10346  -2329476.60546  23955337.8284   23955336.1674   23955342.3224
     -1929.4554
  -1146836.63247   -811282.00146  24387321.1554   24387319.8054   24387320.4284
     -3736.2144
 -18434371.20948 -14303909.78947  20574975.6614   20574975.0654   20574976.9674
      1152.0974
 -10282705.33349  -7995965.77548  20444416.5454   20444416.4024   20444421.8314
      -918.3184
 -16403035.04948 -12710593.45147  21181348.4284   21181348.4804   21181349.6824
     -1566.0994
 11 10  9  0 30 30.0000000  0  9G23G28G32G17G14G19G20G01G11
  -3118565.67346  -2368249.15345  24631499.1054   24631499.2984   24631501.5384
      3777.6854
  -6898317.92747  -5306937.06146  22414982.1904   22414981.1754   22414982.5554
     -2544.1154
 -21308413.91249 -16534058.03248  20477022.0664   20477021.8274   20477024.7454
      -141.8384
 -15587901.00748 -12071032.74847  21813799.1034   21813797.9634   21813801.3604
      2534.6594
  -2982960.55146  -2284169.92045  23966401.4984   23966399.4564   23966403.7974
     -1947.0094
  -1034697.43846   -723900.99346  24408658.4294   24408657.7454   24408659.8634
     -3740.4214
 -18468703.84448 -14330662.50147  20568442.2414   20568441.7974   20568444.3454
      1136.3374
 -10254996.43949  -7974374.48348  20449689.3964   20449689.4074   20449694.6254
      -929.6964
 -16355904.99048 -12673868.74347  21190316.9404   21190316.6034   21190318.5274
     -1576.3674
 11 10  9  0 31  0.0000000  0  9G23G28G32G17G14G19G20G01G11
  -3231878.30946  -2456544.72845  24609939.3224   24609938.4314   24609938.5094
      3776.7814
  -6821761.53147  -5247282.77546  22429549.9874   22429549.9494   22429551.3354
     -2560.0764
 -21303873.96949 -16530520.47348  20477886.3004   20477885.3694   20477888.6294
      -161.1954
 -15663763.94548 -12130146.69347  21799362.9874   21799362.5744   21799364.6724
      2522.3174
  -2924274.94746  -2238440.63745  23977568.5744   23977572.5444   23977570.6304
     -1966.0114
   -922422.39146   -636414.09546  24430023.6504   24430022.7494   24430026.4474
     -3745.2074
 -18502551.52048 -14357037.32748  20562001.4794   20562000.6504   20562003.1074
      1119.8024
 -10226937.74849  -7952510.68048  20455028.7344   20455028.7684   20455034.2604
      -941.6324
 -16308456.39948 -12636895.83447  21199346.1924   21199346.0904   21199347.3784
     -1587.3084
 11 10  9  0 31 30.0000000  0  9G23G28G32G17G14G19G20G01G11
  -3345197.32846  -2544845.25845  24588374.1304   24588374.2714   24588374.2184
      3777.1024
  -6744746.17047  -5187270.83946  22444205.5144   22444204.4394   22444207.4134
     -2575.5494
 -21298772.24449 -16526545.19948  20478856.8224   20478856.3904   20478859.3844
      -180.0424
 -15739266.58148 -12188979.88647  21784994.8644   21784995.2764   21784996.5154
      2510.1064
  -2865058.03746  -2192297.22646  23988837.8174   23988837.5574   23988840.7214
     -1983.3134
   -810021.68847   -548829.31346  24451414.9874   24451412.9444   24451415.6364
     -3749.3704
 -18535922.38548 -14383040.61247  20555651.0004   20555650.4514   20555653.3544
      1103.8694
 -10198538.28549  -7930381.43748  20460433.2994   20460433.1764   20460438.7614
      -952.9384
 -16260698.33948 -12599681.78547  21208434.2644   21208434.1234   21208435.6664
     -1597.6724
 11 10  9  0 32  0.0000000  0  9G23G28G32G17G14G19G20G01G11
  -3458518.19146  -2633147.20945  24566808.8074   24566809.4464   24566811.7484
      3777.4734
  -6667273.26547  -5126902.38746  22458948.5554   22458947.0304   22458949.1444
     -2590.4924
 -21293107.69249 -16522131.31048  20479935.1094   20479934.7244   20479937.4814
      -198.9934
 -15814405.00048 -12247529.28247  21770696.6944   21770696.8074   21770698.5334
      2497.8864
  -2805311.57146  -2145741.40546  24000207.1174   24000207.9854   24000210.4854
     -2000.7744
   -697495.73947   -461146.92046  24472827.5674   24472827.2314   24472829.5774
     -3753.6884
 -18568814.44448 -14408670.83447  20549392.3194   20549391.4104   20549393.8724
      1087.6264
 -10169796.37249  -7907985.16348  20465902.6944   20465902.4304   20465907.8654
      -964.5354
 -16212629.51348 -12562225.60047  21217581.3924   21217581.3764   21217583.1284
     -1608.1574
 11 10  9  0 32 30.0000000  0  9G23G28G32G17G14G19G20G01G11
  -3571834.16846  -2721445.35545  24545247.7734   24545245.9724   24545247.3574
      3776.8604
  -6589342.09747  -5066176.84646  22473777.8814   22473777.6594   22473779.6234
     -2605.4674
 -21286877.08349 -16517276.39148  20481120.7584   20481120.2004   20481123.2124
      -217.2544
 -15889172.85548 -12305789.93047  21756468.9624   21756469.1014   21756470.6564
      2485.7624
  -2745032.76646  -2098770.74746  24011676.9034   24011676.8724   24011680.6294
     -2017.7554
   -584842.38947   -373365.26246  24494264.4984   24494264.3234   24494266.7574
     -3757.1804
 -18601223.76748 -14433924.90948  20543224.8054   20543224.4294   20543226.4514
      1072.1064
 -10140708.70749  -7885319.40148  20471437.9014   20471437.7454   20471443.2524
      -975.5624
 -16164246.05448 -12524524.22247  21226788.4394   21226788.5714   21226789.5034
     -1618.1594
 11 10  9  0 33  0.0000000  0  9G23G28G32G17G14G19G20G01G11
  -3685145.90946  -2809740.22445  24523683.6204   24523682.6134   24523685.4324
      3777.4814
  -6510959.49547  -5005099.52646  22488693.4314   22488693.8884   22488694.7414
     -2620.1334
 -21280084.68549 -16511983.75048  20482413.4324   20482412.8194   20482415.7614
      -235.5734
 -15963571.63848 -12363762.99047  21742311.6074   21742311.2304   21742312.9194
      2473.9864
  -2684227.69146  -2051390.27246  24023249.8104   24023247.9264   24023248.7744
     -2035.4614
   -472067.04147   -285488.54046  24515724.1934   24515723.5854   24515727.4914
     -3761.2154
 -18633153.42748 -14458805.19648  20537148.6984   20537147.9784   20537150.3574
      1056.4954
 -10111279.46349  -7862387.51348  20477038.1054   20477037.8144   20477043.2464
      -986.6374
 -16115552.12448 -12486580.90747  21236054.5204   21236054.7574   21236055.9934
     -1628.0894
 11 10  9  0 33 30.0000000  0  9G23G28G32G17G14G19G20G01G11
  -3798443.09547  -2898023.75746  24502122.8734   24502122.7034   24502125.2794
      3776.2544
  -6432121.52647  -4943667.37146  22503695.4794   22503695.4624   22503697.2964
     -2635.2204
 -21272723.70149 -16506247.88948  20483813.9444   20483813.7994   20483816.8284
      -254.7174
 -16037591.94348 -12421441.12447  21728225.4574   21728225.9184   21728226.9394
      2461.0154
  -2622890.69046  -2003594.84646  24034919.7414   24034919.6254   24034923.3444
     -2053.1754
   -359164.46347   -197512.70346  24537210.8254   24537210.4554   24537211.7874
     -3765.5314
 -18664596.08948 -14483305.98648  20531165.4144   20531165.0274   20531167.2754
      1040.0744
 -10081502.06549  -7839184.36848  20482704.4504   20482704.2284   20482709.6134
      -998.2894
 -16066541.13448 -12448390.51347  21245381.1314   21245380.5944   21245382.7864
     -1638.9534
 11 10  9  0 34  0.0000000  0  9G23G28G32G17G14G19G20G01G11
  -3911721.57347  -2986292.69046  24480569.1584   24480567.9384   24480569.2604
      3775.1364
  -6352829.26147  -4881881.22946  22518784.9174   22518783.6864   22518785.9364
     -2651.0554
 -21264793.89249 -16500068.91648  20485323.1854   20485322.6234   20485325.9404
      -274.3074
 -16111229.97548 -12478821.42347  21714212.6174   21714212.5874   21714214.9264
      2447.6064
  -2561023.18646  -1955386.21346  24046691.9454   24046692.7524   24046696.0654
     -2072.0634
   -246134.72547   -109437.74046  24558719.1944   24558717.6744   24558720.3614
     -3770.0154
 -18695550.23548 -14507426.10948  20525275.0914   20525274.8034   20525276.6854
      1022.9944
 -10051375.20349  -7815708.86248  20488437.2964   20488437.2924   20488442.5594
     -1010.7254
 -16017211.82648 -12409952.05847  21254768.2824   21254768.2064   21254769.4624
     -1650.0844
 11 10  9  0 34 30.0000000  0  9G23G28G32G17G14G19G20G01G11
  -4024995.90047  -3074558.38546  24459012.4524   24459011.7594   24459015.7054
      3775.1324
  -6273103.36747  -4819757.19746  22533955.7984   22533955.4744   22533957.3424
     -2665.1164
 -21256313.08449 -16493460.66148  20486937.2574   20486936.6764   20486939.9334
      -292.4224
 -16184500.73448 -12535915.55747  21700270.0834   21700270.3574   21700271.8914
      2435.6424
  -2498644.20646  -1906779.15246  24058564.0584   24058563.7614   24058563.1294
     -2088.4644
   -132996.97346    -21278.61446  24580247.9814   24580247.2214   24580250.7824
     -3773.5394
 -18726032.53048 -14531178.59648  20519474.5694   20519474.0414   20519476.4564
      1007.7194
 -10020916.63249  -7791974.85848  20494233.5044   20494233.2484   20494238.7434
     -1021.4454
 -15967581.79148 -12371279.29247  21264212.5494   21264211.9184   21264213.9104
     -1659.7964
 11 10  9  0 35  0.0000000  0  9G23G28G32G17G14G19G20G01G11
  -4138254.70147  -3162811.97646  24437460.0934   24437462.2064   24437463.5514
      3774.7744
  -6192939.03847  -4757291.52746  22549211.7204   22549210.4594   22549212.8674
     -2679.4814
 -21247273.25649 -16486416.60148  20488657.3464   20488656.6284   20488659.9644
      -310.7484
 -16257393.47848 -12592715.08047  21686399.0954   21686399.4444   21686400.1644
      2423.4034
  -2435748.19746  -1857769.25746  24070532.1334   24070532.3704   24070535.0454
     -2105.5764
    -19745.04046     66969.47046  24601799.6504   24601799.2494   24601802.2874
     -3776.9034
 -18756034.74348 -14554556.98548  20513765.4554   20513764.9184   20513767.4264
       991.8404
  -9990118.45949  -7767976.18348  20500094.0994   20500094.1304   20500099.2834
     -1032.2794
 -15917643.27948 -12332366.19147  21273715.5964   21273715.1704   21273717.0324
     -1669.8354
 11 10  9  0 35 30.0000000  0  9G23G28G32G17G14G19G20G01G11
  -4251499.77747  -3251054.86546  24415910.9844   24415909.8624   24415911.8264
      3773.9104
  -6112344.14447  -4694490.34546  22564547.3464   22564548.3214   22564549.6634
     -2694.4444
 -21237680.72649 -16478942.05848  20490482.8434   20490482.2714   20490485.5674
      -329.4314
 -16329911.00748 -12649222.23847  21672599.4144   21672599.0874   21672601.5664
      2410.6214
  -2372341.85146  -1808361.69746  24082597.2374   24082597.5354   24082600.2674
     -2122.4284
     93614.42846    155301.29646  24623370.6624   24623373.1404   24623373.1154
     -3780.9674
 -18785561.31148 -14577564.71548  20508146.7954   20508146.1144   20508148.6394
       975.7644
  -9958986.52849  -7743717.67348  20506018.3114   20506018.1294   20506023.7604
     -1043.8274
 -15867401.49948 -12293216.78547  21283276.1404   21283276.0164   21283277.4144
     -1680.1404
 11 10  9  0 36  0.0000000  0  9G23G28G32G17G14G19G20G01G11
  -4364711.38947  -3339271.70646  24394366.4584   24394365.1104   24394367.7514
      3773.1944
  -6031304.85347  -4631342.88246  22579968.8304   22579969.1794   22579969.9314
     -2708.8504
 -21227519.13349 -16471024.05348  20492416.5514   20492416.2564   20492419.0494
      -348.4254
 -16402033.98548 -12705421.93447  21658874.6884   21658875.2514   21658877.1094
      2397.3704
  -2308411.06746  -1758545.69346  24094763.6244   24094763.4314   24094766.6554
     -2140.0754
    207096.30846    243728.53046  24644966.1744   24644965.3364   24644968.0594
     -3784.7344
 -18814595.51748 -14600188.78248  20502621.7414   20502621.4084   20502623.6244
       959.3434
  -9927503.97149  -7719185.86948  20512009.5354   20512009.3464   20512014.5954
     -1055.3394
 -15816840.06748 -12253818.30947  21292897.7474   21292897.3554   21292899.4744
     -1690.8304
 11 10  9  0 36 30.0000000  0  9G23G28G32G17G14G19G20G01G11
  -4477896.59847  -3427467.99246  24372829.1724   24372828.8854   24372828.5384
      3772.4884
  -5949834.79547  -4567859.76946  22595472.1664   22595472.1474   22595473.6164
     -2722.8564
 -21216799.21549 -16462670.95448  20494456.4944   20494455.8184   20494459.1734
      -366.6204
 -16473770.66448 -12761320.66147  21645223.5524   21645223.5244   21645225.9674
      2384.7924
  -2243967.22646  -1708329.71246  24107026.1814   24107025.6624   24107030.1474
     -2156.5954
    320689.07146    332242.18446  24666582.5994   24666581.6094   24666584.4654
     -3788.4714
 -18843147.65448 -14622437.22348  20497188.3664   20497187.9344   20497190.0964
       943.7494
  -9895681.43549  -7694389.18348  20518064.9714   20518064.8074   20518070.1914
     -1066.5294
 -15765969.46048 -12214178.89947  21302578.0144   21302577.7554   21302579.9324
     -1700.8264
 11 10  9  0 37  0.0000000  0  9G23G28G32G17G14G19G20G01G11
  -4591056.49647  -3515644.51846  24351294.4564   24351294.6274   24351295.4934
      3770.9734
  -5867940.66347  -4504046.19546  22611056.8574   22611055.7614   22611057.9184
     -2737.4614
 -21205525.69549 -16453886.46748  20496602.0254   20496601.4994   20496604.8004
      -385.4774
 -16545122.12348 -12816919.18447  21631645.5864   21631646.1794   21631648.6984
      2371.3044
  -2179016.47646  -1657718.71846  24119387.4574   24119387.4264   24119389.8144
     -2174.1804
    434387.26946    420837.97646  24688218.8354   24688216.4754   24688221.5504
     -3792.4674
 -18871220.52448 -14644312.19848  20491846.3634   20491845.9834   20491848.2654
       927.1944
  -9863522.98549  -7669330.71748  20524184.6124   20524184.3954   20524189.9084
     -1078.0904
 -15714793.45948 -12174301.51047  21312316.3894   21312316.4544   21312317.6314
     -1711.5694
 11 10  9  0 37 30.0000000  0  9G23G28G32G17G14G19G20G01G11
  -4704179.93647  -3603792.65546  24329768.0074   24329768.1984   24329770.5244
      3769.9444
  -5785617.66247  -4439898.43646  22626721.7324   22626721.8134   22626722.8814
     -2751.3054
 -21193691.50849 -16444665.25248  20498854.1404   20498853.4304   20498857.0054
      -403.9624
 -16616078.43148 -12872209.80147  21618143.6644   21618143.4394   21618145.5914
      2358.4644
  -2113553.84746  -1606709.07546  24131843.3224   24131844.9184   24131845.3044
     -2191.3384
    548196.76946    509520.49546  24709876.2314   24709876.2354   24709878.1854
     -3795.3174
 -18898806.17248 -14665807.50948  20486597.0874   20486596.5054   20486598.2994
       911.2444
  -9831021.09349  -7644004.64848  20530369.6244   20530369.3664   20530374.8774
     -1089.3784
 -15663304.71648 -12134180.43647  21322114.3764   21322114.6264   21322116.6284
     -1721.6694
 11 10  9  0 38  0.0000000  0  9G23G28G32G17G14G19G20G01G11
  -4817271.20247  -3691915.69946  24308248.0234   24308247.9264   24308249.1854
      3769.6004
  -5702876.74847  -4375425.03746  22642466.5884   22642466.9264   22642469.5644
     -2764.5794
 -21181304.57749 -16435013.17248  20501211.3684   20501211.0724   20501214.2044
      -421.7774
 -16686644.53848 -12927196.35847  21604715.1384   21604715.4134   21604716.9054
      2345.9564
  -2047588.84346  -1555308.05346  24144396.2464   24144397.0844   24144400.5014
     -2207.0104
    662108.08746    598282.39445  24731552.0354   24731552.7744   24731553.0954
     -3798.7314
 -18925912.24248 -14686929.16148  20481438.9194   20481438.0834   20481440.6154
       896.1264
  -9798183.68949  -7618417.09248  20536618.4834   20536617.9394   20536623.9014
     -1099.9644
 -15611511.05248 -12093821.79047  21331970.5934   21331970.6634   21331972.0984
     -1731.2144
 11 10  9  0 38 30.0000000  0  9G23G28G32G17G14G19G20G01G11
  -4930321.83247  -3780007.11746  24286734.0964   24286734.4304   24286735.6114
      3767.5494
  -5619715.03747  -4310623.74146  22658292.0814   22658292.6114   22658293.5994
     -2778.9394
 -21168360.13549 -16424926.65248  20503674.6494   20503674.0524   20503677.4714
      -440.6034
 -16756812.46748 -12981872.65647  21591362.7594   21591362.8454   21591364.2754
      2332.4704
  -1981117.14146  -1503512.04646  24157047.1064   24157046.0624   24157048.3894
     -2223.7574
    776125.53946    687126.93146  24753250.1884   24753248.9294   24753253.2534
     -3802.5894
 -18952532.64848 -14707672.36748  20476373.1864   20476372.8804   20476374.9074
       879.4784
  -9765005.53849  -7592564.07348  20542932.0754   20542931.9714   20542937.4194
     -1111.4794
 -15559407.20548 -12053221.46247  21341885.6484   21341885.5084   21341887.0764
     -1741.8284
 11 10  9  0 39  0.0000000  0  9G23G28G32G17G14G19G20G01G11
  -5043330.47046  -3868065.79046  24265229.4634   24265228.4374   24265230.7474
      3765.5644
  -5536137.71947  -4245498.60746  22674197.0984   22674195.7224   22674197.4404
     -2793.3494
 -21154860.58249 -16414407.45548  20506243.4994   20506242.8544   20506246.3764
      -459.6964
 -16826581.75648 -13036238.33447  21578085.9464   21578085.5444   21578087.6964
      2318.7134
  -1914143.34746  -1451324.73246  24169790.2684   24169789.0144   24169792.7464
     -2241.4224
    890245.33046    776051.25645  24774966.8794   24774965.6834   24774969.5634
     -3806.1584
 -18978668.92048 -14728038.29748  20471399.5714   20471399.2124   20471401.1684
       862.6054
  -9731488.54849  -7566446.94848  20549310.1684   20549310.0834   20549315.5844
     -1123.3274
 -15506995.25948 -12012381.01447  21351859.2544   21351858.5254   21351861.2954
     -1752.6244
 11 10  9  0 39 30.0000000  0  9G23G28G32G17G14G19G20G01G11
  -5156295.21746  -3956090.25646  24243732.4954   24243733.2204   24243734.7544
      3764.2584
  -5452148.88347  -4180052.81746  22690179.2514   22690178.5534   22690180.4424
     -2806.6934
 -21140808.18249 -16403457.44948  20508917.4874   20508916.8084   20508920.3694
      -477.9314
 -16895951.33148 -13090292.53147  21564885.3534   21564885.4324   21564886.7754
      2305.2634
  -1846671.17846  -1398748.92446  24182630.8254   24182629.4494   24182634.4334
     -2257.2644
   1004464.47546    865053.01545  24796701.2174   24796699.8044   24796705.1534
     -3809.3664
 -19004322.49148 -14748028.13248  20466517.7224   20466517.6574   20466519.8944
       846.7684
  -9697634.59849  -7540067.27448  20555752.3584   20555752.2564   20555757.9094
     -1134.4414
 -15454276.84948 -11971301.76547  21361891.4534   21361891.2434   21361892.8254
     -1762.6264
 11 10  9  0 40  0.0000000  0  9G23G28G32G17G14G19G20G01G11
  -5269210.74146  -4044076.34846  24222246.1254   24222246.3084   24222246.5724
      3762.8774
  -5367749.47247  -4114287.08246  22706240.2444   22706239.8264   22706241.3014
     -2820.2414
 -21126201.63249 -16392075.75748  20511696.9534   20511696.6934   20511699.5134
      -496.2274
 -16964916.49448 -13144031.61547  21551761.5604   21551762.3504   21551763.5044
      2291.9744
  -1778700.18246  -1345784.45646  24195564.6434   24195563.2704   24195568.8514
     -2273.9474
   1118783.42546    954132.49645  24818455.4114   24818455.9234   24818458.7424
     -3812.0844
 -19029490.52748 -14767639.60848  20461728.6144   20461728.1754   20461730.3224
       830.7364
  -9663441.52649  -7513423.32948  20562259.0844   20562259.0344   20562264.4134
     -1145.6144
 -15401249.57948 -11929981.80447  21371981.9484   21371981.9614   21371984.0364
     -1772.8874
 11 10  9  0 40 30.0000000  0  9G23G28G32G17G14G19G20G01G11
  -5382077.89146  -4132024.74446  24200768.2514   24200769.0554   24200768.8314
      3761.6254
  -5282946.94347  -4048207.23946  22722377.8174   22722376.6914   22722379.1464
     -2833.4324
 -21111045.80149 -16380266.15248  20514581.3014   20514580.7874   20514583.9244
      -514.3204
 -17033478.77948 -13197456.74747  21538714.2204   21538715.0694   21538716.7444
      2278.7904
  -1710236.14246  -1292435.45346  24208591.9274   24208592.0504   24208596.6584
     -2290.1184
   1233196.78746   1043285.58545  24840227.9424   24840229.0774   24840230.0034
     -3815.8504
 -19054176.77648 -14786875.61048  20457030.9164   20457030.3684   20457032.8734
       814.9374
  -9628913.81449  -7486518.65148  20568829.4644   20568829.6334   20568834.9604
     -1156.4664
 -15347918.10548 -11888424.81547  21382130.8484   21382130.4714   21382132.3624
     -1782.6244
 11 10  9  0 41  0.0000000  0  9G23G28G32G17G14G19G20G01G11
  -5494894.89746  -4219934.06846  24179299.3374   24179299.4694   24179302.7984
      3759.9284
  -5197745.37547  -3981816.46146  22738591.1764   22738591.5414   22738591.0804
     -2846.6194
 -21095342.59249 -16368030.00848  20517569.3664   20517568.8914   20517572.6514
      -532.2934
 -17101637.23548 -13250567.20547  21525744.5774   21525744.8714   21525746.4664
      2265.3594
  -1641284.11746  -1238706.59546  24221714.1414   24221714.4414   24221719.4404
     -2306.2274
   1347701.45446   1132509.81245  24862018.0204   24862018.5364   24862022.1944
     -3818.0834
 -19078382.66548 -14805737.38248  20452424.9534   20452423.9054   20452426.2944
       799.0544
  -9594052.95448  -7459354.34548  20575463.0574   20575462.9944   20575468.5254
     -1167.6064
 -15294284.10448 -11846632.09847  21392337.1394   21392337.1974   21392338.4834
     -1792.7014
 11 10  9  0 41 30.0000000  0  9G23G28G32G17G14G19G20G01G11
  -5607649.93846  -4307795.12846  24157843.8614   24157843.2184   24157844.7414
      3757.2114
  -5112139.63247  -3915110.72846  22754880.4724   22754880.9994   22754881.8294
     -2860.3014
 -21079084.16549 -16355361.21848  20520663.5124   20520662.8364   20520666.5054
      -551.4164
 -17169380.82348 -13303354.41347  21512853.3494   21512853.5704   21512855.1774
      2251.0084
  -1571836.54146  -1184591.70546  24234928.7044   24234927.0834   24234933.6874
     -2323.5014
   1462304.11946   1221810.38045  24883826.8354   24883824.9174   24883827.4614
     -3821.7324
 -19102099.33948 -14824217.92948  20447911.6234   20447911.3334   20447913.4564
       782.3854
  -9558850.84649  -7431924.16448  20582162.0154   20582161.9264   20582167.3144
     -1179.2384
 -15240339.42348 -11804597.30747  21402602.2414   21402602.5184   21402604.0644
     -1803.5144
 11 10  9  0 42  0.0000000  0  9G23G28G32G17G14G19G20G01G11
  -5720346.54346  -4395610.62946  24136397.6814   24136398.6984   24136399.7684
      3755.7464
  -5026139.00647  -3848097.29246  22771245.7304   22771246.3524   22771247.5154
     -2873.1114
 -21062277.95349 -16342265.58648  20523861.5514   20523861.0264   20523864.5744
      -569.3304
 -17236713.82048 -13355821.66347  21500040.1494   21500040.0934   21500041.8884
      2237.6534
  -1501902.68246  -1130097.46246  24248237.0254   24248236.1144   24248239.9584
     -2338.8954
   1576996.84446   1311181.08745  24905651.8764   24905649.9464   24905653.5634
     -3824.5404
 -19125332.96748 -14842322.08548  20443490.6404   20443489.7614   20443492.0634
       766.3514
  -9523314.12149  -7404233.22248  20588924.5184   20588924.4554   20588929.7884
     -1190.1604
 -15186090.42148 -11762325.38947  21412925.4444   21412926.0314   21412927.1004
     -1813.3064
 11 10  9  0 42 30.0000000  0  9G23G28G32G17G14G19G20G01G11
  -5832981.01046  -4483377.73046  24114964.1674   24114964.5924   24114965.1784
      3753.1744
  -4939746.22047  -3780778.29846  22787686.1334   22787685.8054   22787688.1004
     -2886.2604
 -21044923.89549 -16328742.95948  20527164.1744   20527163.5144   20527166.8684
      -587.6214
 -17303633.65548 -13407966.98447  21487305.6874   21487306.5464   21487307.9964
      2223.5744
  -1431484.41446  -1075226.15846  24261636.8234   24261636.3834   24261639.5374
     -2355.1334
   1691778.28046   1400620.98745  24927495.7974   24927495.5964   24927497.3484
     -3828.1034
 -19148083.02648 -14860049.40448  20439161.0824   20439160.7934   20439162.8094
       750.2204
  -9487442.66349  -7376281.46848  20595750.6434   20595750.5844   20595755.9634
     -1201.4284
 -15131536.89748 -11719816.18547  21423306.4354   21423306.4444   21423308.3394
     -1823.5874
 11 10  9  0 43  0.0000000  0  9G23G28G32G17G14G19G20G01G11
  -5945551.47646  -4571094.93646  24093543.0944   24093542.1774   24093542.9084
      3751.5924
  -4852966.38947  -3713157.68946  22804199.8704   22804199.0564   22804201.1514
     -2899.1734
 -21027024.84049 -16314795.59048  20530570.0824   20530569.5224   20530572.8654
      -605.7724
 -17370139.03748 -13459789.36947  21474650.1104   21474650.5474   21474652.4034
      2209.9524
  -1360585.12046  -1019979.93546  24275128.5554   24275127.5814   24275128.4004
     -2371.5104
 -26550914.87246 -20606672.61345  24949353.1994   24949352.3954   24949354.5254
     -3831.0574
 -19170351.09748 -14877401.13948  20434923.9174   20434923.1934   20434925.4434
       734.2354
  -9451238.62649  -7348070.58348  20602640.1654   20602640.0284   20602645.3654
     -1212.2934
 -15076681.18148 -11677071.51547  21433745.5494   21433744.7554   21433747.1124
     -1833.5324
 11 10  9  0 43 30.0000000  0  9G23G28G32G17G14G19G20G01G11
  -6058051.37546  -4658757.16946  24072133.3984   24072134.9084   24072133.4964
      3748.3594
  -4765798.63847  -3645234.81246  22820787.5494   22820786.8714   22820789.6024
     -2912.5144
 -21008578.10549 -16300421.53748  20534080.5404   20534079.8864   20534083.4394
      -624.2844
 -17436224.02248 -13511284.14947  21462074.6054   21462075.2914   21462076.9884
      2195.5734
  -1289203.25347   -964357.36146  24288712.0124   24288712.6184   24288714.3094
     -2387.7444
 -26435960.64146 -20517098.14745  24971226.7364   24971225.2214   24971229.9694
     -3833.9584
 -19192133.64048 -14894374.53948  20430778.6794   20430778.2744   20430780.6454
       717.6404
  -9414698.43649  -7319597.71848  20609593.2874   20609593.2124   20609598.9564
     -1223.8994
 -15021519.28648 -11634088.25447  21444242.4114   21444242.5824   21444244.5874
     -1844.0984
 11 10  9  0 44  0.0000000  0  9G23G28G32G17G14G19G20G01G11
  -6170480.64346  -4746364.38046  24050740.7934   24050738.4804   24050741.6994
      3746.8764
  -4678249.16947  -3577014.49946  22837448.1634   22837447.2004   22837448.8874
     -2924.5704
 -20989587.52349 -16285623.70048  20537694.1304   20537693.6494   20537696.8914
      -642.1234
 -17501889.24248 -13562451.83147  21449578.9784   21449578.9164   21449580.4694
      2181.7824
  -1217345.19547   -908363.85646  24302386.0854   24302385.4364   24302390.0834
     -2403.1634
 -26320923.90846 -20427459.35945  24993118.6594   24993119.1304   24993121.3764
     -3837.2174
 -19213432.91748 -14910971.30448  20426725.5484   20426724.9804   20426727.5964
       701.8944
  -9377825.53249  -7290865.61748  20616610.1704   20616610.0254   20616615.4884
     -1234.6864
 -14966054.82648 -11590869.22347  21454797.0164   21454796.2914   21454798.7284
     -1853.7364
 11 10  9  0 44 30.0000000  0  9G23G28G32G17G14G19G20G01G11
  -6282834.40946  -4833912.74546  24029358.8684   24029358.5964   24029361.0654
      3743.9784
  -4590319.90447  -3508498.24246  22854180.3814   22854179.2994   22854181.9334
     -2937.6964
 -20970052.71149 -16270401.82748  20541411.7294   20541410.9414   20541414.4834
      -660.2124
 -17567131.28348 -13613289.77847  21437164.0724   21437164.4924   21437166.2044
      2167.7184
  -1145012.19647   -852000.63346  24316151.0494   24316151.3314   24316156.2584
     -2419.0184
 -26205805.25846 -20337756.72945  25015026.0884   25015026.8904   25015028.7764
     -3839.3844
 -19234248.15148 -14927190.95848  20422764.7164   20422764.2814   20422766.2204
       685.9004
  -9340618.95249  -7261873.54548  20623690.5274   20623690.2674   20623695.8954
     -1245.7604
 -14910286.91048 -11547413.73347  21465409.3404   21465409.3034   21465410.5194
     -1863.9404
 11 10  9  0 45  0.0000000  0  9G23G28G32G17G14G19G20G01G11
  -6395110.40646  -4921400.53046  24007993.7094   24007995.2054   24007995.3324
      3741.2714
  -4502014.68047  -3439689.03146  22870983.9864   22870983.8444   22870985.4754
     -2949.9734
 -20949975.19349 -16254757.06648  20545232.2464   20545232.1204   20545235.1254
      -678.3404
 -17631948.28448 -13663796.52547  21424829.3024   21424829.9244   21424830.8944
      2153.2264
  -1072206.49447   -795269.41046  24330005.5394   24330004.7814   24330006.1144
     -2434.7914
 -26090606.40746 -20247991.61845  25036945.4164   25036945.9234   25036951.0724
     -3841.4024
 -19254579.82248 -14943033.83348  20418895.6504   20418894.9044   20418897.0924
       669.5904
  -9303079.45849  -7232622.00248  20630833.8034   20630833.6924   20630839.4234
     -1257.0904
 -14854216.65748 -11503722.66347  21476079.0064   21476078.2684   21476080.4914
     -1874.1744
 11 10  9  0 45 30.0000000  0  9G23G28G32G17G14G19G20G01G11
  -6507308.22046  -5008827.36946  23986644.3394   23986643.9214   23986644.4224
      3737.9204
  -4413339.36447  -3370591.42746  22887857.6804   22887858.0774   22887859.5254
     -2962.6394
 -20929358.70449 -16238692.31648  20549155.5414   20549155.0244   20549158.6164
      -696.6414
 -17696341.16648 -13713972.79047  21412576.1324   21412576.1184   21412578.5574
      2138.8404
   -998932.65147   -738173.04146  24343949.4884   24343950.5694   24343952.3274
     -2450.7214
 -25975332.26346 -20158167.80645  25058880.7704   25058881.2574   25058886.5884
     -3844.1824
 -19274430.89848 -14958502.24048  20415118.0374   20415117.4304   20415119.8964
       653.1294
  -9265210.29449  -7203113.58448  20638040.0264   20638040.0724   20638045.8844
     -1268.4304
 -14797846.94848 -11459798.24947  21486805.9214   21486806.1034   21486807.7034
     -1884.6724
 11 10  9  0 46  0.0000000  0  9G23G28G32G17G14G19G20G01G11
  -6619419.98246  -5096187.13646  23965310.6564   23965309.1084   23965312.1824
      3734.6144
  -4324292.67247  -3301204.44346  22904802.9214   22904803.1214   22904804.6294
     -2974.8294
 -20908199.57549 -16222204.75148  20553182.0184   20553181.8254   20553184.8534
      -714.8904
 -17760302.22048 -13763812.58747  21400404.6084   21400404.7114   21400406.7434
      2124.4784
   -925189.33247   -680710.90746  24357982.2654   24357981.1044   24357986.3974
     -2466.4284
 -25859979.68346 -20068282.88645  25080835.0114   25080834.5874   25080838.4564
     -3847.8124
 -19293796.04748 -14973591.99248  20411433.0954   20411432.4914   20411434.6054
       636.8314
  -9227007.24049  -7173345.00048  20645309.9714   20645310.0894   20645315.3924
     -1279.5354
 -14741173.42648 -11415637.10047  21497590.6244   21497590.2674   21497592.4544
     -1894.5834
 11 10  9  0 46 30.0000000  0  9G23G28G32G17G14G19G20G01G11
  -6731445.56546  -5183479.75746  23943993.0394   23943992.4364   23943991.6454
      3731.7244
  -4234880.72847  -3231532.83646  22921817.7494   22921817.6354   22921818.9534
     -2987.2754
 -20886501.84749 -16205297.48348  20557311.0004   20557310.5454   20557314.2354
      -733.2084
 -17823832.74348 -13813316.89547  21388315.3254   21388315.3644   21388317.2174
      2109.5634
   -850980.85347   -622886.09646  24372104.0314   24372103.7494   24372106.2104
     -2482.6284
 -25744553.49346 -19978340.62545  25102800.4624   25102801.7954   25102805.0754
     -3849.4364
 -19312678.72348 -14988305.80248  20407840.0444   20407839.0754   20407841.9864
       620.3184
  -9188473.62749  -7143318.85148  20652642.8844   20652642.5424   20652648.0804
     -1290.9754
 -14684199.70448 -11371242.03447  21508432.3784   21508431.9494   21508434.5174
     -1905.0094
 11 10  9  0 47  0.0000000  0  9G23G28G32G17G14G19G20G01G11
  -6843381.10546  -5270702.23246  23922690.4834   23922689.4874   23922692.6494
      3729.3664
  -4145106.34047  -3161578.82346  22938901.0114   22938901.5084   22938903.6514
     -2998.6574
 -20864265.91349 -16187970.85948  20561542.4804   20561542.0474   20561545.2084
      -750.1044
 -17886929.54048 -13862483.25147  21376308.2894   21376308.3634   21376310.0734
      2095.8534
   -776309.55347   -564700.52546  24386312.8474   24386313.6454   24386316.3584
     -2496.8504
 -25629054.97846 -19888342.06545  25124776.6894   25124775.8144   25124779.2964
     -3851.5744
 -19331078.33148 -15002643.21248  20404338.4694   20404337.8474   20404340.4754
       605.0724
  -9149609.18049  -7113034.89348  20660038.5534   20660038.7094   20660044.0454
     -1301.0944
 -14626925.37248 -11326612.73747  21519331.4074   21519331.3024   21519333.7284
     -1914.0504
 11 10  9  0 47 30.0000000  0  9G23G28G32G17G14G19G20G01G11
  -6955223.01447  -5357851.77546  23901409.4854   23901408.5704   23901410.2574
      3726.1934
  -4054972.10047  -3091344.40146  22956054.0584   22956052.9364   22956054.6564
     -3010.4364
 -20841492.29549 -16170225.27748  20565876.2064   20565875.8614   20565879.1554
      -768.1304
 -17949589.89948 -13911309.50247  21364384.4474   21364385.0054   21364386.3814
      2081.5334
   -701177.51946   -506156.07346  24400610.4794   24400609.0064   24400613.5374
     -2512.2434
 -27088905.09256 -21025887.81255  25146770.0644   25146766.5564   25146772.2534
     -3853.7324
 -19348994.18948 -15016603.64648  20400929.2904   20400928.7894   20400930.7624
       589.1444
  -9110413.73749  -7082493.03448  20667497.1834   20667497.1834   20667502.8774
     -1312.0024
 -14569350.00348 -11281748.86047  21530287.6954   21530287.4504   21530289.5154
     -1924.2674
 11 10  9  0 48  0.0000000  0  8G23G28G32G17G14G20G01G11
  -7066966.50047  -5444924.59946  23880145.2014   23880144.0654   23880147.3784
      3722.8484
  -3964479.56247  -3020830.77446  22973273.9484   22973273.2214   22973275.3744
     -3022.6164
 -20818180.34549 -16152060.15648  20570312.1564   20570311.7464   20570315.4624
      -786.2504
 -18011809.80648 -13959792.54647  21352544.2674   21352544.0934   21352545.9664
      2066.3414
   -625585.50247   -447253.07546  24414994.2524   24414993.8284   24414995.8854
     -2527.9084
 -19366424.94548 -15030186.10648  20397612.1874   20397611.9334   20397614.0974
       572.6994
  -9070886.08749  -7051692.31348  20675019.2284   20675018.8184   20675024.5924
     -1323.4504
 -14511472.69748 -11236649.70747  21541301.4664   21541301.1914   21541302.9034
     -1934.3904
 11 10  9  0 48 30.0000000  0  8G23G28G32G17G14G20G01G11
  -7178613.39547  -5531922.16346  23858898.0784   23858899.0004   23858899.2294
      3719.5494
  -3873637.35747  -2950044.69246  22990560.4724   22990560.6184   22990562.1934
     -3034.3344
 -20794336.64349 -16133480.74848  20574849.7904   20574849.4904   20574852.4294
      -803.9554
 -18073592.57048 -14007934.96847  21340787.1934   21340787.9104   21340789.2324
      2051.6784
   -549541.90646   -387998.18846  24429465.7864   24429466.1234   24429473.2564
     -2542.5914
 -19383375.63448 -15043394.49748  20394386.6764   20394386.7584   20394388.7444
       556.7304
  -9031031.83049  -7020637.09748  20682603.0914   20682602.8434   20682608.5004
     -1334.3344
 -14453298.96348 -11191319.55547  21552371.8594   21552371.5494   21552373.8544
     -1944.3764
 11 10  9  0 49  0.0000000  0  8G23G28G32G17G14G20G01G11
  -7290156.67547  -5618838.99746  23837673.0834   23837672.1224   23837674.3144
      3717.2894
  -3782444.73647  -2878985.55946  23007913.2064   23007913.3644   23007915.3824
     -3044.9984
 -20769958.14549 -16114484.58048  20579488.7004   20579488.2254   20579492.1394
      -820.7804
 -18134931.93848 -14055731.88347  21329114.6094   21329115.4634   21329116.6734
      2037.8014
   -473045.66646                  24444022.6224   24444021.2044
     -2557.0044
 -19399842.60648 -15056225.94548  20391253.4454   20391252.9114   20391254.7654
       541.4274
  -8990847.39349  -6989324.55548  20690249.9674   20690249.6944   20690255.3884
     -1344.3934
 -14394825.34748 -11145755.73247  21563498.8804   21563498.4764   21563500.9434
     -1953.3464
 11 10  9  0 49 30.0000000  0  8G23G28G32G17G14G20G01G11
  -7401594.09147  -5705673.34046  23816466.0384   23816465.1864   23816467.7694
      3712.7724
  -3690905.43547  -2807656.27446  23025333.0544   23025332.2904   23025335.5264
     -3057.0814
 -20745046.75349 -16095073.14348  20584229.4634   20584228.9074   20584232.3874
      -839.3064
 -18195826.28148 -14103182.02647  21317526.9954   21317527.2774   21317529.4054
      2022.1484
   -396097.55446   -268431.78745  24458664.9924   24458666.3354   24458668.3304
     -2572.3864
 -19415826.66548 -15068681.06248  20388211.5654   20388211.0414   20388213.3344
       524.8804
  -8950334.10249  -6957755.81548  20697959.3504   20697959.0504   20697965.0364
     -1355.9514
 -14336053.03848 -11099959.16247  21574682.8564   21574682.6294   21574685.0244
     -1963.9794
 11 10  9  0 50  0.0000000  0  8G23G28G32G17G14G20G01G11
  -7512924.36047  -5792424.17746  23795282.0464   23795281.7894   23795283.1234
      3709.5134
  -3599025.31447  -2736061.42546  23042817.3424   23042817.0984   23042819.1744
     -3068.5044
 -20719605.61649 -16075248.93448  20589070.5824   20589070.2394   20589073.7594
      -856.6584
 -18256275.47848 -14150285.30447  21306024.0234   21306024.2384   21306025.8864
      2007.6804
   -318703.38046   -208124.38845  24473392.0564   24473390.1884   24473394.1504
     -2587.1024
 -19431329.99448 -15080761.58548  20385261.3534   20385260.7384   20385263.0424
       508.9034
  -8909494.26148  -6925932.62548  20705730.9484   20705730.8624   20705736.3044
     -1366.6934
 -14276984.46648 -11053931.74747  21585923.1644   21585923.0884   21585925.1204
     -1973.8184
 11 10  9  0 50 30.0000000  0  8G23G28G32G17G14G20G01G11
  -7624140.67647  -5879086.21346  23774117.8304   23774118.1424   23774119.3654
      3704.8884
  -3506803.70147  -2664200.47746  23060367.3774   23060366.8114   23060367.4524
     -3080.1894
 -20693632.11949 -16055009.86048  20594013.2754   20594012.8044   20594016.6264
      -874.8894
 -18316273.33048 -14197036.86347  21294607.1034   21294607.3224   21294609.2994
      1992.0644
   -240862.86846   -147469.59845  24488205.4714   24488205.1144   24488206.5494
     -2602.6974
 -19446349.02448 -15092464.68548  20382403.5714   20382403.0224   20382405.3524
       492.2624
  -8868324.33348  -6893852.19648  20713565.6174   20713565.1604   20713571.0124
     -1378.1424
 -14217616.03448 -11007670.66247  21597220.8364   21597220.1384   21597222.0574
     -1984.2934
 11 10  9  0 51  0.0000000  0  8G23G28G32G17G14G20G01G11
  -7735244.26747  -5965660.42546  23752975.7054   23752975.7434   23752975.9384
      3701.0574
  -3414248.01847  -2592079.23146  23077980.4674   23077979.5854   23077980.8884
     -3091.3474
 -20667131.94549 -16034360.41648  20599056.0054   20599055.6444   20599058.8624
      -892.5564
 -18375822.34648 -14243438.68447  21283274.9004   21283275.1574   21283276.7084
      1977.0914
   -162582.18746    -86471.70646  24503101.6194   24503103.3654   24503105.1804
     -2617.1244
 -19460888.42348 -15103794.10548  20379636.6054   20379636.4084   20379638.5004
       476.3074
  -8826829.37048  -6861518.48648  20721461.3934   20721461.6794   20721467.2514
     -1389.0904
 -14157952.74648 -10961179.81847  21608574.1024   21608573.8474   21608575.8314
     -1994.1304
 11 10  9  0 51 30.0000000  0  8G23G28G32G17G14G20G01G11
  -7846195.95947  -6052116.27846  23731862.1214   23731861.3794   23731862.3804
      3697.7954
  -3321325.98147  -2519672.50246  23095661.9154   23095661.6504   23095663.9964
     -3101.4124
 -20640070.40149 -16013273.52148  20604205.8004   20604205.1384   20604208.7134
      -909.1684
 -18434884.78548 -14289461.37147  21272035.5224   21272036.1294   21272037.9724
      1962.7874
    -83827.94646    -25104.74445  24518087.2264   24518085.1994   24518090.1824
     -2630.5804
 -19474912.34348 -15114721.81948  20376967.9624   20376967.2314   20376969.5164
       461.0744
  -8784973.90848  -6828903.87348  20729426.5034   20729426.2504   20729432.0264
     -1398.9104
 -14097959.10448 -10914431.58047  21619990.7814   21619990.5944   21619992.4294
     -2003.0444
 11 10  9  0 52  0.0000000  0  8G23G28G32G17G14G20G01G11
  -7957063.38147  -6138506.47746  23710764.9674   23710765.2594   23710765.4444
      3693.3044
  -3228111.64747  -2447038.03346  23113401.4734   23113399.7404   23113401.8824
     -3112.8484
 -20612519.80849 -15991805.64148  20609448.4244   20609448.2554   20609451.5924
      -927.1874
 -18493528.78748 -14335158.00547  21260876.3454   21260876.5164   21260878.0454
      1947.0014
     -4674.07146     36573.32945  24533151.5784   24533152.0764   24533155.2034
     -2645.7134
 -19488491.99148 -15125303.34248  20374383.9764   20374383.2294   20374385.9224
       444.5134
  -8742829.24748  -6796063.89548  20737446.3544   20737446.3594   20737452.1014
     -1410.4254
 -14037706.55548 -10867481.60947  21631456.4304   21631456.0264   21631458.4474
     -2013.5354
 11 10  9  0 52 30.0000000  0  8G23G28G32G17G14G20G01G11
  -8067802.78047  -6224796.91046  23689691.2654   23689692.1124   23689692.3974
      3689.7574
  -3134567.67347  -2374146.68546  23131201.5804   23131201.0814   23131203.4744
     -3123.3684
 -20584440.15148 -15969925.44648  20614792.0674   20614791.7504   20614795.0664
      -944.6184
 -18551711.55948 -14380495.25047  21249804.6424   21249804.7074   21249805.8424
      1931.9234
     74917.95046     98592.74245  24548297.6844   24548296.9134   24548302.1374
     -2660.5864
 -19501586.61848 -15135506.97148  20371892.0394   20371891.4714   20371893.8304
       428.5874
  -8700354.96348  -6762967.07848  20745528.9934   20745528.7454   20745534.3524
     -1421.1664
 -13977154.90048 -10820298.55447  21642978.8214   21642978.4784   21642981.0784
     -2023.0684
 11 10  9  0 53  0.0000000  0  8G23G28G32G17G14G20G01G11
  -8178414.97147  -6310988.24146  23668642.6074   23668643.2614   23668642.8554
      3684.9944
  -3040701.45547  -2301004.23246  23149063.2284   23149063.1504   23149064.5954
     -3134.1674
 -20555836.96049 -15947637.26848  20620234.7054   20620234.3654   20620238.1084
      -962.0114
 -18609434.73748 -14425474.36747  21238820.4034   21238820.9174   21238821.6194
      1916.6634
    154942.48346                  24563524.5194   24563521.3724
     -2674.7964
 -19514200.55948 -15145336.09148  20369491.6664   20369490.7474   20369493.5014
       412.6334
  -8657555.47348  -6729616.83848  20753673.4954   20753673.3184   20753679.5444
     -1432.0304
 -13916308.41048 -10772885.75647  21654557.8184   21654557.4644   21654559.7564
     -2033.0144
 11 10  9  0 53 30.0000000  0  8G23G28G32G17G14G20G01G11
  -8288893.33647  -6397075.26246  23647619.1274   23647618.6434   23647620.9284
      3680.2714
  -2946512.78447  -2227610.53546  23166986.8884   23166986.4634   23166989.6524
     -3144.9444
 -20526707.91549 -15924939.34848  20625778.2224   20625777.9974   20625781.1924
      -979.9324
 -18666693.01548 -14470091.21147  21227924.3994   21227924.7624   21227926.3434
      1900.6374
    235399.42447    223643.78045  24578835.5564   24578835.2654   24578842.8584
     -2689.1284
 -19526330.56948 -15154788.09348  20367183.6054   20367182.9934   20367185.3464
       396.1134
  -8614427.82448  -6696010.89748  20761880.3074   20761879.9264   20761885.7584
     -1443.2924
 -13855164.11248 -10725240.89947  21666193.1804   21666193.0294   21666195.4704
     -2043.3284
 11 10  9  0 54  0.0000000  0  8G23G28G32G17G14G20G01G11
  -8399242.27447  -6483061.44146  23626620.1214   23626620.4924   23626622.4014
      3675.7844
  -2852012.74647  -2153974.19846  23184969.6894   23184969.6424   23184971.3024
     -3155.4304
 -20497062.12349 -15901838.75948  20631419.5024   20631418.6944   20631422.6764
      -997.0644
 -18723491.95448 -14514350.11847  21217115.6704   21217116.6474   21217117.6874
      1885.2764
    316278.33346    286666.47945  24594224.6874   24594224.1054   24594227.6254
     -2702.8704
 -19537984.89548 -15163869.43448  20364965.7974   20364965.2844   20364967.8534
       380.2944
  -8570980.24048  -6662155.65648  20770148.2424   20770148.1134   20770153.9894
     -1453.9014
 -13793730.33148 -10677370.47847  21677883.4714   21677883.2834   21677885.9734
     -2052.8194
 11 10  9  0 54 30.0000000  0  8G23G28G32G17G14G20G01G11
  -8509451.95947  -6568939.11046  23605648.4394   23605647.6324   23605649.6564
      3671.4354
  -2757197.90047  -2080092.57246  23203012.8154   23203012.0294   23203014.6624
     -3165.7234
 -20466894.30449 -15878331.46548  20637160.3434   20637160.0874   20637163.7004
     -1014.1334
 -18779822.80748 -14558244.29147  21206396.5504   21206396.7924   21206398.3674
      1870.1114
    397583.05047    350020.75945  24609698.3544   24609695.0544   24609703.8514
     -2717.3544
 -19549156.93548 -15172574.95248  20362839.7844   20362839.1254   20362841.7564
       364.5284
  -8527206.46348  -6628046.25248  20778477.9624   20778478.0864   20778483.8114
     -1464.4384
 -13732000.58848 -10629269.44147  21689630.5294   21689630.0344   21689632.5794
     -2062.4014
 11 10  9  0 55  0.0000000  0  8G23G28G32G17G14G20G01G11
  -8619523.31947  -6654708.99846  23584702.2364   23584703.1624   23584703.5634
      3666.6284
  -2662075.58247  -2005971.33446  23221113.0614   23221113.3964   23221115.5184
     -3175.9834
 -20436209.51649 -15854421.29348  20642999.5684   20642999.1334   20643002.9854
     -1031.5464
 -18835687.51948 -14601775.23347  21195765.9914   21195765.5004   21195767.9294
      1854.2734
    479307.55246    413702.16145  24625249.6034   24625251.0124   24625251.3864
     -2731.2084
 -19559850.67248 -15180907.72948  20360804.9484   20360804.3624   20360806.6904
       348.3114
  -8483110.85848  -6593686.06748  20786869.2764   20786869.1304   20786874.7324
     -1475.3994
 -13669979.51348 -10580941.37847  21701432.7214   21701433.9394   21701434.8314
     -2072.1944
 11 10  9  0 55 30.0000000  0  8G23G28G32G17G14G20G01G11
  -8729449.13747  -6740365.46446  23563784.7024   23563784.2274   23563785.6034
      3661.7184
  -2566645.30747  -1931610.13546  23239272.8124   23239273.9404   23239275.6124
     -3185.8684
 -20405005.31149 -15830106.39448  20648937.5034   20648937.3924   20648940.6104
     -1048.6464
 -18891079.73348 -14644937.99447  21185224.8944   21185225.3934   21185226.8124
      1838.5644
    561451.84746    477710.56245  24640880.8974   24640877.8694   24640882.0574
     -2744.9134
 -19570062.89948 -15188865.32648  20358861.4544   20358861.0884   20358863.4144
       332.4694
  -8438689.96248  -6559072.40248  20795322.2514   20795321.9794   20795327.8804
     -1486.1474
 -13607663.54248 -10532383.53847  21713290.8574   21713291.0094   21713292.6434
     -2081.9974
 11 10  9  0 56  0.0000000  0  8G23G28G32G17G14G20G01G11
  -8839231.28447  -6825909.99446  23542893.3704   23542893.0664   23542893.8354
      3656.2974
  -2470915.72647  -1857015.70546  23257489.8064   23257490.1504   23257492.5024
     -3196.5624
 -20373288.20248 -15805391.86048  20654973.1924   20654972.3284   20654976.2974
     -1066.3994
 -18946002.75048 -14687735.15247  21174773.2524   21174773.6524   21174775.1954
      1822.4804
    644009.32246    542040.84445  24656590.5364   24656591.1794   24656592.8764
     -2759.4984
 -19579799.03448 -15196451.96748  20357008.9264   20357008.6734   20357010.6284
       316.0234
  -8393949.40948  -6524209.63448  20803836.1124   20803835.8624   20803841.7954
     -1497.1964
 -13545058.43648 -10483600.40147  21725204.4634   21725204.4524   21725206.5864
     -2092.2724
 11 10  9  0 56 30.0000000  0  8G23G28G32G17G14G20G01G11
  -8948861.93147  -6911336.45446  23522030.9534   23522031.6074   23522031.6204
      3651.3194
  -2374885.14847  -1782186.76046  23275764.4724   23275764.2704   23275766.3844
     -3206.1134
 -20341054.63849 -15780274.84248  20661107.0134   20661106.4734   20661110.2964
     -1083.3984
 -19000449.93848 -14730161.53647  21164412.4614   21164412.7194   21164414.5734
      1806.6634
    726981.240 6    606693.79945  24672379.537                    24672381.4314
     -2772.951
 -19589054.53548 -15203664.05848  20355247.6224   20355246.9244   20355249.6144
       300.2194
  -8348884.96148  -6489094.52248  20812411.5284   20812411.6794   20812417.2784
     -1507.8234
 -13482160.03748 -10434588.72847  21737173.4974   21737173.9294   21737175.2814
     -2101.7314
 11 10  9  0 57  0.0000000  0  8G23G28G32G17G14G20G01G11
  -9058342.52647  -6996646.00746  23501197.2454   23501196.6464   23501199.4664
      3646.7984
  -2278561.83147  -1707129.70146  23294094.2054   23294093.7604   23294095.9584
     -3215.7144
 -20308310.76149 -15754760.25148  20667337.9184   20667337.6054   20667341.4954
     -1100.0094
 -19054423.56848 -14772218.90847  21154141.5364   21154141.5354   21154143.2234
      1790.9934
    810361.715 6                  24688248.905
     -2786.051
 -19597834.49648 -15210505.58848  20353576.8404   20353576.3544   20353578.9004
       284.6524
  -8303501.58548  -6453730.88648  20821047.9294   20821047.7054   20821053.2494
     -1518.2304
 -13418973.42048 -10385352.47947  21749197.7874   21749198.2464   21749200.2494
     -2111.1884
 11 10  9  0 57 30.0000000  0  8G23G28G32G17G14G20G01G11
  -9167666.25747  -7081833.32446  23480393.6494   23480394.3654   23480394.4064
      3640.9264
  -2181945.03347  -1631843.95846  23312479.9864   23312480.0994   23312481.2694
     -3226.2164
 -20275054.06949 -15728846.00748  20673666.8634   20673666.0614   20673669.8944
     -1117.6004
 -19107917.86848 -14813902.76447  21143961.9944   21143961.9064   21143963.7914
      1774.6574
    894150.852 6                  24704192.367
     -2800.077
 -19606135.48148 -15216973.92848  20351997.2764   20351996.6244   20351998.9024
       268.1624
  -8257796.03048  -6418116.18448  20829745.3694   20829745.1464   20829751.1934
     -1529.4154
 -13355495.42848 -10335889.18347  21761277.3504   21761276.8054   21761279.8084
     -2121.3674
 11 10  9  0 58  0.0000000  0  7G23G28G32G17G20G01G11
  -9276831.24047  -7166896.94046  23459621.0374   23459621.2004   23459622.7464
      3635.8904
  -2085039.66747  -1556333.34346  23330920.0044   23330919.4234   23330921.9774
     -3235.0734
 -20241287.45149 -15702534.42148  20680092.1354   20680091.7904   20680095.4124
     -1134.4394
 -19160932.01848 -14855212.48647  21133873.8004   21133873.4594   21133875.4374
      1758.7654
 -19613959.34548 -15223070.49448  20350508.5484   20350507.8244   20350510.7064
       252.4574
  -8211770.22648  -6382251.95648  20838503.8844   20838503.6154   20838508.9814
     -1539.9414
 -13291727.73548 -10286200.14047  21773411.8814   21773411.8254   21773413.6374
     -2130.7984
 11 10  9  0 58 30.0000000  0  7G23G28G32G17G20G01G11
  -9385835.13947  -7251835.03546  23438877.3954   23438877.8054   23438879.2264
      3630.4214
  -1987850.11947  -1480601.28846  23349414.6494   23349413.0304   23349416.8884
     -3245.1764
 -20207013.11249 -15675827.15148  20686614.4684   20686613.7644   20686617.5904
     -1151.4294
 -19213465.12848 -14896147.38047  21123877.0704   21123877.4234   21123879.2704
      1742.6144
 -19621307.15048 -15228796.08548  20349110.5364   20349109.9774   20349112.1494
       236.4404
  -8165425.57248  -6346139.29048  20847322.7174   20847322.4774   20847328.5574
     -1550.7414
 -13227671.88348 -10236286.55747  21785601.2774   21785601.7324   21785603.6484
     -2140.4564
 11 10  9  0 59  0.0000000  0  7G23G28G32G17G20G01G11
  -9494670.24147  -7336641.58846  23418167.2344   23418166.8934   23418168.4934
      3625.0684
  -1890375.04847  -1404646.77146  23367963.3304   23367964.6074   23367965.4284
     -3253.8794
 -20172228.28248 -15648722.24248  20693233.8214   20693233.1204   20693237.5134
     -1167.7154
 -19265510.77248 -14936702.43447  21113973.0854   21113973.6624   21113975.1544
      1726.9744
 -19628175.05748 -15234147.76048  20347803.2964   20347802.7544   20347805.3054
       221.1364
  -8118757.90548  -6309774.92848  20856203.4484   20856203.2214   20856208.9824
     -1560.7714
 -13163323.83048 -10186145.27247  21797846.0844   21797846.3494   21797848.1944
     -2149.6274
 11 10  9  0 59 30.0000000  0  7G23G28G32G17G20G01G11
  -9603342.36347  -7421321.13646  23397488.0104   23397487.0734   23397488.8654
      3619.8974
  -1792626.90847  -1328479.45646  23386564.5844   23386563.7694   23386566.8214
     -3262.3874
 -20136942.81849 -15621227.11948  20699948.5654   20699947.9964   20699951.8144
     -1184.3804
 -19317075.63248 -14976882.86247  21104160.3734   21104160.8474   21104162.5944
      1711.0124
 -19634572.18148 -15239132.57648  20346586.1764   20346585.5294   20346587.8124
       205.5354
  -8071776.61248  -6273166.16248  20865143.6474   20865143.8324   20865149.5574
     -1571.0704
 -13098692.93048 -10135783.59147  21810145.4284   21810145.2364   21810147.1444
     -2158.6284
                            4  1
RINEX FILE SPLICE; other post-header comments skipped       COMMENT
 11 10  9  1  0  0.0000000  0  7G23G28G32G17G20G01G11
  -9711841.81147  -7505866.15046  23376840.7754   23376841.4934   23376842.6284
      3613.4234
  -1694602.48647  -1252096.84446  23405217.8124   23405217.1034   23405220.1284
     -3272.1574
 -20101152.02949 -15593338.21948  20706759.1124   20706758.4264   20706762.6984
     -1201.8714
 -19368151.25748 -15016682.05847  21094441.0154   21094440.8434   21094443.2644
      1693.9874
 -19640492.50248 -15243745.85448  20345459.5874   20345459.0514   20345461.3214
       189.0224
  -8024475.86648  -6236308.48148  20874144.6774   20874144.8074   20874150.4414
     -1582.3564
 -13033773.72748 -10085197.24447  21822499.1614   21822499.4944   21822501.6514
     -2169.1854
 11 10  9  1  0 30.0000000  0  7G23G28G32G17G20G01G11
  -9820164.96447  -7590273.77646  23356227.6524   23356228.2074   23356228.9424
      3607.8194
  -1596304.82947  -1175501.33546  23423923.6634   23423923.1214   23423924.1654
     -3281.8004
 -20064856.86749 -15565056.21248  20713666.1894   20713665.7254   20713669.7464
     -1218.4344
 -19418735.53048 -15056098.37747  21084815.4984   21084815.1934   21084817.5164
      1677.8074
 -19645936.26748 -15247987.71748  20344423.4734   20344422.9184   20344425.2654
       173.2154
  -7976855.75148  -6199201.92448  20883206.7304   20883206.5594   20883212.2924
     -1592.9424
 -12968566.14648 -10034386.20247  21834907.7844   21834907.0894   21834909.5994
     -2178.5074
 11 10  9  1  1  0.0000000  0  7G23G28G32G17G20G01G11
  -9928312.27047  -7674544.39146  23335648.1924   23335647.8924   23335649.5074
      3602.1524
  -1497740.91846  -1098698.36246  23442678.9484   23442678.5064   23442680.6224
     -3289.7964
 -20028062.62848 -15536385.36548  20720667.5464   20720667.1914   20720670.9394
     -1234.6154
 -19468829.71948 -15095132.81847  21075282.4864   21075282.7324   21075284.7254
      1661.8074
 -19650907.57648 -15251861.46948  20343477.6064   20343477.0074   20343479.6754
       157.8604
  -7928920.27248  -6161849.63148  20892328.4074   20892328.0574   20892334.0984
     -1603.0364
 -12903074.19548  -9983353.57247  21847370.8284   21847370.9614   21847372.9684
     -2187.6434
 11 10  9  1  1 30.0000000  0  7G23G28G32G17G20G01G11
 -10036276.46247  -7758672.30846  23315102.7014   23315104.3214   23315104.6904
      3595.4434
  -1398909.88647  -1021687.22246  23461486.7024   23461485.0634   23461489.0654
     -3299.9124
 -19990766.71449 -15507323.73248  20727764.9544   20727764.2814   20727768.3404
     -1251.8784
 -19518427.72648 -15133780.62547  21065844.3134   21065844.6244   21065846.3814
      1644.5654
 -19655402.70748 -15255364.22948  20342622.5004   20342621.9014   20342624.1834
       141.5254
  -7880665.79148  -6124248.76948  20901510.9354   20901510.8744   20901516.6354
     -1614.1224
 -12837294.48048  -9932096.70047  21859888.0734   21859886.8494   21859890.4084
     -2197.7574
 11 10  9  1  2  0.0000000  0  7G23G28G32G17G20G01G11
 -10144058.68147  -7842658.43846  23294592.5154   23294592.6424   23294594.2504
      3589.4394
  -1299819.73047   -944474.18146  23480343.1384   23480342.9954   23480345.2664
     -3307.8174
 -19952974.74749 -15477875.51748  20734956.7504   20734956.1714   20734959.8764
     -1267.9334
 -19567532.23748 -15172043.89347  21056499.9414   21056500.3974   21056501.9474
      1628.5714
 -19659426.42448 -15258499.62648  20341856.7524   20341855.7604   20341858.6104
       126.3644
  -7832097.15448  -6086403.09448  20910753.3354   20910753.0344   20910759.1494
     -1624.1964
 -12771231.68448  -9880619.25547  21872459.5824   21872459.2124   21872461.7904
     -2206.8354
 11 10  9  1  2 30.0000000  0  7G23G28G32G17G20G01G11
 -10251652.71547  -7926497.93946  23274118.5044   23274118.6384   23274119.4874
      3582.9454
  -1200470.84146   -867059.52846  23499249.2044   23499248.8194   23499249.9774
     -3315.7034
 -19914685.64449 -15448040.02148  20742242.6754   20742242.2584   20742246.3204
     -1284.8054
 -19616138.29848 -15209918.76647  21047251.0374   21047251.4654   21047252.5264
      1611.7444
 -19662976.40348 -15261265.85848  20341181.3164   20341180.3764   20341182.7214
       110.1964
  -7783211.99148  -6048310.80548  20920055.8304   20920055.7414   20920061.5834
     -1635.1044
 -12704883.56048  -9828919.48447  21885085.2634   21885084.9024   21885087.3184
     -2216.5374
 11 10  9  1  3  0.0000000  0  7G23G28G32G17G20G01G11
 -10359057.61847  -8010190.05246  23253679.9814   23253679.8114   23253680.6654
      3576.3704
  -1100868.65246   -789447.49746  23518202.0524   23518202.4954   23518204.4244
     -3325.2254
 -19875902.60649 -15417819.46848  20749623.4564   20749622.2364   20749626.6624
     -1301.5194
 -19664246.15948 -15247405.40247  21038096.3044   21038096.4014   21038097.9494
      1594.7104
 -19666055.41248 -15263665.11248  20340594.8834   20340594.6994   20340596.9124
        94.2264
  -7734012.99448  -6009973.96048  20929417.9964   20929417.9944   20929423.5654
     -1645.8834
 -12638252.86648  -9776999.53747  21897764.5434   21897764.1764   21897766.7064
     -2226.3744
 11 10  9  1  3 30.0000000  0  7G23G28G32G17G20G01G11
 -10466268.52447  -8093731.00746  23233278.6914   23233278.7244   23233279.6784
      3569.3954
  -1001015.08447   -711639.59946  23537203.7454   23537204.0644   23537206.0974
     -3333.7794
 -19836625.94448 -15387214.36548  20757097.2954   20757096.8864   20757100.7484
     -1318.4944
 -19711852.39248 -15284501.17047  21029037.1264   21029037.4804   21029039.3254
      1577.4934
 -19668662.03948 -15265696.21648  20340099.2664   20340098.8054   20340100.7204
        77.8614
  -7684499.08948  -5971391.73748  20938840.3154   20938840.5614   20938846.4004
     -1656.8734
 -12571338.88648  -9724858.83747  21910498.0344   21910497.8714   21910499.5704
     -2236.3504
 11 10  9  1  4  0.0000000  0  7G23G28G32G17G20G01G11
 -10573282.28447  -8177118.33346  23212914.3674   23212914.3704   23212915.6204
      3564.1314
   -900913.05846   -633638.07346  23556252.3984   23556252.8324   23556255.4734
     -3340.9994
 -19796857.03749 -15356225.67848  20764664.9594   20764664.3704   20764668.8594
     -1333.8514
 -19758954.88248 -15321204.42347  21020073.4874   21020073.8264   21020075.5454
      1561.6874
 -19670796.99948 -15267359.86848  20339692.9304   20339692.4134   20339694.3904
        63.3064
  -7634670.60148  -5932564.38448  20948322.1784   20948322.0814   20948327.8914
     -1666.3264
 -12504141.95248  -9672497.68947  21923285.2714   21923285.4424   21923287.8994
     -2244.7304
 11 10  9  1  4 30.0000000  0  7G23G28G32G17G20G01G11
 -10680093.72047  -8260348.00146  23192588.4794   23192588.6734   23192589.7854
      3556.8184
   -800564.25046   -555444.25046  23575348.1994   23575348.7434   23575350.1464
     -3349.2364
 -19756595.21449 -15324852.85348  20772326.5324   20772326.2674   20772330.2554
     -1350.3284
 -19805549.70348 -15357512.08147  21011206.7244   21011207.3934   21011209.0044
      1544.6044
 -19672458.95948 -15268654.92048  20339376.6454   20339376.0144   20339378.9734
        47.5354
  -7584525.99148  -5893490.72348  20957864.5664   20957864.4514   20957870.5764
     -1676.9434
 -12436660.34948  -9619914.70347  21936126.7144   21936127.0354   21936128.3444
     -2254.1514
 11 10  9  1  5  0.0000000  0  7G23G28G32G17G20G01G11
 -10786704.84347  -8343421.59246  23172300.8004   23172300.6484   23172302.5394
      3550.6584
   -699977.54846   -477065.07646  23594488.6054   23594489.1484   23594491.3374
     -3356.2064
 -19715847.61949 -15293101.42948  20780080.8964   20780080.1574   20780084.1294
     -1366.0734
 -19851640.31748 -15393426.85047  21002436.1024   21002435.9994   21002438.5574
      1528.1654
 -19673653.77648 -15269585.97648  20339149.3234   20339148.9284   20339151.3924
        32.1194
  -7534071.26648  -5854175.39848  20967466.0124   20967465.5734   20967471.9354
     -1686.9034
 -12368900.21248  -9567114.65147  21949021.0774   21949020.7764   21949023.5094
     -2262.9604
 11 10  9  1  5 30.0000000  0  7G23G28G32G17G20G01G11
 -10893110.26547  -8426334.90246  23152052.7644   23152053.4554   23152054.1434
      3543.4864
   -599153.95046   -398501.30146  23613675.1454   23613674.9444   23613679.5094
     -3364.3894
 -19674613.76148 -15260971.17548  20787926.6634   20787926.5294   20787931.0124
     -1382.2704
 -19897222.72448 -15428945.60947  20993762.2034   20993762.1984   20993763.9154
      1511.1904
 -19674379.73248 -15270151.67348  20339011.2824   20339010.4944   20339012.6984
        16.5074
  -7483304.66048  -5814617.03048  20977126.5934   20977126.2514   20977132.5204
     -1697.2694
 -12300860.14248  -9514096.46547  21961968.6224   21961968.5124   21961970.8384
     -2272.4894
 11 10  9  1  6  0.0000000  0  7G23G28G32G17G20G01G11
 -10999302.67747  -8509082.21746  23131845.1594   23131845.8054   23131847.8724
      3535.7844
   -498092.55546   -319752.21846  23632905.6844   23632905.6534   23632907.9854
     -3372.7304
 -19632890.64748 -15228459.61448  20795867.0944   20795866.4404   20795869.8434
     -1399.3904
 -19942290.90148 -15464063.66047  20985186.3754   20985186.6184   20985188.0304
      1493.2344
 -19674633.04148 -15270349.06348  20338962.9314   20338962.4334   20338964.9574
          .2084
  -7432222.32448  -5774812.65848  20986847.3334   20986846.9354   20986853.2114
     -1708.5024
 -12232536.18248  -9460857.07947  21974970.3174   21974969.8644   21974972.7644
     -2282.6454
 11 10  9  1  6 30.0000000  0  7G23G28G32G17G20G01G11
 -11105288.89247  -8591668.87046  23111677.1684   23111676.3604   23111678.2854
      3528.6294
   -396807.06546   -240828.53346  23652180.5094   23652180.3764   23652182.8694
     -3380.7684
 -19590690.28348 -15195576.24248  20803897.2484   20803897.0074   20803901.2174
     -1415.2574
 -19986852.62048 -15498787.07547  20976706.5954   20976706.3664   20976708.3984
      1476.2584
 -19674424.56348 -15270186.60448  20339002.8914   20339001.8044   20339004.6234
       -15.3574
  -7380834.87248  -5734770.50748  20996626.0394   20996625.4734   20996631.7534
     -1718.6424
 -12163939.13848  -9407404.90147  21988024.0604   21988023.5874   21988026.9414
     -2291.7254
 11 10  9  1  7  0.0000000  0  7G23G28G32G17G20G01G11
 -11211056.07747  -8674084.83846  23091550.2604   23091548.9444   23091551.1854
      3521.5564
   -295290.81146   -161725.02846  23671497.5444   23671499.7824   23671500.3114
     -3387.5574
 -19548004.58849 -15162314.69648  20812020.0114   20812019.4204   20812023.5754
     -1431.1664
 -20030897.04948 -15533107.41147  20968324.8904   20968324.8234   20968326.8444
      1459.2964
 -19673745.32948 -15269657.32148  20339132.0104   20339131.2744   20339133.7974
       -30.7584
  -7329133.33148  -5694483.62548  21006464.7664   21006464.4104   21006470.1744
     -1728.9344
 -12095059.77348  -9353732.73747  22001131.2064   22001131.3144   22001133.4394
     -2300.9544
 11 10  9  1  7 30.0000000  0  7G23G28G32G17G20G01G11
 -11316603.25947  -8756329.38646  23071464.7564   23071464.5324   23071466.3644
      3514.5084
   -193549.63146    -82446.24946  23690859.1374   23690859.1334   23690862.5434
     -3394.7554
 -19504837.43149 -15128677.95048  20820234.7294   20820234.3444   20820238.2844
     -1446.7814
 -20074424.69848 -15567025.05347  20960041.7214   20960041.9444   20960043.8404
      1442.3814
 -19672598.27348 -15268763.57148  20339350.2354   20339349.5094   20339352.3424
       -45.8204
  -7277120.46648  -5653954.14948  21016362.5164   21016362.0334   21016368.1224
     -1738.9594
 -12025901.33148  -9299843.10047  22014291.7964   22014292.2404   22014293.8794
     -2309.8484
 11 10  9  1  8  0.0000000  0  8G23G28G32G17G04G20G01G11
 -11421931.87247  -8838403.62546  23051420.9534   23051421.4544   23051423.2624
      3508.8244
    -91591.65746     -2998.54646  23710260.9304   23710262.0674   23710265.2924
     -3400.8374
 -19461195.16749 -15094671.02148  20828539.3174   20828538.7744   20828543.0644
     -1461.0154
 -20117438.18048 -15600542.07147  20951856.6914   20951857.0154   20951858.6554
      1426.8484
  -1572976.27446  -1158867.17245  24431961.1934   24431964.4294   24431964.3774
      3068.7644
 -19670988.50948 -15267509.23448  20339656.5454   20339656.0694   20339658.3974
       -59.7054
  -7224801.48548  -5613186.13248  21026318.4414   21026318.3664   21026323.8904
     -1747.4594
 -11956469.14148  -9245740.15147  22027504.2744   22027504.4504   22027506.2544
     -2317.3934
 11 10  9  1  8 30.0000000  0  8G23G28G32G17G04G20G01G11
 -11527036.67547  -8920303.45246  23031420.4404   23031419.8594   23031420.9674
      3500.0924
     10582.01946     76617.22746  23729704.6934   23729704.0854   23729707.0934
     -3408.9654
 -19417077.16748 -15060293.40348  20836934.8144   20836934.2994   20836938.2594
     -1478.2314
 -20159933.32448 -15633655.16347  20943769.9904   20943770.6714   20943772.2254
      1408.1234
  -1664992.65246  -1230568.34045  24414453.5564   24414452.1444   24414453.7994
      3066.9724
 -19668914.23948 -15265892.93248  20340051.2144   20340050.5784   20340053.2474
       -76.5244
  -7172174.60148  -5572178.20348  21036332.9394   21036332.5224   21036338.5504
     -1759.0734
 -11886761.07948  -9191422.24647  22040769.4894   22040768.4514   22040771.5634
     -2327.9494
 11 10  9  1  9  0.0000000  0  8G23G28G32G17G04G20G01G11
 -11631913.77047  -9002025.85246  23011463.3764   23011462.1024   23011464.4654
      3491.1044
    112968.65946    156398.95546  23749186.9944   23749187.4884   23749190.1314
     -3417.2244
 -19372484.60449 -15025546.02648  20845420.5914   20845420.1584   20845424.0794
     -1495.1974
 -20201908.03548 -15666362.73847  20935782.4914   20935782.8684   20935784.4114
      1389.6224
  -1756975.98246  -1302243.68846  24396948.2254   24396947.6914   24396950.6804
      3064.7334
 -19666376.05848 -15263915.17348  20340534.4604   20340533.8704   20340536.0264
       -93.1784
  -7119239.82948  -5530930.34348  21046405.8634   21046405.7334   21046411.4634
     -1770.7054
 -11816777.69848  -9136889.78947  22054086.4104   22054087.2204   22054088.9004
     -2338.2864
 11 10  9  1  9 30.0000000  0  8G23G28G32G17G04G20G01G11
 -11736555.42347  -9083564.79446  22991550.8004   22991550.9524   22991550.5964
      3484.4774
    215569.58846    236347.66646  23768713.3084   23768711.6684   23768715.7944
     -3423.6584
 -19327414.59148 -14990426.64748  20853997.1284   20853996.8554   20854000.4804
     -1510.0644
 -20243355.67848 -15698659.62347  20927895.3264   20927895.5954   20927897.4304
      1372.9484
  -1848920.88346  -1373889.17546  24379450.7544   24379451.2954   24379454.3954
      3064.1714
 -19663370.10248 -15261572.95048  20341106.3084   20341105.9364   20341108.2654
      -107.6834
  -7065993.14548  -5489439.44748  21056538.5654   21056538.2924   21056544.4574
     -1779.8614
 -11746514.98248  -9082139.67847  22067457.2024   22067457.2104   22067459.8924
     -2346.5394
 11 10  9  1 10  0.0000000  0  8G23G28G32G17G04G20G01G11
 -11840960.81347  -9164919.62846  22971683.0194   22971683.1664   22971684.4784
      3475.7294
    318378.86446    316458.72246  23788276.5954   23788276.2914   23788280.0364
     -3430.8284
 -19281870.84148 -14954938.02848  20862663.8264   20862663.5344   20862667.6164
     -1526.3034
 -20284277.06348 -15730546.37847  20920108.3664   20920108.3864   20920110.2704
      1354.7774
  -1940828.96546  -1445505.91446  24361963.2014   24361963.5874   24361965.2454
      3062.4884
 -19659899.11548 -15258868.33848  20341766.8574   20341766.5524   20341768.6064
      -123.9164
  -7012437.36248  -5447707.70148  21066729.7564   21066729.8304   21066735.8564
     -1790.8394
 -11675975.95548  -9027174.25447  22080880.4704   22080881.4364   22080883.3994
     -2356.2834
 11 10  9  1 10 30.0000000  0  8G23G28G32G17G04G20G01G11
 -11945126.43747  -9246087.62646  22951860.6714   22951859.9934   22951862.3594
      3468.0254
    421393.40746    396729.71546  23807879.6084   23807879.2594   23807882.2714
     -3437.4194
 -19235854.86349 -14919081.39548  20871420.4944   20871419.7404   20871423.9714
     -1542.2294
 -20324670.08248 -15762021.45247  20912421.9334   20912422.0894   20912423.8974
      1337.1764
  -2032699.02346  -1517093.03246  24344478.5134   24344480.4004   24344485.2564
      3061.3974
 -19655963.49448 -15255801.62648  20342515.8594   20342515.5804   20342517.6884
      -139.3474
  -6958572.76748  -5405735.31948  21076980.0184   21076979.6354   21076986.0294
     -1801.0294
 -11605160.79048  -8971993.65047  22094355.8614   22094355.7374   22094358.0564
     -2365.4924
 11 10  9  1 11  0.0000000  0  8G23G28G32G17G04G20G01G11
 -12049053.95147  -9327070.08546  22932084.4774   22932083.8794   22932084.7794
      3459.9594
    524605.01746    477154.30246  23827519.4864   23827518.6024   23827523.0044
     -3444.3514
 -19189373.61749 -14882862.36448  20880265.8554   20880265.2444   20880269.2084
     -1557.5074
 -20364537.91248 -15793087.28947  20904835.0684   20904835.1984   20904837.0284
      1319.8894
  -2124535.33046  -1588653.87446  24327005.8294   24327005.1784   24327006.5984
      3060.3294
 -19651568.87848 -15252377.26548  20343352.4464   20343351.8544   20343354.1784
      -154.5464
  -6904404.68448  -5363526.44048  21087288.1204   21087287.6314   21087293.8354
     -1811.0634
 -11534075.23848  -8916602.35947  22107883.3104   22107883.3404   22107884.8634
     -2374.3344
 11 10  9  1 11 30.0000000  0  9G23G28G32G17G04G14G20G01G11
 -12152737.54647  -9407862.48346  22912353.7904   22912353.7074   22912355.4194
      3451.7134
    628013.21646    557732.00946  23847199.6904   23847196.6864   23847200.6614
     -3450.2394
 -19142425.49049 -14846279.43448  20889199.5074   20889199.2254   20889203.2724
     -1573.0584
 -20403876.10148 -15823740.42947  20897349.4464   20897349.6624   20897351.2254
      1302.1654
  -2216334.37246  -1660185.62946  24309535.2694   24309537.3804   24309538.9054
      3059.0754
  -1009647.93246   -812907.15846  25179971.3194   25179968.9924   25179976.8564
     -3141.3484
 -19646713.34248 -15248593.75448  20344275.9744   20344275.7704   20344278.0544
      -169.7324
  -6849930.98948  -5321079.42748  21097653.7874   21097653.6264   21097659.6064
     -1821.2154
 -11462716.96648  -8860998.57547  22121462.3444   22121461.9274   22121465.0674
     -2383.4344
 11 10  9  1 12  0.0000000  0  9G23G28G32G17G04G14G20G01G11
 -12256171.08747  -9488460.01746  22892671.0884   22892670.9674   22892672.2694
      3443.8314
    731617.44746    638462.53546  23866913.5694   23866912.5384   23866916.1904
     -3456.0954
 -19095009.51648 -14809331.86948  20898222.5094   20898221.8404   20898226.0064
     -1588.0954
 -20442680.63148 -15853977.73847  20889964.9944   20889965.1684   20889967.0324
      1284.7034
  -2308092.49846  -1731685.51646  24292074.0844   24292075.0154   24292077.8614
      3057.9604
   -915257.69146   -739357.01846  25197933.7804   25197933.0324   25197942.9744
     -3151.8194
 -19641394.69848 -15244449.38048  20345288.2594   20345287.7294   20345290.3154
      -184.8034
  -6795149.34048  -5278392.43948  21108078.5894   21108078.6894   21108084.3714
     -1831.0154
 -11391083.90948  -8805180.65147  22135093.6754   22135093.6474   22135095.9554
     -2392.2854
 11 10  9  1 12 30.0000000  0  9G23G28G32G17G04G14G20G01G11
 -12359358.11747  -9568865.47146  22873035.2624   22873035.6484   22873035.9394
      3435.3504
    835407.25146    719337.64046  23886663.7524   23886664.0574   23886667.1334
     -3462.8584
 -19047134.43348 -14772026.57448  20907333.0324   20907332.4724   20907336.1214
     -1603.5454
 -20480956.23548 -15883802.90147  20882681.2754   20882681.7244   20882683.0634
      1266.9824
  -2399815.88846  -1803158.31946  24274621.8834   24274620.6494   24274623.5464
      3056.9254
   -820547.78746                  25215956.2004   25215956.1454
     -3162.1704
 -19635620.82948 -15239950.30948  20346387.0884   20346386.7544   20346388.9724
      -200.1234
  -6740067.19748  -5235471.31248  21118560.2654   21118560.1694   21118566.0644
     -1841.3094
 -11319183.67548  -8749154.56947  22148775.7864   22148775.8204   22148777.5694
     -2401.3354
 11 10  9  1 13  0.0000000  0  9G23G28G32G17G04G14G20G01G11
 -12462286.28247  -9649069.22046  22853448.8404   22853450.2304   22853450.4744
      3427.0874
    939388.51746    800361.93446  23906449.4604   23906450.5204   23906451.7784
     -3468.5904
 -18998792.79648 -14734357.78148  20916531.7944   20916531.6404   20916535.3444
     -1618.6264
 -20518691.63748 -15913207.12947  20875500.4244   20875500.8524   20875502.6594
      1249.3614
  -2491494.46746  -1874596.27346  24257172.8894   24257174.2614   24257177.6034
      3055.7004
   -725512.923 6                  25234041.474
     -3172.652
 -19629382.59248 -15235089.38648  20347574.1694   20347573.9574   20347576.4524
      -215.1784
  -6684675.82148  -5192309.22548  21129100.9274   21129101.3604   21129106.7824
     -1850.9024
 -11247007.45448  -8692913.41247  22162510.5604   22162511.3924   22162511.7004
     -2409.9094
 11 10  9  1 13 30.0000000  0  9G23G28G32G17G04G14G20G01G11
 -12564957.79047  -9729072.97146  22833910.4654   22833911.1684   22833912.3684
      3418.6754
   1043553.06246    881529.05046  23926273.3244   23926272.0784   23926275.3194
     -3474.8564
 -18949991.51548 -14696330.83148  20925818.7904   20925817.8984   20925821.9844
     -1633.9844
 -20555890.79448 -15942193.48547  20868421.9934   20868421.7604   20868424.1174
      1231.4354
  -2583132.52246  -1946002.61046  24239738.0144   24239737.0264   24239738.4744
      3054.5234
   -630161.553 6                  25252186.106
     -3182.929
 -19622686.53248 -15229871.73948  20348848.6634   20348848.0364   20348850.2834
      -230.3614
  -6628980.97648  -5148910.67548  21139699.2654   21139699.5234   21139705.0194
     -1861.2274
 -11174561.45548  -8636462.05447  22176296.4344   22176295.7764   22176298.5424
     -2419.0234
 11 10  9  1 14  0.0000000  0  9G23G28G32G17G04G14G20G01G11
 -12667375.05847  -9808878.61346  22814421.2714   22814421.6034   22814422.5174
      3409.5104
   1147891.61346    962831.72546  23946128.4234   23946128.2624   23946129.9254
     -3480.8134
 -18900738.03348 -14657951.49948  20935191.2214   20935190.9084   20935194.6114
     -1649.3904
 -20592557.93448 -15970765.30347  20861444.1414   20861443.9844   20861446.4114
      1213.2654
  -2674735.02546  -2017381.22946  24222303.0994   24222305.0084   24222306.1034
      3052.4304
   -534501.07446                  25270390.3694   25270390.6284
     -3194.1574
 -19615539.06848 -15224302.33648  20350208.3494   20350208.0844   20350210.3574
      -245.7894
  -6572988.94748  -5105280.53348  21150354.0344   21150353.7684   21150360.0584
     -1871.4274
 -11101851.91948  -8579805.33347  22190132.7224   22190133.7044   22190135.5204
     -2428.1154
 11 10  9  1 14 30.0000000  0  8G23G28G32G17G04G20G01G11
 -12769523.16547  -9888474.50946  22794983.6814   22794983.7024   22794984.2574
      3400.6834
   1252412.32746   1044276.39646  23966017.2984   23966016.2224   23966020.8574
     -3486.4984
 -18851022.48748 -14619212.09148  20944651.6144   20944650.8734   20944655.0674
     -1664.5124
 -20628679.93448 -15998912.33247  20854570.4494   20854570.8574   20854572.7034
      1195.3114
  -2766289.81246  -2088722.69346  24204884.0434   24204881.8274   24204885.3924
      3051.5374
 -19607929.48048 -15218372.82648  20351656.6974   20351656.1274   20351658.6714
      -261.1734
  -6516688.80448  -5061410.31348  21161067.7814   21161067.4584   21161073.8934
     -1881.5214
 -11028868.01848  -8522934.82747  22204021.0674   22204021.2244   22204024.7014
     -2436.9634
 11 10  9  1 15  0.0000000  0  8G23G28G32G17G04G20G01G11
 -12871408.18447  -9967865.39846  22775595.3544   22775594.6964   22775596.1684
      3391.7624
   1357102.92846   1125853.42846  23985939.2524   23985940.2124   23985942.3684
     -3492.6114
 -18800855.67948 -14580121.10648  20954198.2394   20954197.8024   20954201.9904
     -1679.7704
 -20664263.91348 -16026640.12647  20847799.4164   20847799.2254   20847801.4834
      1177.0934
  -2857804.87546  -2160033.12446  24187467.8894   24187467.3804   24187470.8884
      3049.6724
 -19599867.16248 -15212090.51248  20353190.9284   20353190.3644   20353193.3824
      -276.2834
  -6460089.94448  -5017307.32148  21171838.1504   21171838.1114   21171843.9354
     -1891.6974
 -10955619.34248  -8465858.00047  22217960.0334   22217960.3124   22217963.7814
     -2446.1044
 11 10  9  1 15 30.0000000  0  8G23G28G32G17G04G20G01G11
 -12973022.51247 -10047045.37246  22756258.3584   22756258.5634   22756259.7044
      3381.0554
   1461964.55546   1207563.71746  24005894.4924   24005894.3874   24005896.5314
     -3499.6324
 -18750235.09748 -14540676.61148  20963830.9664   20963830.6714   20963834.4974
     -1696.2374
 -20699304.04748 -16053944.14447  20841131.1554   20841131.3594   20841133.7434
      1157.6194
  -2949274.85446  -2231308.49746  24170061.1714   24170063.4654   24170065.4814
      3047.0554
 -19591348.64948 -15205452.78148  20354812.0294   20354811.6884   20354814.2114
      -292.9574
  -6403188.49448  -4972968.55348  21182666.0284   21182665.8144   21182672.0104
     -1903.1384
 -10882102.19448  -8408571.97947  22231949.9954   22231950.1914   22231953.3804
     -2456.3514
 11 10  9  1 16  0.0000000  0  8G23G28G32G17G04G20G01G11
 -13074367.99847 -10126015.84846  22736973.1714   22736972.9274   22736975.0004
      3373.2724
   1566988.80446   1289400.72746  24025879.6114   24025880.6174   24025883.2994
     -3503.5864
 -18699167.42648 -14500883.72548  20973548.7584   20973548.2744   20973552.5544
     -1709.9384
 -20733803.60448 -16080826.93847  20834566.5134   20834566.4864   20834568.2934
      1140.7244
  -3040704.30246  -2302552.25146  24152665.4464   24152663.0324   24152664.6574
      3046.4894
 -19582379.93848 -15198464.18748  20356518.6874   20356518.1294   20356521.0814
      -306.6824
  -6345990.16748  -4928398.46448  21193550.6234   21193550.3154   21193556.3254
     -1911.8734
 -10808322.19148  -8351081.14247  22245989.7544   22245990.3844   22245991.8314
     -2463.8174
 11 10  9  1 16 30.0000000  0  8G23G28G32G17G04G20G01G11
 -13175432.79947 -10204767.61346  22717740.9684   22717741.0914   22717742.7724
      3364.1534
   1672180.94746   1371368.56346  24045898.2834   24045897.3504   24045900.0004
     -3508.7914
 -18647645.60148 -14460736.85348  20983353.2204   20983352.8144   20983356.9554
     -1724.7774
 -20767752.67748 -16107280.77047  20828105.9394   20828106.3184   20828108.2824
      1122.5234
  -3132083.50746  -2373756.85646  24135273.3914   24135274.9504   24135278.4564
      3045.0694
 -19572953.55548 -15191119.06448  20358312.6404   20358311.6894   20358314.3454
      -321.6124
  -6288486.89548  -4883590.75048  21204493.1024   21204493.0114   21204499.0924
     -1921.8334
 -10734271.78048  -8293379.58647  22260081.2844   22260081.4944   22260081.9944
     -2472.7114
 11 10  9  1 17  0.0000000  0  8G23G28G32G17G04G20G01G11
 -13276219.36947 -10283302.58246  22698562.3044   22698562.2024   22698563.8074
      3354.7844
   1777532.02446   1453460.26746  24065945.4604   24065946.1554   24065948.2464
     -3514.1984
 -18595677.58948 -14420242.41148  20993242.5934   20993241.8254   20993246.3364
     -1739.5934
 -20801155.03148 -16133308.61147  20821749.9664   20821750.0054   20821751.8394
      1104.3844
  -3223417.35046  -2444926.11946  24117894.8684   24117894.1214   24117897.4194
      3043.7064
 -19563075.24248 -15183421.72848  20360192.5674   20360192.0084   20360194.3334
      -336.7854
  -6230684.83548  -4838550.21148  21215492.5464   21215492.6054   21215498.5304
     -1931.7514
 -10659957.00748  -8235472.03647  22274223.3374   22274222.1954   22274225.4844
     -2481.5054
 11 10  9  1 17 30.0000000  0  8G23G28G32G17G04G20G01G11
 -13376724.82247 -10361618.48046  22679436.3484   22679434.7014   22679437.6324
      3345.0954
   1883038.22646   1535672.83046  24086022.5984   24086021.2834   24086023.2924
     -3520.1284
 -18543265.02748 -14379401.48248  21003216.1114   21003215.8394   21003220.2814
     -1754.7564
 -20834009.71048 -16158909.67447  20815497.8364   20815498.1014   20815499.8354
      1085.6844
  -3314705.74246  -2516059.96746  24100523.0594   24100522.0154   24100526.0004
      3042.0174
 -19552746.51748 -15175373.40148  20362158.0084   20362157.2094   20362159.6864
      -351.9924
  -6172584.84048  -4793277.51148  21226548.6194   21226548.7414   21226554.6574
     -1942.0014
 -10585378.89048  -8177359.28647  22288414.7634   22288413.6954   22288417.4884
     -2490.6124
 11 10  9  1 18  0.0000000  0  8G23G28G32G17G04G20G01G11
 -13476943.20847 -10439710.70546  22660365.4754   22660365.0624   22660366.3814
      3334.6774
   1988699.16546   1618005.97346  24106128.3034   24106128.7234   24106129.9434
     -3525.8534
 -18490407.08649 -14338213.52448  21013274.8874   21013274.2344   21013278.6104
     -1770.4154
 -20866312.25048 -16184080.48447  20809350.7264   20809350.8594   20809353.0304
      1066.4454
  -3405944.48247  -2587155.09546  24083160.9984   24083161.6364   24083162.9484
      3039.4594
 -19541965.39048 -15166972.50448  20364209.4714   20364209.0624   20364211.7044
      -367.9284
  -6114184.70048  -4747770.93948  21237661.6114   21237661.6994   21237667.5734
     -1952.6514
 -10510535.28348  -8119039.65047  22302657.1924   22302657.1684   22302659.4604
     -2500.4174
 11 10  9  1 18 30.0000000  0  8G23G28G32G17G04G20G01G11
 -13576877.91247 -10517581.86746  22641348.5244   22641348.4984   22641349.7524
      3325.9914
   2094505.20346   1700452.18146  24126262.5014   24126261.3014   24126266.3864
     -3529.2034
 -18437112.08048 -14296685.07747  21023416.6054   21023416.3304   21023420.3664
     -1784.0424
 -20898067.91948 -16208825.17147  20803307.7694   20803308.3104   20803309.8344
      1049.1304
  -3497139.22547  -2658215.95846  24065806.8354   24065806.8144   24065809.5244
      3038.7154
 -19530739.43348 -15158225.07248  20366345.7364   20366345.3324   20366347.9134
      -381.8284
  -6055491.28948  -4702035.85648  21248830.6174   21248830.4724   21248836.9874
     -1961.6334
 -10435433.68848  -8060519.00147  22316948.5274   22316948.6344   22316952.0204
     -2507.8794
 11 10  9  1 19  0.0000000  0  8G23G28G32G17G04G20G01G11
 -13676516.69747 -10595222.44846  22622388.1204   22622388.3894   22622390.3444
      3316.8204
   2200461.79546   1783015.67546  24146425.7074   24146427.0534   24146425.5774
     -3534.3994
 -18383372.84648 -14254810.46247  21033642.7984   21033642.5664   21033646.4534
     -1798.1524
 -20929265.98748 -16233135.36847  20797370.8944   20797371.0244   20797373.1634
      1031.1844
  -3588280.31947  -2729235.01346  24048464.1974   24048464.5804   24048466.6914
      3037.5484
 -19519060.64748 -15149124.82748  20368568.4184   20368567.5754   20368570.0834
      -396.5504
  -5996496.35848  -4656065.81048  21260057.3934   21260057.1404   21260063.4414
     -1971.1094
 -10360065.63248  -8001790.72447  22331290.7914   22331290.1244   22331294.9104
     -2516.2134
 11 10  9  1 19 30.0000000  0  8G23G28G32G17G04G20G01G11
 -13775864.10047 -10672635.98946  22603482.8104   22603482.3644   22603483.7544
      3306.1254
   2306558.12346   1865688.10546  24166615.5234   24166613.3084   24166618.7574
     -3539.6764
 -18329198.85248 -14212597.00448  21043952.1354   21043951.2344   21043955.7794
     -1813.6284
 -20959912.88348 -16257016.08148  20791538.7184   20791539.5874   20791541.2074
      1011.6594
  -3679374.70746  -2800217.66346  24031128.3054   24031129.7194   24031132.1184
      3035.1554
 -19506937.10048 -15139677.96448  20370875.2964   20370874.9564   20370877.5584
      -412.1604
  -5937208.30548  -4609867.36747  21271339.2884   21271339.2674   21271345.7394
     -1981.7384
 -10284439.79648  -7942861.58347  22345681.5624   22345680.4894   22345684.6354
     -2525.8744
 11 10  9  1 20  0.0000000  0  8G23G28G32G17G04G20G01G11
 -13874910.26548 -10749814.79147  22584635.0634   22584634.3354   22584636.0454
      3296.6234
   2412797.42346   1948471.90546  24186832.0534   24186832.0004   24186834.4034
     -3543.9644
 -18274585.08248 -14170040.81747  21054344.7254   21054344.2434   21054348.1714
     -1827.8154
 -20990000.69948 -16280461.14847  20785813.4434   20785813.6834   20785815.4344
       993.6824
  -3770414.76747  -2871157.98246  24013804.8484   24013805.6724   24013808.0754
      3033.7584
 -19494363.14648 -15129880.12848  20373267.9654   20373267.6454   20373270.1304
      -426.8004
  -5877620.88748  -4563435.64048  21282678.7214   21282678.4644   21282684.4214
     -1991.2934
 -10208549.94348  -7883726.70547  22360122.9484   22360123.3074   22360126.2514
     -2533.9614
 11 10  9  1 20 30.0000000  0  8G23G28G32G17G04G20G01G11
 -13973656.99347 -10826760.27246  22565843.8434   22565843.9014   22565844.5304
      3285.9734
   2519171.57446   2031360.80645  24207073.5784   24207074.1744   24207077.7854
     -3548.3244
 -18219538.58748 -14127147.45547  21064819.5064   21064818.7564   21064823.2554
     -1842.5254
 -21019532.45148 -16303472.91847  20780193.9024   20780193.7724   20780195.9624
       974.6574
  -3861404.47347  -2942059.04446  23996489.2144   23996489.0454   23996493.6344
      3031.6044
 -19481344.66148 -15119735.92148  20375745.5614   20375744.9104   20375747.6404
      -441.8984
  -5817739.57048  -4516774.90948  21294073.5564   21294073.1024   21294079.4964
     -2001.5794
 -10132401.79948  -7824390.56147  22374613.6724   22374613.8054   22374615.9534
     -2542.8134
 11 10  9  1 21  0.0000000  0  8G23G28G32G17G04G20G01G11
 -14072099.81647 -10903468.93447  22547110.9924   22547110.8664   22547113.2784
      3275.6874
   2625678.94646   2114353.51245  24227343.6524   24227342.1464   24227344.7674
     -3552.6534
 -18164059.51648 -14083917.01947  21075377.0574   21075376.6254   21075380.4424
     -1856.9524
 -21048505.28948 -16326049.17048  20774680.6634   20774681.0044   20774682.7274
       956.1084
  -3952341.55647  -3012919.12946  23979185.4954   23979185.5434   23979188.9984
      3029.6884
 -19467880.88348 -15109244.68548  20378307.6094   20378307.2714   20378309.6034
      -456.6004
  -5757563.41448  -4469884.43747  21305524.6604   21305524.4704   21305530.9194
     -2011.3014
 -10055994.67948  -7764852.63947  22389153.3354   22389153.0634   22389155.9524
     -2551.7334
 11 10  9  1 21 30.0000000  0  8G23G28G32G17G04G20G01G11
 -14170236.98948 -10979939.43447  22528435.8254   22528434.3034   22528437.3934
      3265.8704
   2732314.09146   2197445.74546  24247634.8934   24247635.5464   24247636.9054
     -3556.7184
 -18108151.87148 -14040352.81547  21086016.2254   21086015.6834   21086019.7224
     -1870.8904
 -21076919.54748 -16348190.15347  20769273.5724   20769273.4214   20769275.2744
       937.5054
  -4043226.60246  -3083738.62346  23961889.0594   23961890.5704   23961892.8994
      3028.0884
 -19453975.03048 -15098408.99748  20380953.8494   20380953.2264   20380956.0794
      -471.1784
  -5697094.68148  -4422765.98047  21317031.5684   21317031.3644   21317037.6584
     -2020.7554
  -9979330.77448  -7705114.58647  22403742.4004   22403741.5584   22403744.9444
     -2559.8204
 11 10  9  1 22  0.0000000  0  8G23G28G32G17G04G20G01G11
 -14268062.40548 -11056167.01247  22509820.3464   22509819.8304   22509821.0424
      3255.2814
   2839077.29646   2280637.77645  24267951.1054   24267950.6304   24267953.3974
     -3561.2254
 -18051813.83548 -13996453.19147  21096736.7324   21096736.5194   21096740.6264
     -1885.3074
 -21104771.21848 -16369892.77148  20763973.1244   20763973.6144   20763975.4754
       918.7304
  -4134055.82447  -3154514.62946  23944605.7674   23944606.2294   23944608.0074
      3026.5594
 -19439624.04448 -15087226.45748  20383684.7624   20383683.9544   20383686.8314
      -485.9134
  -5636330.73948  -4375417.49647  21328594.8084   21328594.7734   21328600.9064
     -2030.7334
  -9902407.92848  -7645174.78247  22418380.1884   22418379.9684   22418383.0454
     -2568.7104
 11 10  9  1 22 30.0000000  0  8G23G28G32G17G04G20G01G11
 -14365575.91448 -11132151.53547  22491264.1844   22491264.0174   22491265.1184
      3245.8304
   2945962.49546   2363924.87145  24288289.8884   24288289.5614   24288293.5174
     -3564.3044
 -17995050.14548 -13952221.77547  21107538.7864   21107538.3894   21107542.1804
     -1898.4264
 -21132061.24948 -16391157.75048  20758780.0244   20758781.0174   20758782.2874
       900.9624
  -4224831.08747  -3225248.60046  23927330.6714   23927330.8034   23927334.2924
      3025.5464
 -19424832.31648 -15075700.49648  20386499.7744   20386499.0374   20386501.6944
      -499.6554
  -5575275.20548  -4327841.79647  21340213.1314   21340213.0514   21340219.2454
     -2039.3614
  -9825229.62348  -7585035.91647  22433066.7154   22433067.0514   22433070.4344
     -2576.1144
 11 10  9  1 23  0.0000000  0  8G23G28G32G17G04G20G01G11
 -14462771.26848 -11207888.14747  22472768.5714   22472768.1904   22472769.0504
      3234.4144
   3052968.68346   2447306.25345  24308653.0124   24308650.7164   24308653.9654
     -3568.6904
 -17937859.89948 -13907657.89747  21118421.6654   21118420.9854   21118425.3274
     -1913.6464
 -21158785.63348 -16411981.96547  20753694.7134   20753695.1944   20753697.2544
       881.1784
  -4315548.82347  -3295937.72346  23910069.4054   23910070.1494   23910071.6604
      3022.8054
 -19409598.02248 -15063829.64048  20389398.6704   20389398.2064   20389400.9134
      -515.2874
  -5513925.75348  -4280037.06847  21351887.5824   21351887.7544   21351893.6364
     -2050.0714
  -9747793.91148  -7524696.45047  22447802.5554   22447803.2254   22447806.1144
     -2585.5874
 11 10  9  1 23 30.0000000  0  8G23G28G32G17G04G20G01G11
 -14559647.24948 -11283375.90247  22454333.5894   22454333.7444   22454333.1264
      3223.9834
   3160090.97846   2530778.11645  24329035.7974   24329036.2634   24329039.8114
     -3572.6184
 -17880246.68148 -13862764.40447  21129384.8944   21129384.1504   21129388.3624
     -1927.3954
 -21184944.84048 -16432365.76948  20748716.6964   20748717.4474   20748718.9554
       862.6794
  -4406209.90447  -3366582.72546  23892815.9394   23892817.9994   23892819.9934
      3021.3554
 -19393923.46448 -15051615.77948  20392381.4954   20392380.7804   20392383.6654
      -529.7324
  -5452284.73048  -4232005.14947  21363617.2464   21363617.2094   21363623.9954
     -2059.4944
  -9670103.24348  -7464158.34547  22462586.5294   22462586.3864   22462588.8714
     -2593.7184
 11 10  9  1 24  0.0000000  0  8G23G28G32G17G04G20G01G11
 -14656201.01848 -11358612.58247  22435959.6494   22435958.9354   22435960.7184
      3213.1044
   3267326.15346   2614337.92045  24349444.1614   24349442.9604   24349444.8714
     -3575.6994
 -17822213.12448 -13817543.49147  21140428.4894   21140427.9254   21140432.1544
     -1941.3884
 -21210538.14248 -16452308.59448  20743846.5574   20743846.6114   20743848.6084
       843.7034
  -4496813.72947  -3437183.14746  23875575.6694   23875576.0674   23875579.6154
      3019.2774
 -19377810.23548 -15039060.03548  20395447.8354   20395446.9504   20395450.2124
      -544.3964
  -5390353.10248  -4183746.78147  21375402.7284   21375402.8534   21375408.8734
     -2069.2124
  -9592158.62148  -7403422.34347  22477418.9014   22477418.3454   22477422.3334
     -2602.2064
 11 10  9  1 24 30.0000000  0  8G23G28G32G17G04G20G01G11
 -14752429.60348 -11433595.87447  22417648.3514   22417647.6274   22417649.7164
      3202.1874
 -12379529.20146  -9578017.00145  24369871.1944   24369870.1494   24369875.2504
     -3579.2564
 -17763761.08248 -13771996.46847  21151551.4874   21151550.7914   21151555.4204
     -1955.4584
 -21235564.06848 -16471809.30347  20739084.7574   20739084.7454   20739086.8774
       824.7274
  -4587359.50147  -3507738.28946  23858345.2614   23858343.8214   23858347.7744
      3017.2864
 -19361259.37648 -15026163.31448  20398597.1304   20398596.6094   20398599.6914
      -559.0864
  -5328131.64248  -4135262.56647  21387243.4324   21387243.3404   21387249.6964
     -2079.0544
  -9513961.42148  -7342489.52347  22492299.8404   22492299.1364   22492301.9434
     -2610.9754
 11 10  9  1 25  0.0000000  0  8G23G28G32G17G04G20G01G11
 -14848330.27648 -11508323.64947  22399398.9854   22399398.2114   22399400.4794
      3191.1854
 -12272078.79945  -9494289.49145  24390317.5194   24390314.3234   24390321.0774
     -3582.9984
 -17704892.96348 -13726125.42447  21162753.9284   21162753.9074   21162757.6424
     -1969.2364
 -21260021.80548 -16490867.28048  20734430.5914   20734430.6074   20734432.0134
       805.6664
  -4677846.74547  -3578247.86346  23841125.5284   23841127.0754   23841128.5574
      3015.5564
 -19344272.01748 -15012926.47148  20401829.8644   20401829.1364   20401831.8804
      -573.5504
  -5265621.10848  -4086553.10347  21399138.6454   21399138.6884   21399144.6584
     -2088.5774
  -9435512.26048  -7281360.38147  22507227.8474   22507228.2554   22507230.3074
     -2619.3254
 11 10  9  1 25 30.0000000  0  8G23G28G32G17G04G20G01G11
 -14943898.97648 -11582792.74647  22381212.7864   22381212.7804   22381214.2084
      3180.0354
 -12164524.72046  -9410481.19245  24410786.0104   24410784.8624   24410789.0954
     -3587.0934
 -17645608.74848 -13679929.89147  21174035.3284   21174035.0924   21174039.1394
     -1983.1274
 -21283908.96648 -16509480.65348  20729885.0544   20729884.8954   20729887.1754
       786.6684
  -4768273.16846  -3648710.01246  23823918.2774   23823918.1784   23823921.8974
      3013.9514
 -19326848.06948 -14999349.37948  20405145.4634   20405145.1024   20405147.8874
      -588.1064
  -5202821.08948  -4037618.06547  21411088.9574   21411088.7434   21411095.3844
     -2098.2244
  -9356811.15548  -7220034.91647  22522204.7864   22522204.4134   22522207.2064
     -2627.5434
 11 10  9  1 26  0.0000000  0  8G23G28G32G17G04G20G01G11
 -15039127.75348 -11656996.96347  22363091.1674   22363092.0884   22363092.3534
      3168.9664
 -13632285.85446 -10554191.23545  24431271.7874   24431268.6324   24431274.0554
     -3589.3624
 -17585906.52648 -13633408.67247  21185396.1694   21185396.0354   21185400.1394
     -1996.7374
 -21307220.02748 -16527645.13148  20725449.0184   20725449.1874   20725451.0724
       767.6604
  -4858633.68646  -3719120.82446  23806722.9344   23806723.6204   23806726.6504
      3011.0784
 -19308984.42548 -14985429.65948  20408545.0574   20408544.4804   20408546.9194
      -602.5194
  -5139727.70148  -3988454.42347  21423095.3054   21423095.5144   21423101.9824
     -2107.7164
  -9277854.26448  -7158510.14547  22537229.3764   22537228.6844   22537231.8564
     -2635.8924
 11 10  9  1 26 30.0000000  0  8G23G28G32G17G04G20G01G11
 -15134025.68348 -11730943.38247  22345033.0534   22345031.5584   22345034.5064
      3156.8454
 -13524537.44746 -10470231.50445  24451776.6334   24451777.4414   24451780.5854
     -3594.2604
 -17525800.08848 -13586572.51147  21196833.8734   21196833.7684   21196837.8084
     -2011.2434
 -21329965.44348 -16545368.85647  20721120.7554   20721120.8444   20721122.9364
       747.7344
  -4948939.12546  -3789488.73746  23789537.6764   23789539.1784   23789541.3224
      3008.3484
 -19290693.79448 -14971177.22148  20412025.6654   20412024.8754   20412027.8164
      -617.8074
  -5076353.50648  -3939071.97947  21435155.1954   21435154.8584   21435161.3354
     -2118.1824
  -9198654.38848  -7096796.02847  22552300.6944   22552301.5944   22552302.6444
     -2644.9634
 11 10  9  1 27  0.0000000  0  8G23G28G32G17G04G20G01G11
 -15228582.01348 -11804623.62047  22327039.6374   22327039.2154   22327039.8034
      3146.0184
 -13416695.03846 -10386198.57045  24472300.1624   24472299.6944   24472301.7874
     -3596.4424
 -17465283.80548 -13539417.07647  21208349.8264   21208349.2274   21208353.9134
     -2024.1734
 -21352136.64448 -16562645.12248  20716901.3264   20716901.6314   20716903.4984
       729.3504
  -5039181.22947  -3859807.30146  23772367.0454   23772367.2514   23772368.7614
      3006.8614
 -19271969.59448 -14956586.94048  20415588.6614   20415587.8304   20415590.8724
      -631.5324
  -5012691.47748  -3889465.24947  21447269.8304   21447269.3084   21447276.2934
     -2127.0524
  -9119204.71548  -7034887.27547  22567419.2414   22567418.9754   22567422.5384
     -2652.3784
 11 10  9  1 27 30.0000000  0  8G23G28G32G17G04G20G01G11
 -15322792.59748 -11878034.44747  22309111.7324   22309111.0114   22309112.1804
      3134.2654
 -13308760.49546 -10302093.77645  24492836.7944   24492837.3144   24492841.6664
     -3599.6714
 -17404358.00848 -13491942.50847  21219943.6234   21219943.1484   21219947.8514
     -2037.9994
 -21373731.24648 -16579472.09848  20712792.2334   20712792.6074   20712794.0314
       709.9404
  -5129357.31847  -3930074.40146  23755206.6654   23755206.0004   23755209.6314
      3004.3304
 -19252811.38848 -14941658.48248  20419234.3114   20419233.6664   20419236.4994
      -646.0624
  -4948740.87648  -3839633.66747  21459439.1424   21459439.7604   21459445.2894
     -2136.8994
  -9039504.59748  -6972783.36447  22582585.6944   22582586.4554   22582588.8834
     -2661.1204
 11 10  9  1 28  0.0000000  0  8G23G28G32G17G04G20G01G11
 -15416655.87948 -11951174.64547  22291250.3484   22291248.9044   22291251.4344
      3123.2714
 -13200738.97346 -10217921.25245  24513393.3224   24513394.4934   24513395.2344
     -3602.0324
 -17343026.68048 -13444151.95147  21231614.8774   21231614.1224   21231618.6324
     -2050.8604
 -21394749.65048 -16595850.09248  20708792.6344   20708792.5044   20708794.2234
       691.1444
  -5219468.50947  -4000290.94246  23738059.2264   23738058.5674   23738061.2224
      3002.6794
 -19233222.29748 -14926394.25848  20422961.9544   20422961.6234   20422964.3814
      -660.0844
  -4884504.23048  -3789579.18847  21471662.8394   21471662.5264   21471669.6604
     -2145.8104
  -8959556.59248  -6910486.31547  22597799.9094   22597799.3474   22597802.5084
     -2668.8184
 11 10  9  1 28 30.0000000  0  8G23G28G32G17G04G20G01G11
 -15510167.43948 -12024040.77647  22273455.6184   22273454.8874   22273456.1624
      3111.4034
 -13092632.23446 -10133682.31145  24533966.3344   24533962.9444   24533966.8454
     -3604.7824
 -17281290.05148 -13396045.53347  21243363.1434   21243362.2194   21243366.6874
     -2064.4954
 -21415189.61048 -16611777.34548  20704902.9414   20704903.0844   20704905.3344
       671.8034
  -5309512.63747  -4070455.23546  23720923.7094   23720924.1284   23720927.0654
      3000.5754
 -19213201.83048 -14910793.89848  20426771.8384   20426771.1924   20426774.1134
      -674.4834
  -4819980.58848  -3739301.07047  21483941.5214   21483941.3514   21483947.1774
     -2155.5884
  -8879360.15248  -6847995.65747  22613060.3754   22613059.7124   22613063.8714
     -2677.3364
 11 10  9  1 29  0.0000000  0  8G23G28G32G17G04G20G01G11
 -15603326.24548 -12096632.04347  22255728.0844   22255728.1534   22255729.1564
      3099.6354
 -12984445.23146 -10049380.81345  24554552.3184   24554550.0884   24554555.0064
     -3606.0024
 -17219152.11048 -13347626.34647  21255187.1844   21255186.8904   21255191.1234
     -2077.6434
 -21435051.74748 -16627254.35548  20701123.4574   20701123.5874   20701125.2234
       652.8444
  -5399490.36147  -4140567.79746  23703801.9974   23703801.8804   23703806.1604
      2998.4284
 -19192753.09148 -14894859.87648  20430663.1804   20430662.7634   20430665.3184
      -688.3964
  -4755172.67648  -3688801.45447  21496274.0694   21496273.7824   21496280.0534
     -2164.5634
  -8798918.28148  -6785313.75847  22628368.6434   22628367.5674   22628372.2574
     -2685.2174
 11 10  9  1 29 30.0000000  0  8G23G28G32G17G04G20G01G11
 -15696129.95348 -12168946.61447  22238067.9884   22238067.5154   22238068.7434
      3087.7044
 -12876182.54946  -9965020.39545  24575153.0974   24575151.0114   24575157.0384
     -3609.6214
 -17156616.15448 -13298897.10047  21267087.8234   21267087.2874   21267091.4474
     -2091.0484
 -21454336.08848 -16642281.13348  20697453.8434   20697453.8444   20697455.8494
       633.2214
  -5489402.03447  -4210628.85846  23686692.0714   23686692.7334   23686697.4884
      2995.9914
 -19171878.28548 -14878593.84148  20434635.6474   20434635.0314   20434637.6584
      -702.8704
  -4690082.16748  -3638081.63647  21508660.6314   21508660.4524   21508666.4464
     -2174.3534
  -8718232.86848  -6722442.07747  22643722.2264   22643722.0124   22643725.1944
     -2693.4694
 11 10  9  1 30  0.0000000  0  8G23G28G32G17G04G20G01G11
 -15788574.19348 -12240981.07547  22220476.1164   22220476.5254   22220477.7414
      3075.3074
 -12767845.45146  -9880601.95245  24595769.7294   24595771.8464   24595773.4254
     -3612.6214
 -17093682.10748 -13249857.66547  21279063.8344   21279063.0794   21279068.2334
     -2104.5054
 -21473039.80848 -16656855.47348  20693894.5284   20693894.7224   20693896.3604
       613.5504
  -5579244.67147  -4280636.15746  23669595.6174   23669595.7714   23669598.9934
      2993.6644
 -19150576.56348 -14861995.17348  20438689.1724   20438688.5984   20438691.2614
      -717.3214
  -4624707.76748  -3587140.60247  21521100.8094   21521100.4574   21521107.4594
     -2184.1654
  -8637302.65948  -6659379.64847  22659122.9254   22659122.5384   22659125.8944
     -2702.0034
 11 10  9  1 30 30.0000000  0  8G23G28G32G17G04G20G01G11
 -15880656.34848 -12312733.40747  22202953.8214   22202953.1314   22202955.2024
      3062.7874
 -12659437.75646  -9796128.49845  24616398.6884   24616398.2264   24616403.0274
     -3614.4184
 -17030352.53348 -13200510.02047  21291115.1194   21291114.4874   21291118.9244
     -2117.8554
 -21491162.60648 -16670977.14448  20690445.9364   20690446.0914   20690448.3214
       594.0834
  -5669018.26547  -4350589.63346  23652512.2344   23652512.5774   23652515.5904
      2990.9894
 -19128849.68748 -14845065.22348  20442823.5954   20442823.1624   20442826.1504
      -731.6414
  -4559050.83848  -3535979.42347  21533594.5304   21533594.5864   21533601.2794
     -2193.6434
  -8556129.26148  -6596127.72646  22674569.4654   22674569.4164   22674572.2904
     -2710.1704
 11 10  9  1 31  0.0000000  0  8G23G28G32G17G04G20G01G11
 -15972373.75848 -12384201.50247  22185500.7504   22185499.3384   22185501.7384
      3051.4444
 -12550962.94246  -9711602.73545  24637041.4224   24637043.1354   24637044.6994
     -3616.7824
 -16966629.60448 -13150855.88247  21303241.1104   21303240.7844   21303245.1114
     -2130.3544
 -21508703.59048 -16684645.45748  20687107.8134   20687108.0204   20687110.2154
       575.2084
  -5758721.85147  -4420488.59346  23635442.0424   23635442.3144   23635446.0924
      2989.1564
 -19106698.83048 -14827804.89248  20447038.9834   20447038.5764   20447041.4594
      -745.1594
  -4493112.20848  -3484598.72247  21546142.4864   21546141.7284   21546149.1384
     -2202.4014
  -8474713.97548  -6532687.32546  22690062.8344   22690061.3954   22690065.4414
     -2717.6464
 11 10  9  1 31 30.0000000  0  8G23G28G32G17G04G20G01G11
 -16063721.48448 -12455381.56147  22168117.5884   22168117.6234   22168118.7074
      3038.8974
 -12442422.16046  -9627025.58845  24657696.1994   24657694.5614   24657699.5864
     -3618.7534
 -16902513.37948 -13100895.24247  21315442.1814   21315442.0584   21315445.9414
     -2143.4834
 -21525659.92948 -16697858.21448  20683881.2334   20683881.3394   20683883.7314
       555.5524
  -5848352.63747  -4490330.82546  23618386.1904   23618387.1024   23618388.3184
      2986.3504
 -19084123.02648 -14810213.38748  20451334.8874   20451334.4444   20451337.0834
      -759.4364
  -4426890.62748  -3432997.55947  21558744.1594   21558744.0004   21558750.3394
     -2211.9804
  -8393055.53347  -6469057.44446  22705601.2974   22705601.7774   22705605.5434
     -2725.7064
 11 10  9  1 32  0.0000000  0  8G23G28G32G17G04G20G01G11
 -16154699.48148 -12526273.51347  22150804.7214   22150805.1964   22150805.4154
      3026.1164
 -12333822.01546  -9542402.19645  24678362.2364   24678362.9024   24678367.0444
     -3621.5474
 -16838009.26648 -13050632.43847  21327716.8364   21327716.6514   21327720.9344
     -2156.7544
 -21542033.76048 -16710617.05948  20680765.1444   20680765.6724   20680767.7194
       535.7764
  -5937912.80247  -4560118.01846  23601344.0924   23601343.0004   23601346.6094
      2984.0564
 -19061126.90148 -14792294.34248  20455710.9724   20455710.1744   20455713.1914
      -773.8434
  -4360389.96548  -3381178.92047  21571398.6304   21571399.0634   21571405.1944
     -2221.6204
  -8311157.97047  -6405241.24046  22721186.4084   22721185.4774   22721189.6264
     -2734.3474
 11 10  9  1 32 30.0000000  0  8G23G28G32G17G04G20G01G11
 -16245303.08348 -12596873.72247  22133563.7724   22133563.5484   22133564.8804
      3013.8114
 -12225163.53946  -9457733.29445  24699039.7314   24699039.7734   24699043.5504
     -3623.2984
 -16773116.84748 -13000066.94847  21340065.7134   21340065.0384   21340069.3564
     -2169.6744
 -21557822.27448 -16722919.82348  20677760.7504   20677761.3654   20677762.9804
       516.4534
  -6027399.59247  -4629848.04546  23584313.9854   23584315.0694   23584318.8774
      2981.6504
 -19037709.68348 -14774047.21848  20460167.2754   20460166.7404   20460169.2584
      -787.6504
  -4293608.90048  -3329141.78847  21584106.5734   21584106.7484   21584113.4234
     -2230.7944
  -8229020.49347  -6341238.08346  22736816.2164   22736815.0984   22736819.4954
     -2741.9764
 11 10  9  1 33  0.0000000  0  8G23G28G32G17G04G20G01G11
 -16335527.08248 -12667178.14447  22116394.6364   22116394.9284   22116395.7394
      3001.0374
 -12116447.93746  -9373019.95545  24719728.8394   24719727.5824   24719729.7574
     -3625.2274
 -16707836.14148 -12949198.90647  21352488.1384   21352487.3384   21352491.9274
     -2182.5934
 -21573022.36048 -16734764.06548  20674868.5294   20674868.5624   20674870.6024
       496.7744
  -6116809.89447  -4699518.47746  23567300.9194   23567301.0504   23567303.2374
      2978.9804
 -19013869.99448 -14755470.90048  20464703.7654   20464703.1654   20464706.1834
      -801.7394
  -4226545.91248  -3276884.97847  21596868.5714   21596868.1274   21596874.9964
     -2240.2474
  -8146641.65948  -6277046.86846  22752493.2534   22752492.5204   22752496.1684
     -2750.2064
 11 10  9  1 33 30.0000000  0  8G23G28G32G17G04G20G01G11
 -16425372.61648 -12737187.63547  22099297.5704   22099297.3904   22099298.7854
      2988.4914
 -12007682.49946  -9288267.71345  24740426.1954   24740425.9184   24740428.6524
     -3626.3234
 -16642173.57848 -12898033.34847  21364983.2764   21364982.2864   21364987.1934
     -2195.1004
 -21587637.50848 -16746152.50948  20672087.7364   20672087.4804   20672089.8454
       477.4344
  -6206146.91347  -4769131.82146  23550300.1374   23550300.6134   23550303.6524
      2976.3824
 -18989613.54048 -14736569.80848  20469319.6914   20469319.2484   20469321.7944
      -815.5834
  -4159205.99748  -3224412.39247  21609683.0844   21609682.5814   21609689.5244
     -2249.3894
  -8064026.35747  -6212671.38346  22768213.8084   22768213.7114   22768216.6114
     -2757.6674
 11 10  9  1 34  0.0000000  0  8G23G28G32G17G04G20G01G11
 -16514836.00148 -12806899.34847  22082273.2024   22082272.5654   22082274.3074
      2975.5924
 -11898869.60246  -9203478.53245  24761131.9254   24761130.5364   24761133.0294
     -3628.1714
 -16576130.17248 -12846571.06047  21377551.1724   21377551.0244   21377554.5784
     -2208.0724
 -21601665.67248 -16757083.55848  20669418.0454   20669417.9494   20669419.9714
       457.4524
  -6295408.74747  -4838686.57946  23533315.0114   23533315.0534   23533317.4114
      2974.0524
 -18964940.50548 -14717344.11548  20474014.8104   20474014.6484   20474017.2354
      -829.6544
  -4091588.89448  -3171723.80747  21622549.8124   21622550.0034   21622556.4714
     -2258.6264
  -7981174.87147  -6148111.87946  22783980.3044   22783979.2824   22783982.9074
     -2765.9834
 11 10  9  1 34 30.0000000  0  8G23G28G32G17G04G20G01G11
 -16603909.57748 -12876307.32047  22065323.0814   22065323.5664   22065323.1614
      2962.7334
 -11790007.89746  -9118651.29945  24781846.9844   24781848.0634   24781851.2664
     -3629.9224
 -16509703.50748 -12794810.13547  21390191.7574   21390191.5794   21390195.7864
     -2220.4594
 -21615101.56048 -16767553.09548  20666861.1114   20666861.2144   20666863.7254
       438.0164
  -6384589.95747  -4908178.52446  23516344.1224   23516344.6764   23516348.1254
      2971.3054
 -18939847.70048 -14697791.28348  20478789.9414   20478789.2224   20478792.2264
      -843.2964
  -4023690.78448  -3118816.26547  21635471.0904   21635470.3994   21635477.4594
     -2267.9924
  -7898083.78948  -6083365.66646  22799791.8644   22799791.8614   22799794.7134
     -2773.6794
 11 10  9  1 35  0.0000000  0  8G23G28G32G17G04G20G01G11
 -16692598.75148 -12945415.74147  22048446.2804   22048445.7624   22048447.0134
      2949.8194
 -11681108.58446  -9033794.77545  24802568.7934   24802571.1904   24802573.3994
     -3630.9814
 -16442903.42148 -12742758.17447  21402903.5644   21402903.1424   21402907.4324
     -2232.9374
 -21627953.03348 -16777567.24048  20664415.5544   20664415.6254   20664418.2744
       418.5184
  -6473697.69147  -4977613.22446  23499387.8814   23499388.3134   23499390.8574
      2968.6444
 -18914344.34748 -14677918.59348  20483642.9364   20483642.7234   20483645.4354
      -857.1534
  -3955520.46948  -3065696.60147  21648443.2254   21648443.0874   21648449.6234
     -2277.0974
  -7814761.80747  -6018439.48846  22815647.9064   22815646.7734   22815650.1594
     -2781.4574
 11 10  9  1 35 30.0000000  0  9G23G28G32G17G04G13G20G01G11
 -16780893.84348 -13014217.09547  22031644.2104   22031644.5514   22031645.9234
      2936.7654
 -11572167.66746  -8948905.82345  24823299.9194   24823298.6024   24823303.3834
     -3631.9104
 -16375724.99748 -12690411.45647  21415687.0134   21415686.4314   21415691.4384
     -2245.5054
 -21640211.60348 -16787119.38548  20662082.8144   20662083.3784   20662084.8904
       398.7724
  -6562723.86847  -5046984.37746  23482446.6314   23482446.1564   23482450.0004
      2966.3634
   -979567.849 7                  23975831.272
      3757.782
 -18888424.22648 -14657721.05848  20488575.4804   20488574.8264   20488577.7904
      -870.9154
  -3887071.41748  -3012359.74147  21661469.1834   21661468.6084   21661476.0824
     -2286.4394
  -7731202.75947  -5953328.59046  22831548.5174   22831547.0484   22831553.1454
     -2789.0284
 11 10  9  1 36  0.0000000  0  9G23G28G32G17G04G13G20G01G11
 -16868795.55148 -13082711.89747  22014917.0064   22014916.4214   22014918.4744
      2923.7474
 -11463192.67346  -8863990.31945  24844036.7284   24844038.7684   24844039.1304
     -3632.0524
 -16308174.41448 -12637774.76247  21428541.5394   21428541.1644   21428546.2144
     -2257.4684
 -21651880.76548 -16796212.24848  20659862.1054   20659862.5174   20659864.7164
       379.4834
  -6651671.70447  -5116294.46946  23465519.9764   23465521.0634   23465524.2034
      2963.8504
  -1092273.84246   -786329.97945  23954383.8804   23954382.4994   23954388.0714
      3756.1404
 -18862093.08948 -14637203.29048  20493586.0384   20493585.7364   20493588.2334
      -884.0644
  -3818348.65348  -2958809.58547  21674546.3354   21674546.2024   21674552.9334
     -2294.9614
  -7647412.00047  -5888037.15346  22847493.7094   22847493.5244   22847496.6094
     -2796.3084
 11 10  9  1 36 30.0000000  0  9G23G28G32G17G04G13G20G01G11
 -16956298.93148 -13150896.33847  21998265.6984   21998265.0204   21998266.4714
      2909.7464
 -11354184.70946  -8779049.12545  24864780.3794   24864784.8674   24864785.3914
     -3635.6424
 -16240251.60548 -12584847.95147  21441467.0024   21441466.9534   21441471.0044
     -2270.6294
 -21662957.92348 -16804843.81648  20657754.3364   20657754.1044   20657756.5704
       358.8804
  -6740538.10247  -5185541.11146  23448609.5594   23448610.3534   23448612.9154
      2960.5974
  -1204881.77146   -874076.33746  23932955.5484   23932956.7884   23932962.1174
      3751.4134
 -18835350.08048 -14616364.64548  20498675.2764   20498674.7904   20498677.3814
      -898.6384
  -3749350.73948  -2905045.02847  21687676.2724   21687676.2204   21687682.1874
     -2304.9904
  -7563388.15447  -5822564.07546  22863482.2234   22863483.2424   22863486.0774
     -2805.1194
 11 10  9  1 37  0.0000000  0  9G23G28G32G17G04G13G20G01G11
 -17043400.47548 -13218767.66747  21981690.8974   21981691.1764   21981691.9914
      2894.9744
 -11245146.22346  -8694084.06545  24885530.5474   24885530.8894   24885534.6424
     -3636.7204
 -16171957.82348 -12531632.05947  21454462.9074   21454462.5144   21454467.1824
     -2284.1684
 -21673441.32648 -16813012.71048  20655759.4734   20655759.5784   20655762.2774
       337.8004
  -6829321.27247  -5254722.86046  23431715.1634   23431715.2694   23431719.0174
      2956.2224
  -1317387.75547   -961743.28046  23911546.6774   23911545.8764   23911552.0954
      3746.7624
 -18808195.36448 -14595205.07948  20503842.5264   20503841.8564   20503844.7464
      -913.6724
  -3680077.64948  -2851066.04747  21700858.6794   21700858.5554   21700865.0074
     -2315.5064
  -7479131.55947  -5756909.65546  22879516.5114   22879515.9204   22879519.3824
     -2814.0144
 11 10  9  1 37 30.0000000  0  9G23G28G32G17G04G13G20G01G11
 -17130095.36248 -13286322.11247  21965193.4064   21965193.4574   21965194.8564
      2883.2724
 -11136078.01246  -8609096.00245  24906286.4114   24906286.5714   24906292.5044
     -3635.8984
 -16103293.13348 -12478127.18347  21467529.4724   21467529.4924   21467533.4724
     -2294.6054
 -21683328.16148 -16820716.74948  20653878.0264   20653878.0234   20653880.4634
       320.1024
  -6918018.25047  -5323837.46146  23414836.8464   23414836.9044   23414839.6454
      2955.4784
  -1429787.00047  -1049327.03646  23890157.3284   23890157.3444   23890162.1814
      3745.3944
 -18780628.33848 -14573724.20948  20509088.2694   20509087.4474   20509090.5534
      -925.3874
  -3610528.02448  -2796871.59547  21714093.1774   21714092.8444   21714099.5804
     -2322.5064
  -7394640.86247  -5691072.83246  22895594.0214   22895594.9614   22895597.5394
     -2819.7234
 11 10  9  1 38  0.0000000  0  9G23G28G32G17G04G13G20G01G11
 -17216387.85148 -13353563.02747  21948772.2074   21948772.2134   21948773.4434
      2869.7464
 -11026990.89546  -8524093.14945  24927044.9644   24927042.6294   24927044.8524
     -3636.1014
 -16034267.02948 -12424340.70447  21480664.8084   21480664.5354   21480668.8814
     -2306.9114
 -21692625.49148 -16827961.43548  20652108.7764   20652108.9244   20652110.9574
       299.9924
  -7006635.56047  -5392889.96846  23397973.6314   23397972.9734   23397976.8324
      2952.5574
  -1542084.05747  -1136831.19146  23868788.0944   23868788.3134   23868793.2014
      3741.4114
 -18752657.68848 -14551928.96148  20514410.7874   20514410.2454   20514413.0744
      -939.0784
  -3540710.02548  -2742468.02147  21727379.4124   21727379.0694   21727386.1974
     -2331.8294
  -7309924.87747  -5625060.45646  22911715.4784   22911714.7184   22911717.7224
     -2827.5904
 11 10  9  1 38 30.0000000  0  9G23G28G32G17G04G13G20G01G11
 -17302269.14748 -13420483.51847  21932430.0634   21932429.9554   21932430.0474
      2855.2064
 -10917881.437 6  -8439072.77845  24947806.251                    24947810.9604
     -3638.135
 -15964875.13148 -12370269.22047  21493869.8544   21493868.9164   21493873.8684
     -2319.9694
 -21701326.11448 -16834741.15248  20650453.1184   20650453.3694   20650455.4104
       279.3884
  -7095165.63747  -5461874.51246  23381126.6764   23381126.6064   23381129.4894
      2948.8284
  -1654269.47747  -1224248.34446  23847439.8244   23847439.6364   23847443.1634
      3737.1044
 -18724278.25248 -14529815.18748  20519811.3634   20519810.6784   20519813.7964
      -953.3994
  -3470617.95848  -2687850.87547  21740717.3524   21740717.3374   21740723.8924
     -2341.5664
  -7224977.81647  -5558868.02946  22927880.3024   22927879.7234   22927883.7594
     -2835.9844
 11 10  9  1 39  0.0000000  0  9G23G28G32G17G04G13G20G01G11
 -17387739.21448 -13487083.57047  21916165.3074   21916165.1424   21916166.0944
      2841.9914
 -10808756.11446  -8354040.16845  24968573.9124   24968573.7444   24968575.9324
     -3637.8914
 -15895122.47848 -12315916.59847  21507143.4134   21507142.2454   21507147.3754
     -2331.1944
 -21709432.78548 -16841058.05548  20648910.3704   20648910.5524   20648912.6494
       260.0914
  -7183610.62047  -5530792.73446  23364295.7934   23364295.7884   23364299.5694
      2946.3194
  -1766343.99947  -1311579.08846  23826112.6514   23826112.3254   23826116.6944
      3733.9514
 -18695494.62448 -14507386.53148  20525288.8314   20525287.9584   20525290.9434
      -966.2874
  -3400255.61348  -2633023.13247  21754106.8304   21754107.0744   21754113.7914
     -2350.0654
  -7139804.09647  -5492498.99846  22944088.4464   22944088.4274   22944091.8654
     -2843.0214
 11 10  9  1 39 30.0000000  0  9G23G28G32G17G04G13G20G01G11
 -17472794.51548 -13553360.45647  21899979.8684   21899979.7664   21899980.7164
      2828.2404
 -10699617.08646  -8268996.86945  24989341.9964   24989341.5684   24989346.4024
     -3638.3844
 -15825010.21948 -12261283.76047  21520485.1664   21520484.9574   21520488.9794
     -2343.0074
 -21716943.44148 -16846910.53348  20647481.2694   20647481.5594   20647483.5474
       240.3704
  -7271968.68147  -5599643.21846  23347481.6284   23347482.2784   23347485.4254
      2943.5034
  -1878303.12047  -1398819.87546  23804807.7284   23804808.2344   23804811.3884
      3729.5124
 -18666306.62348 -14484642.73948  20530843.2544   20530842.8504   20530845.5314
      -979.6984
  -3329622.84648  -2577984.65047  21767548.0744   21767547.8314   21767555.3134
     -2359.0624
  -7054403.62547  -5425953.24246  22960339.5514   22960339.8204   22960341.9944
     -2850.4374
 11 10  9  1 40  0.0000000  0  9G23G28G32G17G04G13G20G01G11
 -17557429.43848 -13619309.76747  21883874.7434   21883874.7314   21883875.1474
      2813.9684
 -10590464.84115  -8183943.21945  25010112.994                    25010118.6564
     -3639.517
 -15754537.82348 -12206370.28447  21533895.5094   21533895.0504   21533899.8134
     -2355.4104
 -21723855.46848 -16852296.54548  20646165.7574   20646166.1764   20646168.4004
       220.2204
  -7360236.23547  -5668423.18546  23330685.0824   23330685.1954   23330688.2874
      2940.5784
  -1990141.81047  -1485966.85046  23783524.9324   23783522.9434   23783528.3024
      3725.6074
 -18636712.92948 -14461582.77548  20536474.8844   20536474.4764   20536477.4024
      -993.4944
  -3258717.86248  -2522734.06147  21781040.6524   21781040.3674   21781047.7094
     -2368.2424
  -6968774.58347  -5359229.41746  22976634.0764   22976633.9904   22976637.2724
     -2858.3974
 11 10  9  1 40 30.0000000  0  9G23G28G32G17G04G13G20G01G11
 -17641645.51648 -13684932.69147  21867848.9144   21867848.1664   21867848.5854
      2799.8234
 -10481306.599 5                  25030883.189
     -3639.298
 -15683711.77748 -12151181.18847  21547373.5924   21547373.1844   21547377.5594
     -2366.9554
 -21730172.19548 -16857218.68548  20644964.0894   20644964.0424   20644966.6754
       200.3344
  -7448416.50847  -5737135.14546  23313904.5744   23313905.2874   23313909.4914
      2937.4244
  -2101861.88247  -1573021.38846  23762265.0804   23762266.8044   23762269.3954
      3721.7484
 -18606719.55348 -14438211.38748  20542182.4244   20542181.9624   20542184.7064
     -1006.7444
  -3187545.71948  -2467275.27447  21794584.4604   21794584.3374   21794591.5194
     -2377.4204
  -6882922.33447  -5292331.66146  22992971.1384   22992971.9184   22992974.2224
     -2865.5514
 11 10  9  1 41  0.0000000  0  9G23G28G32G17G04G13G20G01G11
 -17725437.54848 -13750225.17647  21851903.6134   21851903.8644   21851905.1234
      2785.0404
 -10372143.43946  -8013822.76045  25051658.4884   25051661.1384   25051663.8334
     -3638.9944
 -15612531.67648 -12095716.21747  21560918.6494   21560917.5314   21560922.9354
     -2379.5114
 -21735890.95048 -16861674.87248  20643875.5274   20643875.5834   20643878.1014
       179.7574
  -7536506.21547  -5805776.52646  23297142.8364   23297142.4544   23297147.1214
      2934.0334
  -2213457.36047  -1659978.82246  23741029.2394   23741029.1704   23741030.8954
      3716.8804
 -18576325.06348 -14414527.47948  20547966.1644   20547965.6064   20547968.6394
     -1020.6724
  -3116104.73648  -2411607.00147  21808179.1534   21808179.1024   21808186.7604
     -2386.5154
  -6796845.79647  -5225259.08746  23009351.2334   23009350.4924   23009354.5094
     -2873.8404
 11 10  9  1 41 30.0000000  0  9G23G28G32G17G04G13G20G01G11
 -17808803.05148 -13815185.33047  21836039.9294   21836040.1574   21836041.0754
      2771.8794
 -10262978.48345  -7928759.20945  25072430.1674   25072430.8374   25072437.4824
     -3639.5144
 -15540999.82748 -12039977.18647  21574530.7214   21574530.4944   21574534.6824
     -2390.0894
 -21741011.48948 -16865664.91848  20642901.3514   20642901.5664   20642903.5494
       160.8784
  -7624504.39947  -5874346.61946  23280397.7014   23280396.6084   23280400.1154
      2931.7654
  -2324925.93147  -1746837.40146  23719817.3884   23719818.1084   23719821.4744
      3713.8574
 -18545531.09948 -14390532.22548  20553826.1794   20553825.5174   20553828.4494
     -1032.9034
  -3044395.83848  -2355729.94947  21821825.0624   21821825.0924   21821831.7264
     -2394.5014
  -6710546.07047  -5158012.62546  23025773.3404   23025773.3624   23025776.7664
     -2880.2224
 11 10  9  1 42  0.0000000  0  9G23G32G17G04G12G13G20G01G11
 -17891739.24748 -13879810.96447  21820257.4954   21820257.4044   21820258.3514
      2757.0174
 -15469118.48148 -11983965.84347  21588209.3584   21588208.9154   21588213.4794
     -2402.0584
 -21745533.41048 -16869188.51148  20642040.9294   20642040.8354   20642043.1094
       140.4594
  -7712410.18947  -5942844.68946  23263669.1724   23263668.9204   23263672.1244
      2928.4684
  -1609032.16346  -1201064.35546  25445203.2474   25445202.4984   25445208.3624
      2077.6904
  -2436264.66547  -1833594.78246  23698630.5234   23698630.3864   23698635.6924
      3708.8154
 -18514338.98948 -14366226.78548  20559762.0384   20559761.2884   20559764.7024
     -1046.7234
  -2972419.79748  -2299644.72847  21835521.4344   21835521.5104   21835528.5324
     -2404.0714
  -6624024.24447  -5090593.08746  23042238.3394   23042238.6394   23042241.8604
     -2888.2274
 11 10  9  1 42 30.0000000  0  9G23G32G17G04G12G13G20G01G11
 -17974243.90348 -13944100.34647  21804557.3614   21804556.5204   21804557.5514
      2742.8714
 -15396889.90648 -11927683.95247  21601954.3954   21601953.4064   21601958.5224
     -2413.3314
 -21749456.35148 -16872245.36948  20641294.3944   20641294.5774   20641296.6174
       120.7134
  -7800222.98647  -6011270.29746  23246958.1344   23246959.2514   23246962.4914
      2925.3154
  -1671154.61746  -1249471.52146  25433382.4604   25433383.1204   25433389.5004
      2062.8664
  -2547470.85947  -1920248.87346  23677468.9184   23677467.5474   23677473.8164
      3704.3134
 -18482750.40448 -14341612.41048  20565773.2484   20565772.9354   20565775.5194
     -1059.7024
  -2900177.77348  -2243352.25347  21849268.6324   21849268.1374   21849275.3134
     -2413.0644
  -6537281.50047  -5023001.42346  23058745.0744   23058744.6014   23058748.2554
     -2895.0674
 11 10  9  1 43  0.0000000  0  9G23G32G17G04G12G13G20G01G11
 -18056314.81348 -14008051.71947  21788940.0694   21788939.8614   21788940.7074
      2728.2044
 -15324316.63748 -11871133.38647  21615764.3804   21615763.7154   21615768.8764
     -2425.0774
 -21752780.45048 -16874835.58748  20640662.0144   20640662.7024   20640664.2824
       100.5864
  -7887942.22347  -6079622.97346  23230266.8604   23230266.6864   23230270.5294
      2921.9604
  -1732822.05147  -1297524.16846  25421647.8044   25421647.0174   25421649.9404
      2047.5584
  -2658542.10547  -2006797.83446  23656332.3164   23656333.0164   23656336.5094
      3699.8414
 -18450767.26048 -14316690.56448  20571859.5334   20571859.1464   20571862.1004
     -1072.8734
  -2827671.15348  -2186853.57747  21863066.1574   21863066.1374   21863073.5544
     -2421.7034
  -6450319.76147  -4955239.11646  23075293.1034   23075292.4244   23075297.5674
     -2902.2234
 11 10  9  1 43 30.0000000  0  9G23G32G17G04G12G13G20G01G11
 -18137945.58448 -14071660.16347  21773406.1774   21773405.9484   21773406.6904
      2713.7304
 -15251397.07348 -11814312.96447  21629640.4934   21629640.3434   21629644.1464
     -2436.5244
 -21755502.36948 -16876956.57548  20640143.9554   20640144.2204   20640145.9704
        80.5904
  -7975563.22347  -6147899.12046  23213591.8794   23213593.3324   23213596.5564
      2918.6854
  -1794028.19447  -1345216.87346  25410000.1644   25410000.3814   25410004.9324
      2032.5114
  -2769472.43447  -2093236.98646  23635223.5404   23635222.2024   23635227.5894
      3695.5074
 -18418387.07148 -14291459.30148  20578021.2154   20578020.3554   20578023.7354
     -1085.9864
  -2754896.98448  -2130146.43947  21876915.0534   21876914.4634   21876921.0924
     -2430.2744
  -6363136.09147  -4887303.85846  23091883.5814   23091882.7084   23091887.8414
     -2909.7144
 11 10  9  1 44  0.0000000  0  9G23G32G17G04G12G13G20G01G11
 -18219138.43948 -14134927.32747  21757955.4434   21757955.8004   21757956.5294
      2698.4264
 -15178138.58248 -11757228.48147  21643581.2844   21643580.8004   21643586.1354
     -2448.1694
 -21757625.73248 -16878611.16548  20639739.8744   20639740.1994   20639742.2364
        60.2524
  -8063090.13047  -6216101.95146  23196937.9734   23196936.7664   23196940.8384
      2915.2474
  -1854777.50946  -1392553.89946  25398440.0734   25398439.7204   25398444.1924
      2016.5804
  -2880263.84246  -2179567.88946  23614139.2094   23614139.6304   23614144.1714
      3690.2594
 -18385616.54548 -14265923.89248  20584257.3924   20584257.1274   20584260.0244
     -1099.4254
  -2681861.24348  -2073235.46947  21890812.7404   21890813.3134   21890820.4444
     -2439.4314
  -6275736.66747  -4819200.46746  23108515.3064   23108515.4624   23108518.2954
     -2917.4704
 11 10  9  1 44 30.0000000  0  9G23G32G17G04G12G13G20G01G11
 -18299885.56648 -14197847.13047  21742590.0414   21742589.8414   21742590.6154
      2683.9404
 -15104538.07548 -11699877.48347  21657586.8094   21657586.5474   21657590.6884
     -2458.9294
 -21759145.18848 -16879795.15348  20639450.7234   20639450.5434   20639452.9744
        40.4684
  -8150516.83047  -6284226.68846  23180299.6324   23180300.5794   23180303.8234
      2912.2834
  -1915062.06846  -1439528.80746  25386966.6064   25386967.5294   25386971.2694
      2001.5074
  -2990908.26946  -2265784.25246  23593084.5674   23593084.0814   23593089.9934
      3685.5794
 -18352451.44948 -14240080.96648  20590568.1894   20590568.4384   20590570.9264
     -1112.2314
  -2608559.44648  -2016117.18147  21904761.7554   21904762.1174   21904768.8314
     -2447.9834
  -6188117.52847  -4750925.89046  23125188.7404   23125188.4534   23125192.4194
     -2924.4184
 11 10  9  1 45  0.0000000  0  9G23G32G17G04G12G13G20G01G11
 -18380187.19148 -14260419.83647  21727309.0104   21727308.3794   21727309.4694
      2669.0404
 -15030600.49348 -11642263.84747  21671656.8444   21671656.5874   21671660.7364
     -2470.3884
 -21760063.64648 -16880510.84748  20639276.0364   20639276.0574   20639278.1824
        20.4764
  -8237844.99547  -6352274.64446  23163682.6664   23163683.0664   23163685.8764
      2909.1504
  -1974882.90647  -1486142.38346  25375584.7634   25375583.6954   25375588.2024
      1985.9664
  -3101405.90846  -2351886.24246  23572058.1074   23572057.2044   23572063.3574
      3680.7074
 -18318896.36748 -14213934.21448  20596953.9184   20596952.9814   20596956.1144
     -1125.3094
  -2534995.24448  -1958794.42347  21918760.3924   21918760.3624   21918767.8324
     -2456.6844
  -6100282.58247  -4682483.16546  23141903.4634   23141903.3514   23141907.0714
     -2931.6984
 11 10  9  1 45 30.0000000  0  9G23G32G17G04G12G13G20G01G11
 -18460042.94848 -14322645.11847  21712112.6944   21712112.2344   21712114.9464
      2654.4384
 -14956329.89648 -11584390.75747  21685790.1614   21685789.1934   21685794.5894
     -2481.1064
 -21760383.02248 -16880759.70248  20639215.1644   20639215.1184   20639217.4724
          .7444
  -8325075.54547  -6420246.52446  23147082.6024   23147082.4334   23147086.6214
      2906.1774
  -2034240.54246  -1532395.27546  25364288.4034   25364287.0454   25364294.6414
      1970.8744
  -3211755.39647  -2437872.79346  23551059.4524   23551057.6084   23551064.3184
      3676.1204
 -18284954.36448 -14187485.92348  20603412.8994   20603412.3824   20603415.2374
     -1137.6984
  -2461171.43048  -1901269.37047  21932808.8004   21932808.9024   21932816.2734
     -2465.1244
  -6012234.56147  -4613874.39546  23158658.4374   23158657.8274   23158661.7864
     -2938.5264
 11 10  9  1 46  0.0000000  0  9G23G32G17G04G12G13G20G01G11
 -18539447.44948 -14384518.75347  21697002.8414   21697002.7564   21697003.3604
      2638.9284
 -14881725.99248 -11526257.94847  21699986.8304   21699985.8054   21699991.7884
     -2492.7604
 -21760100.37748 -16880539.47048  20639268.8264   20639269.0664   20639271.3224
       -19.9084
  -8412205.17047  -6488139.77046  23130503.1534   23130502.3784   23130506.2774
      2902.0244
  -2093129.23447  -1578282.41946  25353083.5414   25353082.2724   25353084.5984
      1955.0814
  -3321951.77447  -2523740.02946  23530089.3074   23530089.4884   23530092.2744
      3669.9404
 -18250624.68848 -14160735.58848  20609945.6244   20609944.9144   20609948.2064
     -1151.2064
  -2387086.50548  -1843540.85347  21946906.4864   21946906.1514   21946913.5234
     -2474.3634
  -5923972.73447  -4545099.03046  23175454.3114   23175453.5854   23175457.5444
     -2945.8884
 11 10  9  1 46 30.0000000  0  9G23G32G17G04G12G13G20G01G11
 -18618395.22448 -14446036.50347  21681979.6104   21681979.3004   21681980.2244
      2623.3974
 -14806787.78148 -11467864.63047  21714247.1454   21714246.6884   21714251.9844
     -2503.9984
 -21759212.24148 -16879847.41348  20639437.9124   20639438.2864   20639440.4424
       -40.2414
  -8499229.69047  -6555951.13546  23113943.0334   23113943.0224   23113946.0064
      2898.5624
  -2151544.28046  -1623800.10146  25341965.9074   25341964.8014   25341971.0634
      1938.7274
  -3431989.18147  -2609483.41346  23509149.8584   23509149.7544   23509154.6384
      3664.9084
 -18215905.38648 -14133681.63048  20616552.6164   20616552.0704   20616554.7924
     -1164.3294
  -2312738.08748  -1785606.98547  21961054.5574   21961054.0994   21961062.0014
     -2483.2354
  -5835494.61647  -4476155.10946  23192290.8474   23192291.6624   23192294.9154
     -2953.1694
 11 10  9  1 47  0.0000000  0  9G23G32G17G04G12G13G20G01G11
 -18696890.43348 -14507201.60747  21667042.4514   21667042.2024   21667043.5554
      2608.9254
 -14731524.29748 -11409217.85847  21728569.1754   21728568.4024   21728574.2674
     -2514.2824
 -21757725.42548 -16878688.87248  20639720.8244   20639721.0184   20639723.3204
       -59.8004
  -8586154.97447  -6623685.15346  23097401.4894   23097401.8894   23097404.4174
      2895.7114
  -2209492.21946  -1668954.24746  25330939.9474   25330940.2064   25330944.7064
      1924.1424
  -3541871.69047  -2695106.09446  23488239.4894   23488238.5494   23488244.1134
      3659.9674
 -18180804.92348 -14106330.61948  20623231.7644   20623231.3014   20623234.3844
     -1176.5474
  -2238133.96048  -1727473.86147  21975251.2634   21975251.5844   21975257.8844
     -2491.3674
  -5746808.03247  -4407048.72546  23209167.8074   23209167.6834   23209170.8544
     -2959.6414
 11 10  9  1 47 30.0000000  0  9G23G32G17G04G12G13G20G01G11
 -18774921.51348 -14568005.07247  21652193.6294   21652193.4084   21652193.8994
      2593.3974
 -14655928.44748 -11350312.04647  21742954.8524   21742955.2304   21742959.4224
     -2525.1154
 -21755630.86548 -16877056.75048  20640119.3444   20640119.8824   20640121.6054
       -79.7514
  -8672970.99547  -6691334.04646  23080880.7344   23080881.0794   23080883.5564
      2892.5404
  -2266961.21546  -1713735.40846  25320002.7114   25320004.3074   25320008.2104
      1907.2914
  -3651587.24747  -2780598.67046  23467361.5304   23467361.8174   23467365.5164
      3654.6704
 -18145315.65948 -14078676.67248  20629985.1444   20629984.2894   20629987.8724
     -1189.0454
  -2163265.86948  -1669135.04847  21989498.5504   21989498.3284   21989504.9174
     -2499.7634
  -5657905.94047  -4337774.42746  23226085.5544   23226084.6334   23226089.4874
     -2966.8564
 11 10  9  1 48  0.0000000  0  9G23G32G17G04G12G13G20G01G11
 -18852494.58548 -14628451.61147  21637431.8154   21637432.2744   21637432.9114
      2577.5644
 -14580011.39748 -11291155.95847  21757401.5024   21757401.1764   21757406.1844
     -2536.3744
 -21752937.07148 -16874957.69448  20640631.9564   20640632.0504   20640634.3094
      -100.3044
  -8759685.68047  -6758903.97146  23064378.9884   23064380.3184   23064382.9974
      2888.3204
  -2323958.14846  -1758148.70746  25309157.7164   25309156.9494   25309159.8964
      1890.8894
  -3761141.84947  -2865965.84746  23446514.2074   23446513.6324   23446518.4134
      3648.8294
 -18109447.81348 -14050727.73948  20636810.8414   20636809.7624   20636813.1124
     -1202.5044
  -2088143.69948  -1610598.29747  22003793.5354   22003793.8494   22003801.2014
     -2508.7654
  -5568797.74847  -4268339.52246  23243042.1264   23243042.1064   23243046.4964
     -2974.4004
 11 10  9  1 48 30.0000000  0  9G23G32G17G04G12G13G20G01G11
 -18929599.29248 -14688533.19747  21622759.0634   21622759.2984   21622759.7924
      2561.6374
 -14503767.51448 -11231745.24447  21771910.2264   21771909.7524   21771915.0454
     -2547.6164
 -21749636.22248 -16872385.58648  20641260.1384   20641260.2694   20641262.3114
      -120.8074
  -8846289.96947  -6826387.88246  23047899.3734   23047899.5724   23047903.2414
      2884.1324
  -2380472.95946  -1802186.07846  25298402.3454   25298402.8334   25298406.7124
      1874.7354
  -3870524.83947  -2951199.28846  23425699.2404   23425698.9554   23425703.5414
      3642.3784
 -18073195.02048 -14022478.86948  20643709.3384   20643708.7994   20643711.9504
     -1215.6844
  -2012760.36248  -1551858.09347  22018138.9254   22018137.8924   22018145.1074
     -2517.8334
  -5479476.94047  -4198739.00146  23260038.8444   23260039.2464   23260042.8844
     -2981.8494
 11 10  9  1 49  0.0000000  0  9G23G32G17G04G12G13G20G01G11
 -19006240.00148 -14748253.24247  21608174.9584   21608174.7884   21608176.1264
      2546.4964
 -14427205.35248 -11172086.50147  21786479.5974   21786479.1754   21786483.7654
     -2557.8834
 -21745734.82548 -16869345.54648  20642002.7174   20642003.2594   20642004.6654
      -140.5424
  -8932789.37947  -6893790.08446  23031439.5604   23031439.2904   23031442.7244
      2880.9294
  -2436510.41146  -1845851.45446  25287739.3524   25287741.4374   25287743.2764
      1859.7244
  -3979740.02247  -3036301.97446  23404916.0354   23404916.0854   23404920.5774
      3637.1714
 -18036565.11448 -13993936.12448  20650680.0944   20650679.2084   20650682.2814
     -1227.8314
  -1937123.20548  -1492920.06947  22032531.6524   22032531.8164   22032538.7374
     -2525.9234
  -5389951.04047  -4128978.66546  23277075.6024   23277075.2094   23277079.7454
     -2987.8644
 11 10  9  1 49 30.0000000  0  9G23G32G17G04G12G13G20G01G11
 -19082410.35948 -14807606.80347  21593680.2274   21593679.6404   21593681.8114
      2531.3724
 -14350323.32348 -11112178.51047  21801109.8894   21801109.3644   21801115.0714
     -2567.8414
 -21741228.70348 -16865834.28748  20642860.1154   20642860.4244   20642862.5864
      -160.1914
  -9019179.35147  -6961106.99246  23015000.0874   23014999.7454   23015003.2274
      2877.8794
  -2492065.31246  -1889140.77146  25277166.5644   25277164.0954   25277172.4264
      1844.0984
  -4088780.78547  -3121268.75946  23384165.9534   23384166.3564   23384170.7414
      3632.0234
 -17999555.86948 -13965097.82148  20657722.5814   20657722.0674   20657724.7824
     -1239.6434
  -1861229.47648  -1433782.16347  22046974.2484   22046974.8394   22046980.3184
     -2533.8174
  -5300217.61347  -4059056.60246  23294151.5914   23294150.1484   23294155.5514
     -2994.1634
 11 10  9  1 50  0.0000000  0  9G23G32G17G04G12G13G20G01G11
 -19158108.81148 -14866592.62947  21579275.5034   21579274.7914   21579276.1564
      2515.2984
 -14273124.85648 -11052023.99147  21815800.3714   21815799.9544   21815805.1234
     -2578.6274
 -21736119.14048 -16861852.81448  20643832.2334   20643832.1514   20643834.7454
      -180.5204
  -9105459.96947  -7028338.69146  22998580.8944   22998581.5584   22998584.7024
      2874.0994
  -2547136.83246  -1932053.44946  25266688.5564   25266689.4394   25266691.0914
      1827.2164
  -4197645.65647  -3206098.48146  23363450.0764   23363450.6884   23363453.6644
      3625.7654
 -17962169.77848 -13935965.88448  20664836.8144   20664836.1654   20664839.5484
     -1252.6324
  -1785081.10148  -1374445.79547  22061464.4264   22061464.7764   22061471.6934
     -2542.7374
  -5210278.80847  -3988974.47546  23311266.1104   23311265.4174   23311270.0974
     -3001.5094
 11 10  9  1 50 30.0000000  0 10G23G32G17G04G12G13G31G20G01G11
 -19233325.82948 -14925203.31847  21564962.2104   21564961.3704   21564962.5144
      2498.9534
 -14195605.26648 -10991619.21147  21830551.8224   21830550.7094   21830557.1964
     -2589.6764
 -21730399.58348 -16857396.02848  20644920.8004   20644920.8144   20644923.0014
      -201.1354
  -9191623.35347  -7095479.03946  22982184.7304   22982185.2514   22982188.2954
      2869.7674
  -2601716.53546  -1974582.68546  25256299.4054   25256299.8424   25256305.6884
      1810.9004
  -4306324.92547  -3290783.57146  23342768.0504   23342767.8554   23342773.3714
      3619.3424
  -1295737.727 7                  24860979.876
      1672.682
 -17924401.78148 -13906536.29348  20672023.9774   20672023.9754   20672026.7204
     -1265.5424
  -1708672.29048  -1314906.48847  22076004.8514   22076004.7804   22076012.1314
     -2551.7054
  -5120129.37347  -3918728.25946  23328421.1854   23328419.9824   23328423.7854
     -3008.8884
 11 10  9  1 51  0.0000000  0 10G23G32G17G04G12G13G31G20G01G11
 -19308072.07448 -14983447.16547  21550738.4314   21550737.9454   21550739.9484
      2483.0894
 -14117779.10048 -10930975.59047  21845361.9094   21845361.8634   21845366.7324
     -2599.7814
 -21724082.34048 -16852473.49448  20646123.0964   20646122.9904   20646124.9774
      -220.9994
  -9277680.70147  -7162536.75946  22965808.2114   22965809.0194   22965812.1194
      2866.0434
  -2655815.70046  -2016737.69846  25246008.5664   25246006.0244   25246009.9164
      1794.8144
  -4414828.01947  -3375331.38946  23322121.7014   23322121.2564   23322125.3254
      3613.5794
  -1345747.64647  -1000586.94846  24851463.3364   24851465.1674   24851468.0814
      1658.9914
 -17886265.59748 -13876819.79548  20679281.0514   20679280.3674   20679283.5774
     -1277.8654
  -1632016.16148  -1255174.44747  22090591.9184   22090591.6034   22090599.1404
     -2559.7644
  -5029782.64247  -3848328.27546  23345613.0204   23345612.4544   23345617.6874
     -3015.4684
 11 10  9  1 51 30.0000000  0 10G23G32G17G04G12G13G31G20G01G11
 -19382336.65948 -15041315.67547  21536606.3074   21536606.6034   21536607.2094
      2467.3774
 -14039640.26648 -10870088.32347  21860231.2304   21860230.8354   21860235.8414
     -2609.7344
 -21717159.39848 -16847079.00448  20647440.4814   20647440.8004   20647442.5964
      -240.8504
  -9363622.96047  -7229504.79746  22949455.1924   22949454.5954   22949458.5344
      2862.8814
  -2709423.77046  -2058510.17946  25235804.0514   25235803.5254   25235806.0524
      1779.1024
  -4523143.93747  -3459733.35846  23301509.9804   23301509.8944   23301513.4494
      3607.2034
  -1395289.42246  -1039191.22046  24842035.4474   24842036.6214   24842041.4714
      1643.7754
 -17847754.48548 -13846811.19448  20686609.5114   20686609.0534   20686612.1964
     -1289.8964
  -1555105.48348  -1195244.07547  22105227.7114   22105227.7154   22105234.4344
     -2568.0924
  -4939231.39647  -3777768.91046  23362844.5504   23362845.4404   23362848.2234
     -3021.7664
 11 10  9  1 52  0.0000000  0 10G23G32G17G04G12G13G31G20G01G11
 -19456117.15648 -15098806.99347  21522566.2864   21522566.1394   21522567.5214
      2451.3314
 -13961190.72548 -10808958.92147  21875160.0964   21875158.6624   21875164.6124
     -2620.0914
 -21709630.21348 -16841212.10548  20648873.0974   20648873.3124   20648875.3144
      -260.9744
  -9449448.81347  -7296382.13346  22933121.2644   22933122.6404   22933124.8744
      2858.8994
  -2762538.29246  -2099897.80146  25225696.5034   25225697.3214   25225699.9764
      1762.1404
  -4631269.90147  -3543987.30446  23280934.6364   23280934.9584   23280937.2824
      3600.9314
  -1444359.29546  -1077427.01546  24832697.9864   24832699.2414   24832705.0494
      1627.8444
 -17808869.94448 -13816511.60848  20694008.8434   20694008.2734   20694011.5504
     -1302.3654
  -1477941.18048  -1135116.12647  22119911.6314   22119911.7644   22119917.5804
     -2576.3404
  -4848476.85747  -3707051.13846  23380114.4424   23380113.8434   23380119.1404
     -3028.4474
 11 10  9  1 52 30.0000000  0 10G23G32G17G04G12G13G31G20G01G11
 -19529415.52248 -15155922.64947  21508618.2604   21508618.2874   21508619.5684
      2434.7464
 -13882436.98948 -10747592.42247  21890146.0444   21890145.6224   21890150.9044
     -2630.8054
 -21701499.49248 -16834876.48848  20650420.3944   20650420.1514   20650422.4874
      -281.6654
  -9535161.98147  -7363171.64146  22916812.0044   22916812.1304   22916815.5934
      2854.6274
  -2815162.87646  -2140903.47146  25215684.2654   25215682.9254   25215687.2374
      1745.0434
  -4739207.73947  -3628094.66946  23260393.9314   23260394.0584   23260398.4744
      3594.3084
  -1492961.37546  -1115298.79346  24823448.7554   24823451.0394   24823460.1514
      1611.2934
 -17769617.66448 -13785925.47748  20701478.3804   20701477.6114   20701481.3484
     -1315.0974
  -1400528.54848  -1074794.68347  22134642.8054   22134642.5574   22134649.0214
     -2585.1564
  -4757524.70847  -3636179.45246  23397422.2504   23397421.7594   23397426.8994
     -3035.7234
 11 10  9  1 53  0.0000000  0 10G23G32G17G04G12G13G31G20G01G11
 -19602222.61048 -15212655.44447  21494763.4174   21494763.6984   21494764.2364
      2418.4234
 -13803374.56648 -10685985.33047  21905191.4804   21905190.9434   21905195.6174
     -2640.7964
 -21692760.79248 -16828067.13148  20652083.2244   20652083.4194   20652085.6774
      -301.6414
  -9620754.48947  -7429867.13446  22900523.6674   22900523.5304   22900526.9364
      2850.8154
  -2867289.45146  -2181521.44946  25205762.1744   25205763.1664   25205767.0034
      1728.8594
  -4846947.92347  -3712048.01546  23239891.2344   23239891.8134   23239896.0384
      3587.7474
  -1541085.29946  -1152797.88446  24814291.2804   24814291.6254   24814298.9874
      1595.8684
 -17729992.54448 -13755048.80848  20709019.0354   20709018.4624   20709022.1914
     -1327.2274
  -1322861.73848  -1014275.21047  22149422.1574   22149421.6574   22149429.3154
     -2593.4384
  -4666369.53247  -3565149.53746  23414768.9954   23414767.7024   23414772.4814
     -3042.0524
 11 10  9  1 53 30.0000000  0 10G23G32G17G04G12G13G31G20G01G11
 -19674540.34948 -15269006.91747  21481001.8244   21481001.4644   21481002.4724
      2402.4894
 -13724010.36348 -10624143.16447  21920293.7714   21920293.9224   21920297.8914
     -2650.3404
 -21683418.94548 -16820787.79948  20653861.0704   20653861.4624   20653863.5394
      -321.3584
  -9706229.71347  -7496471.22146  22884259.3594   22884258.3574   22884263.0244
      2847.2764
  -2918920.18246  -2221752.98345  25195938.4504   25195936.5864   25195940.7324
      1712.1584
  -4954491.62847  -3795848.25346  23219426.5534   23219426.5404   23219430.1074
      3581.4904
  -1588734.59547  -1189927.33646  24805223.6144   24805223.6184   24805231.7584
      1580.5834
 -17690000.66448 -13723886.33948  20716629.3824   20716628.6254   20716631.8764
     -1339.0714
  -1244946.12148   -953561.82847  22164249.1464   22164248.8584   22164255.6694
     -2601.1704
  -4575017.01347  -3493965.86646  23432153.2014   23432153.3914   23432157.5664
     -3048.3824
 11 10  9  1 54  0.0000000  0 10G23G32G17G04G12G13G31G20G01G11
 -19746365.06848 -15324974.22847  21467334.2334   21467334.2894   21467335.3844
      2385.7054
 -13644345.02848 -10562066.33647  21935453.8894   21935452.8924   21935458.1384
     -2660.4144
 -21673472.45548 -16813037.29148  20655753.7734   20655753.8744   20655756.2704
      -341.6974
  -9791585.27647  -7562982.07746  22868015.1474   22868016.1014   22868020.1454
      2843.3054
  -2970052.58346  -2261596.20046  25186208.1644   25186208.4764   25186211.2314
      1695.8284
  -5061835.10347  -3879492.46646  23199000.3164   23199000.3244   23199004.4344
      3574.6604
  -1635905.30846  -1226684.06446  24796247.3624   24796249.0294   24796253.5374
      1564.2264
 -17649642.15548 -13692438.18448  20724309.1054   20724308.6344   20724312.1384
     -1351.4364
  -1166781.29248   -892654.25347  22179123.6764   22179123.2744   22179129.7394
     -2609.4764
  -4483466.94147  -3422628.24446  23449574.5594   23449574.6524   23449577.4494
     -3054.9254
 11 10  9  1 54 30.0000000  0 10G23G32G17G04G12G13G31G20G01G11
 -19817695.85548 -15380556.68647  21453760.5694   21453760.2724   21453760.9944
      2368.8174
 -13564381.74248 -10499757.35047  21950669.9784   21950670.0954   21950674.9864
     -2670.8464
 -21662922.50748 -16804816.55848  20657761.2554   20657761.7714   20657763.7764
      -362.3054
  -9876821.22247  -7629399.72546  22851796.3994   22851796.4074   22851800.3534
      2838.6704
  -3020685.89046  -2301050.62745  25176571.0644   25176572.0174   25176575.1754
      1678.8814
  -5168976.40647  -3962979.14946  23178611.7834   23178609.9974   23178615.5214
      3567.5324
  -1682595.70847  -1263065.88446  24787362.9694   24787364.4614   24787371.0554
      1547.6314
 -17608919.28948 -13660706.11848  20732058.4364   20732058.0324   20732061.2474
     -1364.1464
  -1088369.13548   -831553.95247  22194044.8704   22194044.3864   22194050.9184
     -2618.4684
  -4391721.75947  -3351138.59746  23467033.1974   23467032.5014   23467036.4824
     -3061.8884
 11 10  9  1 55  0.0000000  0 10G23G32G17G04G12G13G31G20G01G11
 -19888528.89348 -15435751.30747  21440281.0724   21440280.6184   21440282.5554
      2352.8254
 -13484121.23748 -10437216.80347  21965943.4294   21965943.0474   21965947.4024
     -2680.2674
 -21651767.95348 -16796124.71248  20659883.9524   20659883.9444   20659886.1954
      -381.8804
  -9961934.95247  -7695722.13846  22835599.6704   22835598.8884   22835603.4394
      2835.0554
  -3070817.00246  -2340113.84546  25167033.1844   25167033.6674   25167034.0624
      1663.3584
  -5275911.62247  -4046305.24646  23158262.0254   23158262.5054   23158266.9554
      3561.1884
  -1728802.47447  -1299070.96646  24778569.9144   24778570.0864   24778574.5914
      1532.2474
 -17567832.11048 -13628690.15748  20739877.0924   20739876.3254   20739879.9224
     -1375.5904
  -1009709.21848   -770260.59647  22209013.1024   22209012.7564   22209020.6894
     -2625.9464
  -4299781.21847  -3279496.68846  23484528.6444   23484528.3534   23484531.4924
     -3068.0014
 11 10  9  1 55 30.0000000  0 10G23G32G17G04G12G13G31G20G01G11
 -19958860.04448 -15490554.83447  21426897.7584   21426898.1264   21426898.9834
      2335.8274
 -13403563.81248 -10374444.91147  21981273.1134   21981272.3564   21981277.3684
     -2690.3584
 -21640007.48548 -16786960.72048  20662122.0284   20662122.2834   20662124.3684
      -402.3164
 -10046923.79047  -7761947.23946  22819426.5994   22819427.3554   22819431.1964
      2830.7024
  -3120442.76746  -2378783.32345  25157591.2294   25157590.1864   25157592.5024
      1645.8124
  -5382636.40147  -4129467.35446  23137953.3824   23137953.5364   23137956.7424
      3553.5204
  -1774522.80147  -1334697.37346  24769869.6594   24769869.9554   24769874.7054
      1515.9504
 -17526380.69448 -13596390.37048  20747765.3004   20747764.7654   20747767.7904
     -1387.9904
   -930800.58848   -708773.39347  22224029.5174   22224029.1994   22224036.1884
     -2634.6664
  -4207644.69047  -3207702.07946  23502061.6534   23502061.6804   23502065.0824
     -3074.7084
 11 10  9  1 56  0.0000000  0 10G23G32G17G04G12G13G31G20G01G11
 -20028690.21248 -15544967.99947  21413609.7014   21413609.4914   21413610.6154
      2318.5944
 -13322714.99248 -10311445.93147  21996657.8174   21996658.0584   21996662.9024
     -2700.4094
 -21627644.54948 -16777327.26648  20664474.4594   20664474.7604   20664477.2424
      -422.7004
 -10131789.81747  -7828076.63046  22803277.1804   22803277.2514   22803281.6544
      2826.1404
  -3169565.01146  -2417060.55645  25148241.0634   25148242.7844   25148242.7924
      1628.6754
  -5489150.64247  -4212465.39746  23117684.5834   23117683.8394   23117688.7464
      3546.1614
  -1819755.35246  -1369942.47846  24761260.4284   24761259.5964   24761267.1834
      1498.8854
 -17484569.80748 -13563810.49148  20755721.6584   20755721.0134   20755724.1944
     -1400.3054
   -851647.59648   -647095.76547  22239091.8994   22239091.3234   22239098.7104
     -2643.1164
  -4115316.59047  -3135758.19446  23519631.2914   23519630.3224   23519635.1984
     -3081.2444
 11 10  9  1 56 30.0000000  0 10G23G32G17G04G12G13G31G20G01G11
 -20098014.27048 -15598986.77547  21400417.3114   21400417.9294   21400418.5884
      2301.8954
 -13241574.36248 -10248219.60147  22012098.8394   22012099.0944   22012102.7354
     -2709.8634
 -21614676.87348 -16767222.59748  20666942.1274   20666942.6784   20666944.3624
      -442.7874
 -10216529.30647  -7894107.42646  22787152.0444   22787151.7574   22787156.4984
      2821.8694
  -3218178.89246  -2454941.26045  25138991.8554   25138990.4494   25138992.8534
      1611.7664
  -5595449.13547  -4295295.32946  23097455.8214   23097456.7944   23097461.1124
      3539.4734
  -1864499.088 7  -1404807.52145  24752746.795                    24752788.1514
      1483.028
 -17442398.09348 -13530949.46348  20763746.5324   20763746.2714   20763749.3684
     -1412.0904
   -772248.43148   -585226.31047  22254200.9804   22254200.3034   22254208.6424
     -2651.1254
  -4022795.76047  -3063664.12646  23537237.6734   23537236.8714   23537240.0024
     -3087.8464
 11 10  9  1 57  0.0000000  0 10G23G32G17G04G12G13G31G20G01G11
 -20166829.44548 -15652608.99147  21387322.6684   21387322.5574   21387323.7224
      2285.4274
 -13160143.09548 -10184766.76647  22027594.7604   22027594.1924   22027599.4454
     -2719.2584
 -21601103.50548 -16756645.94648  20669525.0374   20669525.2054   20669527.2364
      -462.7024
 -10301140.51247  -7960038.26646  22771050.6944   22771051.0994   22771054.0014
      2818.1714
  -3266282.81646  -2492424.99145  25129836.9364   25129837.3734   25129841.0434
      1594.5814
  -5701528.19447  -4377954.27846  23077269.8384   23077269.9974   23077274.3674
      3532.1104
  -1908749.642 6                  24744326.644
      1466.430
 -17399866.24148 -13497807.77548  20771839.9774   20771839.1154   20771842.9324
     -1423.7134
   -692603.35048   -523165.21547  22269356.9684   22269357.0934   22269362.6624
     -2659.1354
  -3930082.44547  -2991420.10646  23554880.0924   23554879.7194   23554884.9734
     -3093.5714
 11 10  9  1 57 30.0000000  0  9G23G32G17G04G13G31G20G01G11
 -20235137.67148 -15705836.18447  21374323.9804   21374323.1724   21374324.9074
      2268.3824
 -13078427.93548 -10121092.93747  22043144.6744   22043144.2154   22043150.2204
     -2728.5394
 -21586929.37148 -16745601.16748  20672222.0904   20672222.5394   20672224.7194
      -482.5504
 -10385626.28447  -8025871.37446  22754974.6064   22754974.4634   22754977.7854
      2814.1594
  -5807389.48147  -4460443.52546  23057125.3964   23057125.2334   23057130.3584
      3524.8424
  -1952507.968 7                  24735999.439
      1450.417
 -17356980.29048 -13464390.17848  20780000.9454   20780000.5804   20780003.8034
     -1435.4124
   -612717.37848   -460916.43247  22284558.6364   22284558.3654   22284564.7784
     -2666.9534
  -3837182.02947  -2919030.25846  23572558.8234   23572559.0304   23572562.4114
     -3099.5824
 11 10  9  1 58  0.0000000  0 10G23G32G17G04G12G13G31G20G01G11
 -20302934.75648 -15758665.11147  21361422.4414   21361422.2864   21361424.0714
      2251.1674
 -12996428.09748 -10057197.14847  22058749.0004   22058748.3264   22058754.0154
     -2738.1974
 -21572152.38948 -16734086.64248  20675034.2284   20675034.2624   20675036.9264
      -502.7004
 -10469983.36647  -8091604.20047  22738921.2184   22738921.9874   22738924.8634
      2809.4494
  -4936384.57646  -3793803.49345  25111821.5834   25111820.9074   25111823.2524
      1560.8614
  -5913027.67247  -4542758.95246  23037023.1154   23037023.5014   23037026.7164
      3517.2144
  -1995771.86647                  24727767.1204   24727766.9934
      1433.8624
 -17313739.61248 -13430696.18648  20788229.6594   20788228.6184   20788232.5324
     -1447.4004
   -532589.34748   -398479.04547  22299807.0464   22299806.2484   22299813.0094
     -2675.2214
  -3744093.76747  -2846494.04946  23590273.2404   23590272.9314   23590276.9184
     -3105.8844
 11 10  9  1 58 30.0000000  0 10G23G32G17G04G12G13G31G20G01G11
 -20370214.75648 -15811091.09947  21348619.6484   21348619.6314   21348620.2354
      2233.6654
 -12914142.58748  -9993078.67347  22074407.4284   22074406.6414   22074412.9454
     -2747.8234
 -21556769.65248 -16722100.09948  20677961.6784   20677961.6174   20677964.1204
      -523.0614
 -10554207.37947  -8157233.32147  22722894.6474   22722893.6194   22722898.2334
      2804.8994
  -4982953.17646  -3830090.91445  25102957.6224   25102959.4664   25102962.3464
      1543.6944
  -6018436.74847  -4624895.82846  23016964.5524   23016964.9914   23016968.5084
      3509.6634
  -2038534.62546   -537632.52546  24719629.6154   24719630.2314   24719635.8514
      1417.0224
 -17270141.90848 -13396724.00248  20796526.1724   20796525.3354   20796528.6764
     -1459.4634
   -452216.71348   -335851.04747  22315101.1644   22315100.8394   22315108.1824
     -2683.4514
  -3650815.34547  -2773809.66846  23608023.1494   23608022.7564   23608027.5454
     -3112.6794
 11 10  9  1 59  0.0000000  0 10G23G32G17G04G12G13G31G20G01G11
 -20436981.14148 -15863116.86447  21335914.6864   21335914.7224   21335915.4214
      2216.5184
 -12831579.29848  -9928743.77547  22090118.9274   22090119.0234   22090124.1494
     -2757.1274
 -21540787.38148 -16709646.39448  20681002.9884   20681003.0424   20681005.1374
      -543.2684
 -10638302.70247  -8222762.18947  22706890.6224   22706891.1734   22706894.7234
      2800.3764
  -5029009.31246  -3865978.78345  25094194.1834   25094193.1404   25094198.7434
      1525.6774
  -6123619.54947  -4706856.39746  22996948.7244   22996947.9384   22996953.2624
      3501.6974
  -2080800.21647   -570566.93546  24711587.0964   24711587.6444   24711592.0394
      1399.9014
 -17226194.45448 -13362479.27748  20804889.0424   20804888.4344   20804891.4774
     -1471.1494
   -371606.05048   -273037.55347  22330440.6964   22330439.8474   22330447.7964
     -2691.5104
  -3557353.90147  -2700982.67646  23625808.3304   23625808.1754   23625812.7064
     -3118.9914
 11 10  9  1 59 30.0000000  0 10G23G32G17G04G12G13G31G20G01G11
 -20503225.22048 -15914735.61647  21323308.7074   21323308.3564   21323309.1744
      2199.1184
 -12748733.61248  -9864188.79147  22105883.9384   22105883.2434   22105888.5894
     -2766.6724
 -21524199.37748 -16696720.69648  20684159.2914   20684159.3444   20684161.8244
      -563.3564
 -10722261.73447  -8288184.84647  22690914.4464   22690914.1734   22690917.6034
      2796.0494
  -5074546.07446  -3901462.13945  25085530.7104   25085530.2944   25085532.4534
      1509.3434
  -6228566.90547  -4788633.50146  22976977.5474   22976977.4054   22976981.3864
      3493.9644
  -2122559.52146   -603106.70746  24703639.8194   24703640.8934   24703644.4884
      1382.8014
 -17181892.13948 -13327958.01948  20813319.0144   20813318.5414   20813322.3984
     -1482.9914
   -290751.80748   -210034.25947  22345827.0214   22345827.0874   22345834.0214
     -2699.7354
  -3463703.85547  -2628008.70946  23643629.5934   23643629.0964   23643633.8304
     -3125.0324
                            4  1
RINEX FILE SPLICE; other post-header comments skipped       COMMENT
 11 10  9  2  0  0.0000000  0 10G23G32G17G04G12G13G31G20G01G11
 -20568948.94848 -15965948.90347  21310801.9264   21310801.5914   21310803.5354
      2182.2814
 -12665611.82248  -9799418.63347  22121701.7694   22121700.7594   22121706.8664
     -2775.0604
 -21507010.04948 -16683326.42248  20687430.2894   20687430.5204   20687432.8444
      -582.8754
 -10806087.23447  -8353503.44347  22674962.7704   22674962.9524   22674966.4224
      2792.0484
  -5119565.20846  -3936542.02545  25076960.9854   25076962.2524   25076966.1484
      1493.0994
  -6333279.76147  -4870227.87846  22957051.2664   22957051.0044   22957056.1004
      3486.8494
  -2163815.64547   -635254.49646  24695789.5484   24695790.0334   24695797.5624
      1366.8414
 -17137240.49548 -13293164.59148  20821816.4074   20821815.8304   20821818.8764
     -1494.0094
   -209658.93348   -146845.03247  22361258.2414   22361258.1444   22361265.2184
     -2706.9654
  -3369870.61647  -2554891.98746  23661485.7164   23661486.4204   23661489.4434
     -3130.9804
 11 10  9  2  0 30.0000000  0 10G23G32G17G04G12G13G31G20G01G11
 -20634147.48448 -16016752.96047  21298395.0174   21298394.7954   21298395.9504
      2164.2544
 -12582213.20948  -9734432.73247  22137571.9114   22137571.8024   22137576.1714
     -2784.8294
 -21489217.01248 -16669461.72748  20690816.3464   20690816.5074   20690819.1534
      -603.4484
 -10889775.48247  -8418715.10847  22659037.6864   22659037.4884   22659041.8844
      2786.9744
  -5164062.63045  -3971215.35545  25068492.8904   25068492.2164   25068496.5164
      1473.9364
  -6437752.69747  -4951635.30346  22937170.5244   22937170.6094   22937174.6334
      3478.3134
  -2204563.44547   -667006.37746  24688035.9714   24688035.6614   24688039.8724
      1349.2104
 -17092238.61948 -13258098.25548  20830380.0204   20830379.7704   20830382.9414
     -1506.2504
   -128325.67648    -83468.47347  22376735.1854   22376735.4454   22376742.8614
     -2715.3164
  -3275852.81947  -2481631.46246  23679376.4694   23679376.1554   23679381.2434
     -3137.3124
 11 10  9  2  1  0.0000000  0 10G23G32G17G04G12G13G31G20G01G11
 -20698822.69948 -16067149.23847  21286087.6484   21286087.6374   21286089.0204
      2146.7224
 -12498543.83548  -9669235.80047  22153493.3644   22153492.9824   22153498.3784
     -2793.7744
 -21470824.76448 -16655130.11448  20694316.2204   20694316.3694   20694318.6884
      -623.3934
 -10973329.11947  -8483821.85247  22643137.8474   22643138.1824   22643142.3464
      2782.5444
  -5208041.18645  -4005484.50045  25060125.3694   25060125.8444   25060126.7384
      1456.8454
  -6541986.89347  -5032856.70246  22917335.4894   22917334.8134   22917341.0614
      3470.0214
  -2244804.53447   -698362.89046  24680378.2344   24680378.3104   24680382.4684
      1332.4654
 -17046891.94848 -13222763.25748  20839009.1394   20839008.5194   20839012.1624
     -1517.6694
    -46756.89848    -19908.39247  22392257.4114   22392257.5534   22392264.2014
     -2723.2174
  -3181655.63047  -2408231.10646  23697301.4424   23697301.0374   23697304.0964
     -3143.2374
 11 10  9  2  1 30.0000000  0 10G23G32G17G04G12G13G31G20G01G11
 -20762969.10048 -16117133.44447  21273880.9824   21273880.8724   21273881.7324
      2128.8364
 -12414602.95048  -9603827.39047  22169467.1334   22169466.6274   22169473.2924
     -2803.0044
 -21451830.51148 -16640329.41448  20697930.2344   20697931.1394   20697932.8604
      -643.6994
 -11056743.96047  -8548820.44547  22627264.4624   22627264.8874   22627269.0664
      2777.5214
  -5251496.10445  -4039345.38345  25051856.4074   25051858.4154   25051858.6654
      1439.6064
  -6645976.67647  -5113887.65146  22897546.8404   22897547.5934   22897551.5224
      3461.6814
  -2284534.32147   -729321.04746  24672818.1204   24672818.5364   24672822.9844
      1315.3574
 -17001198.48748 -13187157.99848  20847704.3474   20847703.9774   20847707.3964
     -1529.4814
     35049.56748     43836.88547  22407824.9844   22407824.0004   22407831.5494
     -2731.4374
  -3087277.22047  -2334689.57446  23715261.5504   23715261.1354   23715265.9884
     -3149.5604
 11 10  9  2  2  0.0000000  0 10G23G32G17G04G12G13G31G20G01G11
 -20826582.12648 -16166702.02947  21261775.9954   21261775.4374   21261776.6714
      2111.0724
 -12330389.55048  -9538206.56347  22185492.3024   22185491.5304   22185497.3224
     -2812.0214
 -21432232.52348 -16625058.26948  20701659.9294   20701660.4434   20701662.5964
      -663.5534
 -11140016.11247  -8613707.83847  22611418.8914   22611418.0004   22611421.5144
      2772.8344
  -5294423.71546  -4072795.55545  25043688.5534   25043690.7234   25043692.1154
      1421.7294
  -6749716.43547  -5194723.75946  22877806.0204   22877806.6364   22877809.8164
      3453.2934
  -2323747.62946   -759876.50346  24665354.7374   24665356.2184   24665357.6924
      1298.5564
 -16955157.24048 -13151281.73348  20856465.4414   20856465.0114   20856468.6374
     -1540.7524
    117095.45947    107768.71747  22423437.4304   22423437.0104   22423445.2094
     -2739.2184
  -2992716.09947  -2261005.67046  23733256.2344   23733255.6414   23733259.4714
     -3155.1644
 11 10  9  2  2 30.0000000  0 10G23G32G17G04G12G13G31G20G01G11
 -20889665.07948 -16215857.58447  21249771.1454   21249770.6984   21249772.2834
      2093.0164
 -12245911.31548  -9472379.37047  22201567.8424   22201567.4234   22201572.2584
     -2821.2094
 -21412036.16348 -16609320.84348  20705503.3894   20705503.4374   20705506.0924
      -684.0374
 -11223149.71047  -8678487.28947  22595598.8094   22595598.7014   22595602.6444
      2767.7924
  -5336828.44446  -4105838.52445  25035617.4704   25035617.6824   25035626.0144
      1403.5404
  -6853208.65447  -5275367.00646  22858112.0324   22858112.3064   22858116.1204
      3444.6514
  -2362449.21746   -790033.18846  24657990.8264   24657989.5094   24658000.2504
      1280.8994
 -16908775.09848 -13115139.84448  20865292.1724   20865291.6114   20865294.9244
     -1552.6454
    199374.51848    171882.24647  22439094.6234   22439094.9484   22439102.0994
     -2747.5324
  -2897978.83547  -2187184.53146  23751283.3764   23751284.0794   23751288.0764
     -3161.4934
 11 10  9  2  3  0.0000000  0 10G23G32G17G04G12G13G31G20G01G11
 -20952217.03448 -16264599.35347  21237868.3894   21237868.2184   21237869.4504
      2075.7544
 -12161171.76748  -9406348.55847  22217693.6124   22217692.9784   22217698.1084
     -2829.4924
 -21391243.68748 -16593118.93748  20709460.2054   20709460.0604   20709462.4074
      -703.3564
 -11306145.01547  -8743158.95747  22579804.8214   22579805.8464   22579808.7414
      2763.7534
  -5378710.17945  -4138474.28945  25027648.5514   25027648.5304   25027651.1644
      1387.3114
  -6956451.66147  -5355816.05046  22838465.3754   22838465.3404   22838469.3384
      3436.7924
  -2400637.83947   -819790.58746  24650723.1734   24650723.7744   24650728.7544
      1264.1214
 -16862054.93748 -13078734.54248  20874182.4984   20874182.1894   20874185.8514
     -1563.3364
    281884.39548    236175.60947  22454795.8914   22454795.7224   22454802.6744
     -2754.5274
  -2803067.82147  -2113228.01946  23769344.6944   23769344.9614   23769349.0044
     -3167.0374
 11 10  9  2  3 30.0000000  0 11G23G32G17G04G12G13G31G10G20G01G11
 -21014226.89148 -16312918.71147  21226068.1954   21226068.1934   21226068.9984
      2058.0134
 -12076163.61748  -9340108.43947  22233869.9014   22233869.4784   22233875.7314
     -2837.8744
 -21369846.31548 -16576445.68948  20713532.0294   20713531.7054   20713534.5224
      -723.1664
 -11388991.62647  -8807714.77147  22564040.4194   22564041.0154   22564042.9224
      2759.1874
  -5420058.00346  -4170694.03345  25019782.1324   25019782.5894   25019783.8144
      1369.8404
  -7059433.82047  -5436061.83446  22818868.4204   22818869.1904   22818873.1524
      3428.6144
  -2438302.75447   -849139.55246  24643556.0044   24643555.1904   24643561.6784
      1246.5334
   -561118.07346   -373676.44946  24213195.6114   24213196.1484   24213200.3764
      3138.6974
 -16814989.09648 -13042059.86948  20883138.7954   20883138.0144   20883141.5114
     -1574.4894
    364633.32548    300655.25047  22470543.0214   22470542.5474   22470549.9544
     -2762.3264
  -2707975.53247  -2039130.24446  23787440.3904   23787439.9114   23787444.3674
     -3172.6294
 11 10  9  2  4  0.0000000  0 11G23G32G17G04G12G13G31G10G20G01G11
 -21075701.62048 -16360821.08247  21214369.5764   21214369.7134   21214371.1784
      2040.0454
 -11990898.02948  -9273667.73247  22250095.2764   22250095.5594   22250101.7874
     -2846.4004
 -21347854.02848 -16559308.88648  20717716.6634   20717717.1924   20717719.7484
      -743.1374
 -11471697.17247  -8872160.66647  22548301.6124   22548302.2584   22548305.1664
      2754.4274
  -5460878.99846  -4202502.87645  25012015.2094   25012013.1694   25012016.0324
      1351.6984
  -7162161.37947  -5516109.23346  22799320.0484   22799320.1924   22799324.9794
      3419.8824
  -2475451.24547   -878086.39346  24636486.4784   24636486.7324   24636492.9024
      1229.7864
   -655214.23346   -446998.14146  24195291.2564   24195289.6124   24195293.9494
      3134.2014
 -16767588.10948 -13005124.04848  20892158.8374   20892158.3444   20892162.1954
     -1585.8014
    447611.36947    365313.41647  22486333.2834   22486332.7254   22486339.8324
     -2769.9034
  -2612712.40047  -1964899.34846  23805569.2554   23805569.9154   23805572.3464
     -3178.1234
 11 10  9  2  4 30.0000000  0 11G23G32G17G04G12G13G31G10G20G01G11
 -21136634.58348 -16408301.33147  21202774.9794   21202774.4784   21202775.8234
      2022.1264
 -11905372.51748  -9207024.52247  22266370.4604   22266369.6304   22266374.7604
     -2855.0654
 -21325262.46648 -16541705.10048  20722016.0564   20722015.6744   20722018.7464
      -762.9044
 -11554255.97548  -8936492.21347  22532591.8174   22532591.7644   22532595.1154
      2749.4574
  -5501167.79046  -4233896.98245  25004345.6194   25004345.1404   25004351.9934
      1334.2714
  -7264627.05247  -5595952.56046  22779821.9114   22779821.7884   22779825.7174
      3411.2534
  -2512076.86647   -906625.83246  24629516.6164   24629518.4904   24629524.4264
      1212.2824
   -749181.90546   -520219.71146  24177408.5734   24177409.1144   24177413.0074
      3130.0324
 -16719848.63748 -12967924.48648  20901243.4244   20901242.7604   20901246.5604
     -1596.8964
    530822.25047    430153.01547  22502167.3154   22502167.0144   22502173.7034
     -2777.6214
  -2517274.79547  -1890532.49546  23823730.1484   23823729.2494   23823733.0814
     -3183.8164
 11 10  9  2  5  0.0000000  0 11G23G32G17G04G12G13G31G10G20G01G11
 -21197021.91748 -16455356.39347  21191283.7824   21191283.9034   21191284.1234
      2003.4254
 -11819587.52848  -9140179.10747  22282694.5784   22282693.1284   22282699.8844
     -2864.1364
 -21302070.87148 -16523633.73548  20726429.4094   20726429.4604   20726431.7114
      -783.4464
 -11636665.37947  -9000707.33247  22516909.3484   22516910.4834   22516912.7714
      2744.0074
  -5540921.57446  -4264874.23445  24996783.7474   24996782.0754   24996787.7874
      1315.6484
  -7366826.37047  -5675588.35446  22760374.1704   22760373.6174   22760378.4294
      3401.6314
  -2548176.27347   -934755.25146  24622647.3494   24622647.2864   24622654.8294
      1194.0114
   -843018.68346   -593339.27146  24159552.3024   24159550.1164   24159556.2134
      3125.6784
 -16671770.80848 -12930461.27548  20910392.5934   20910391.6924   20910395.5334
     -1608.5694
    614266.40148    495174.37947  22518046.2964   22518046.6554   22518053.9854
     -2785.7184
  -2421662.52747  -1816029.53046  23841924.3284   23841923.7254   23841928.2424
     -3190.3634
 11 10  9  2  5 30.0000000  0 11G23G32G17G04G12G13G31G10G20G01G11
 -21256863.47448 -16501986.18647  21179895.8684   21179895.0424   21179897.1924
      1986.0884
 -11733546.62248  -9073134.28647  22299067.6734   22299067.0814   22299071.2794
     -2871.6304
 -21278281.37748 -16505096.47948  20730956.0964   20730956.2474   20730959.2104
      -802.4274
 -11718925.46047  -9064806.11847  22501255.6684   22501256.2494   22501259.2064
      2740.0584
  -5580140.51846  -4295434.55545  24989322.5804   24989318.9194   24989322.7214
      1298.8814
  -7468757.71147  -5755015.32546  22740976.9514   22740977.6904   22740981.0754
      3393.7114
  -2583748.63347   -962473.88646  24615877.7844   24615878.2294   24615882.0614
      1177.3674
   -936725.10646   -666357.26146  24141721.6894   24141719.3274   24141724.2964
      3122.0124
 -16623357.78848 -12892736.87148  20919605.1844   20919604.4654   20919608.5594
     -1618.9124
    697941.51247    560375.69047  22533968.6204   22533969.2024   22533976.0424
     -2792.8104
  -2325878.30147  -1741392.55046  23860151.2114   23860151.2894   23860155.5594
     -3195.0904
 11 10  9  2  6  0.0000000  0 11G23G32G17G04G12G13G31G10G20G01G11
 -21316159.01248 -16548190.49947  21168612.2934   21168612.1964   21168613.1344
      1967.4684
 -11647253.29548  -9005892.72847  22315488.8994   22315488.6334   22315493.8364
     -2880.5194
 -21253896.11348 -16486094.96448  20735596.4504   20735596.8864   20735599.3824
      -822.7354
 -11801036.66847  -9128788.88647  22485630.3734   22485630.3764   22485633.3264
      2734.7724
  -5618824.81746  -4325578.12145  24981956.7804   24981961.2664   24981961.0954
      1280.9644
  -7570419.90747  -5834232.57546  22721631.3224   22721631.8344   22721635.4564
      3384.2364
  -2618794.55247   -989782.25346  24609209.2104   24609210.1924   24609215.9514
      1159.4504
  -1030301.76346   -739274.14346  24123914.2074   24123913.2224   24123918.4134
      3116.9704
 -16574612.48848 -12854753.54848  20928881.1244   20928880.4964   20928884.0624
     -1630.2294
    781845.11247    625755.05547  22549935.5124   22549935.4724   22549941.8414
     -2800.7474
  -2229925.07747  -1666623.89646  23878410.8274   23878410.5814   23878415.0304
     -3201.1714
 11 10  9  2  6 30.0000000  0 11G23G32G17G04G12G13G31G10G20G01G11
 -21374906.18348 -16593967.52147  21157433.5334   21157433.3834   21157433.7754
      1949.0814
 -11560709.39748  -8938455.96547  22331957.6864   22331957.8934   22331963.4404
     -2888.8364
 -21228915.62448 -16466629.67548  20740350.0114   20740349.9844   20740352.5304
      -842.6954
 -11882997.23847  -9192654.26947  22470034.6034   22470034.2764   22470038.2384
      2729.3524
  -5656973.45746  -4355304.27845  24974698.5414   24974699.4224   24974705.4564
      1262.6784
  -7671809.96547  -5913237.77146  22702336.9464   22702338.5074   22702340.3424
      3374.9374
  -2653312.47147  -1016679.82546  24602641.4234   24602642.0404   24602647.1944
      1141.6964
  -1123747.41346   -812088.95446  24106130.6754   24106131.0414   24106134.7784
      3112.4644
 -16525536.07648 -12816512.20148  20938220.1964   20938219.3984   20938223.1974
     -1641.4194
    865976.57547    691311.96347  22565945.2994   22565944.8674   22565952.5524
     -2808.3384
  -2133803.75247  -1591724.28346  23896702.1534   23896701.7614   23896706.1934
     -3207.1014
 11 10  9  2  7  0.0000000  0 11G23G32G17G04G12G13G31G10G20G01G11
 -21433099.71048 -16639313.13747  21146359.2514   21146358.4064   21146360.4114
      1930.6264
 -11473913.70748  -8870822.99647  22348474.3674   22348474.1784   22348479.9704
     -2897.1314
 -21203337.43448 -16446698.66247  20745217.6214   20745217.6214   20745219.7814
      -862.4734
 -11964802.74447  -9256398.82347  22454466.2664   22454467.7444   22454470.0254
      2724.1984
  -5694582.00845  -4384609.75945  24967544.0834   24967541.2174   24967545.5604
      1245.1774
  -7772922.07947  -5992026.38146  22683096.1034   22683096.9644   22683099.5994
      3365.8884
  -2687296.06647  -1043160.72546  24596174.4224   24596174.2914   24596178.8384
      1123.6804
  -1217058.43146   -884798.83346  24088374.9814   24088375.1774   24088379.7864
      3108.2424
 -16476126.74048 -12778011.42348  20947622.3754   20947621.8764   20947625.1654
     -1652.4934
    950338.10347    757048.13447  22581998.7864   22581998.1944   22582006.7134
     -2815.8854
  -2037512.26847  -1516692.08746  23915025.6314   23915024.9764   23915030.3874
     -3212.5274
 11 10  9  2  7 30.0000000  0 11G23G32G17G04G12G13G31G10G20G01G11
 -21490742.52248 -16684229.61347  21135390.3874   21135389.6884   21135391.4514
      1912.0994
 -11386873.19448  -8802999.27947  22365037.8644   22365037.4294   22365043.6514
     -2905.6304
 -21177167.01448 -16426306.18047  20750197.8634   20750197.5094   20750200.3524
      -882.3764
 -12046456.88948  -9320025.43247  22438929.0134   22438929.0454   22438932.1834
      2719.1194
  -5731654.06046  -4413497.14445  24960486.9724   24960485.3564   24960490.0654
      1226.4994
  -7873758.19547  -6070599.93346  22663907.7154   22663907.8334   22663912.3604
      3356.3024
  -2720748.56447  -1069227.30546  24589808.1194   24589808.3264   24589815.0534
      1106.1084
  -1310238.97646   -957407.06346  24070642.6904   24070643.5154   24070647.4004
      3104.1824
 -16426390.91448 -12739256.23048  20957086.4214   20957086.1244   20957089.6724
     -1663.4264
   1034923.97147    822959.13447  22598095.0174   22598094.9824   22598102.1154
     -2823.3774
  -1941056.89547  -1441532.16746  23933380.7674   23933381.4704   23933385.3864
     -3217.9074
 11 10  9  2  8  0.0000000  0 11G23G32G17G04G12G13G31G10G20G01G11
 -21547836.97748 -16728718.79447  21124525.9994   21124526.6884   21124527.2564
      1893.6174
 -11299594.16548  -8734989.66847  22381645.8874   22381645.2124   22381651.5774
     -2913.4924
 -21150409.68648 -16405456.35648  20755289.5444   20755289.4584   20755292.0734
      -902.1314
 -12127962.62647  -9383536.40347  22423418.3004   22423419.1144   22423422.5234
      2714.0084
  -5768192.70346  -4441968.86445  24953536.6614   24953533.9474   24953541.2584
      1208.3894
  -7974319.92247  -6148959.69046  22644771.8564   22644771.2104   22644775.4264
      3347.1804
  -2753673.60047  -1094883.17446  24583542.8224   24583543.3704   24583550.7074
      1088.3034
  -1403292.38646  -1029916.20046  24052935.0584   24052934.8984   24052940.2634
      3098.7634
 -16376334.64548 -12700251.34448  20966611.7414   20966611.5574   20966615.0624
     -1674.3584
   1119728.72947    889040.67747  22614232.5734   22614232.8524   22614239.0884
     -2830.8974
  -1844443.20147  -1366248.88446  23951766.2084   23951765.0394   23951770.2274
     -3223.5574
 11 10  9  2  8 30.0000000  0 11G23G32G17G04G12G13G31G10G20G01G11
 -21604364.48448 -16772766.20747  21113768.5504   21113768.6154   21113770.2884
      1874.8844
 -11212061.92748  -8666782.80547  22398303.7744   22398302.4854   22398308.5074
     -2921.9554
 -21123049.31548 -16384136.63347  20760495.6644   20760496.2424   20760498.9194
      -921.9174
 -12209302.00048  -9446917.73947  22407940.4294   22407940.8284   22407943.8254
      2708.5184
  -7379600.36946  -5697611.14045  24946685.0994   24946684.9374   24946691.8694
      1189.9064
  -8074587.69047  -6227090.37846  22625691.4434   22625691.3004   22625694.5704
      3337.4504
  -2786052.63147  -1120113.61046  24577381.0014   24577381.7294   24577386.9954
      1070.2114
  -1496201.03346  -1102312.55146  24035255.6644   24035254.6404   24035260.8314
      3094.4794
 -16325942.39048 -12660984.68848  20976201.5224   20976200.9374   20976204.1744
     -1685.2854
   1204768.34847    955305.24647  22630415.2034   22630414.6724   22630422.6124
     -2838.7434
  -1747655.77047  -1290830.20846  23970184.0144   23970183.6254   23970187.0974
     -3228.9854
 11 10  9  2  9  0.0000000  0 11G23G32G17G04G12G13G31G10G20G01G11
 -21660334.69448 -16816379.35147  21103117.9534   21103117.9064   21103119.0434
      1856.2004
 -11124289.82448  -8598389.03947  22415005.6684   22415004.9164   22415011.3284
     -2929.8784
 -21095098.36148 -16362356.74247  20765814.8434   20765815.1014   20765817.4354
      -941.7704
 -12290485.11748  -9510177.31247  22392491.6554   22392491.4534   22392496.2134
      2703.3954
  -7415047.48346  -5725232.35945  24939939.5144   24939941.6494   24939945.5764
      1172.1774
  -8174570.24747  -6304998.83946  22606665.0244   22606665.1414   22606669.3194
      3327.6544
  -2817895.23847  -1144926.15446  24571322.2014   24571322.1514   24571325.7054
      1052.8114
  -1588975.60946  -1174604.43246  24017601.5934   24017601.3564   24017605.4944
      3089.8434
 -16275227.22848 -12621466.41148  20985852.7954   20985851.7784   20985855.4364
     -1696.0214
   1290030.35447   1021743.06847  22646640.2974   22646639.8084   22646647.3534
     -2846.0734
  -1650707.17347  -1215285.99546  23988632.5874   23988632.5404   23988637.1544
     -3234.4444
 11 10  9  2  9 30.0000000  0 11G23G32G17G04G12G13G31G10G20G01G11
 -21715741.35848 -16859553.37347  21092574.6834   21092574.2164   21092575.5324
      1837.7474
 -11036275.52048  -8529806.54247  22431754.5714   22431754.3164   22431760.5034
     -2937.5424
 -21066552.92448 -16340113.59447  20771246.8014   20771247.0244   20771250.0564
      -961.1364
 -12371506.33648  -9573310.73847  22377073.7604   22377074.3964   22377078.6224
      2698.2524
  -7449947.92145  -5752427.49645  24933300.9534   24933299.1814   24933306.5724
      1154.8994
  -8274260.28047  -6382679.35246  22587694.4234   22587695.3614   22587697.8344
      3318.5034
  -2849195.13047  -1169315.60546  24565365.8424   24565366.8354   24565372.2264
      1034.2044
  -1681610.82446  -1246787.71246  23999972.7644   23999973.2204   23999978.7534
      3086.0274
 -16224186.12748 -12581694.15447  20995565.6064   20995564.6164   20995567.6624
     -1706.5934
   1375518.27247   1088356.95347  22662908.3214   22662907.5824   22662915.4574
     -2853.0754
  -1553594.61247  -1139614.00146  24007113.2074   24007113.1954   24007116.4974
     -3239.7484
 11 10  9  2 10  0.0000000  0 11G23G32G17G04G12G13G31G10G20G01G11
 -21770586.92348 -16902290.17947  21082137.6004   21082137.4664   21082139.2984
      1818.4714
 -10948025.29348  -8461040.23847  22448547.7774   22448547.3884   22448553.0534
     -2945.9484
 -21037418.18448 -16317411.21548  20776791.1424   20776791.4514   20776793.6074
      -981.3404
 -12452368.59948  -9636320.29047  22361686.4174   22361686.7484   22361690.3814
      2692.4384
  -7484305.30746  -5779199.49945  24926761.3724   24926759.4714   24926767.5134
      1135.6034
  -8373659.21947  -6460133.03346  22568779.7744   22568779.5974   22568783.8294
      3307.9614
  -2879955.23547  -1193284.62046  24559512.5284   24559513.8874   24559516.9174
      1016.0464
  -1774110.17446  -1318865.14046  23982370.6634   23982370.7054   23982376.2754
      3080.5654
 -16172824.88848 -12541672.40947  21005338.8264   21005338.5124   21005342.1734
     -1717.5994
   1461226.85447   1155142.76947  22679218.4034   22679218.3034   22679225.2314
     -2860.8274
  -1456323.36847  -1063818.38746  24025623.1254   24025624.3864   24025627.1704
     -3245.6394
 11 10  9  2 10 30.0000000  0 11G23G32G17G04G12G13G31G10G20G01G11
 -21824866.10048 -16944585.64747  21071808.5574   21071808.0234   21071809.7844
      1800.0584
 -10859537.28448  -8392088.61447  22465386.7074   22465386.1364   22465392.9044
     -2953.0684
 -21007691.45248 -16294247.62347  20782447.9774   20782448.2044   20782450.7594
     -1000.5274
 -12533066.93148  -9699202.11547  22346330.2034   22346330.8834   22346333.4754
      2687.5554
  -7518115.57646  -5805545.58345  24920329.0754   24920329.9304   24920333.6194
      1117.9744
  -8472760.92247  -6537355.10446  22549921.1714   22549921.8734   22549924.4934
      3298.6074
  -2910170.51947  -1216828.97546  24553762.5694   24553762.0384   24553769.3834
       998.3494
  -1866469.11146  -1390833.12846  23964795.2194   23964794.9914   23964802.0174
      3076.8284
 -16121141.49148 -12501399.62547  21015173.7954   21015173.1124   21015176.4624
     -1727.8024
   1547158.74847   1222102.58547  22695570.5604   22695569.6884   22695577.6024
     -2867.9334
  -1358891.00147   -987897.19246  24044163.8154   24044162.7994   24044168.8484
     -3250.3314
 11 10  9  2 11  0.0000000  0 11G23G32G17G04G12G13G31G10G20G01G11
 -21878578.83348 -16986439.71747  21061587.4554   21061587.6554   21061587.7964
      1780.9234
 -10770816.14048  -8322955.33047  22482269.8974   22482268.9424   22482275.7814
     -2961.1534
 -20977375.81548 -16270625.08148  20788216.8994   20788216.7414   20788219.7834
     -1020.2414
 -12613602.25748  -9761956.92247  22331004.3344   22331004.5434   22331008.2624
      2681.9304
  -7551378.18446                  24913996.5944   24913999.7474
      1099.5404
  -8571564.73747  -6614345.05346  22531119.2164   22531119.0834   22531122.5784
      3288.3214
  -2939841.41147  -1239949.16646  24548116.7884   24548117.2174   24548121.3424
       980.2434
  -1958689.12746  -1462692.88546  23947246.0944   23947246.7484   23947252.5964
      3071.4704
 -16069139.48648 -12460878.61247  21025069.6214   21025068.7484   21025072.6734
     -1738.7524
   1633310.73247   1289233.91347  22711964.7994   22711964.7534   22711971.5434
     -2875.3024
  -1261301.35647   -911853.43346  24062734.6404   24062734.4924   24062737.9594
     -3255.5494
 11 10  9  2 11 30.0000000  0 11G23G32G17G04G12G13G31G10G20G01G11
 -21931722.30748 -17027850.20847  21051474.6574   21051474.9514   21051475.7134
      1761.6634
 -10681861.86948  -8253640.42247  22499197.1854   22499197.0204   22499203.6834
     -2969.2134
 -20946470.64548 -16246543.14647  20794097.7644   20794098.1184   20794100.7064
     -1040.2164
 -12693971.44748  -9824582.27247  22315710.8324   22315711.0914   22315713.9954
      2675.9494
  -7584092.672 6                  24907773.315
      1081.118
  -8670066.29447  -6691099.47146  22512375.0504   22512375.5704   22512379.0514
      3277.9184
  -2968964.98847  -1262642.77946  24542574.9104   24542574.4324   24542582.2674
       961.3634
  -2050768.00346  -1534442.63446  23929724.9054   23929723.9124   23929730.1884
      3067.0704
 -16016818.41748 -12420108.97247  21035025.6624   21035025.0874   21035029.0954
     -1749.6274
   1719683.61447   1356537.35847  22728400.5354   22728401.0324   22728407.9194
     -2883.0234
  -1163553.74047   -835686.61246  24081336.5864   24081336.7744   24081340.7524
     -3261.4294
 11 10  9  2 12  0.0000000  0 11G23G32G17G04G12G13G31G10G20G01G11
 -21984297.22648 -17068817.68347  21041469.9134   21041469.7144   21041471.0714
      1743.2054
 -10592679.34248  -8184147.65947  22516168.3294   22516168.2164   22516174.2484
     -2976.2804
 -20914979.28448 -16222004.41248  20800090.7134   20800091.0614   20800092.8854
     -1059.1584
 -12774176.01048  -9887079.33547  22300448.6394   22300448.4684   22300452.2944
      2670.8254
  -7616259.27646  -5882021.70745  24901653.7044   24901653.7784   24901655.2604
      1063.0864
  -8768265.34247  -6767618.18146  22493688.5574   22493687.8094   22493691.4954
      3268.4644
  -2997542.23347  -1284910.87246  24537136.0214   24537136.1174   24537141.1104
       943.8244
  -2142707.35446  -1606083.69246  23912229.3524   23912229.1414   23912233.9364
      3062.5854
 -15964183.30748 -12379094.60948  21045042.2244   21045041.5674   21045045.1354
     -1759.4754
   1806273.66847   1424010.01147  22744878.6114   22744878.5384   22744886.3934
     -2889.7824
  -1065652.37647   -759399.99446  24099966.3244   24099965.5964   24099971.7654
     -3265.7084
 11 10  9  2 12 30.0000000  0 11G23G32G17G04G12G13G31G10G20G01G11
 -22036298.11448 -17109337.85447  21031574.6244   21031574.9154   21031575.4184
      1723.3794
 -10503266.58348  -8114475.45547  22533183.3014   22533182.0864   22533188.1874
     -2984.7384
 -20882899.42648 -16197007.10947  20806195.2804   20806195.5864   20806197.7004
     -1079.7124
 -12854210.90148  -9949444.18947  22285217.9514   22285219.9434   22285222.6264
      2664.4954
  -7647873.88646  -5906656.60345  24895635.3674   24895634.2804   24895642.5384
      1044.2334
  -8866155.56247  -6843896.24646  22475060.7944   22475060.1464   22475064.1024
      3257.2954
  -3025568.14747  -1306749.09446  24531802.8364   24531803.7624   24531809.9364
       924.1104
  -2234502.85746  -1677612.63246  23894762.8974   23894760.4574   23894766.9154
      3057.3094
 -15911231.42348 -12337833.41447  21055118.4254   21055117.7874   21055121.0134
     -1770.9384
   1893083.61647   1491654.02147  22761398.0904   22761397.6794   22761405.7114
     -2897.9254
   -967595.40346   -682992.11546  24118624.9484   24118625.8474   24118630.5414
     -3271.3014
 11 10  9  2 13  0.0000000  0 11G23G32G17G04G12G13G31G10G20G01G11
 -22087726.30848 -17149411.76847  21021787.9554   21021788.0074   21021789.5774
      1704.3314
 -10413628.94848  -8044628.05147  22550240.5814   22550240.1504   22550245.9244
     -2992.1884
 -20850235.08348 -16171554.39947  20812411.0994   20812411.1544   20812413.4874
     -1098.9764
 -12934077.76948 -10011678.11247  22270020.3204   22270020.0134   22270024.6184
      2658.8724
  -7678938.45646  -5930862.99845  24889725.8734   24889726.2864   24889728.2954
      1025.6004
  -8963737.44547  -6919934.05746  22456491.3724   22456490.7214   22456495.3434
      3247.0364
  -3053044.14047  -1328158.92046  24526573.8934   24526573.4474   24526580.8404
       906.2474
  -2326156.74446  -1749031.23546  23877320.2194   23877319.4644   23877325.2724
      3052.2874
 -15857967.20348 -12296328.85947  21065254.2484   21065253.5644   21065257.2764
     -1781.1154
   1980109.43647   1559466.27947  22777958.8244   22777958.2974   22777964.9154
     -2904.8164
   -869386.39146   -606465.76746  24137314.7204   24137314.1924   24137319.2464
     -3276.5824
 11 10  9  2 13 30.0000000  0 11G23G32G17G04G12G13G31G10G20G01G11
 -22138576.82048 -17189035.52847  21012111.8704   21012111.7664   21012112.5724
      1684.9374
 -10323764.31247  -7974603.68247  22567341.2804   22567340.5304   22567347.0114
     -2999.7164
 -20816983.57048 -16145644.19247  20818738.7964   20818738.9234   20818741.4634
     -1118.5624
 -13013771.73348 -10073777.30747  22254854.2114   22254854.8884   22254857.6714
      2653.0434
  -7709448.63046  -5954637.42845  24883919.0524   24883920.5424   24883924.5404
      1007.9074
  -9061004.29347  -6995726.38446  22437981.7454   22437982.5154   22437985.4234
      3236.6974
  -3079965.33647  -1349136.45346  24521450.9924   24521451.7984   24521458.3904
       887.5384
  -2417664.63746  -1820336.08246  23859906.4544   23859906.6124   23859911.7924
      3047.2434
 -15804388.72148 -12254579.42847  21075450.2444   21075449.6804   21075453.2744
     -1791.5124
   2067353.83847   1627448.84447  22794561.1424   22794561.0394   22794567.6344
     -2912.1524
   -771023.14147   -529819.25746  24156032.1894   24156032.7744   24156036.6684
     -3281.7494
 11 10  9  2 14  0.0000000  0 11G23G32G17G04G12G13G31G10G20G01G11
 -22188851.62648 -17228210.68147  21002544.3874   21002543.4474   21002545.1864
      1665.6194
 -10233679.04648  -7904407.42847  22584483.6614   22584483.2014   22584488.7964
     -3007.1944
 -20783149.71248 -16119280.20747  20825176.9094   20825177.2064   20825179.6764
     -1138.0044
 -13093295.43548 -10135743.83147  22239722.1474   22239721.8214   22239725.5194
      2647.4524
  -7739406.89846  -5977981.66845  24878218.0304   24878218.4384   24878222.1694
       989.0354
  -9157957.55248  -7071274.34046  22419532.2794   22419531.9344   22419536.0574
      3225.8874
  -3106334.84747  -1369684.31246  24516433.7654   24516434.0154   24516440.9544
       868.8484
  -2509029.55946  -1891529.51446  23842520.7984   23842519.8364   23842524.9034
      3042.6584
 -15750501.41348 -12212589.35847  21085704.4314   21085703.8074   21085707.5874
     -1801.9964
   2154811.79947   1695597.82047  22811202.9624   22811202.8014   22811211.7364
     -2919.5334
   -672511.08646   -453056.78346  24174777.7414   24174777.4244   24174782.8294
     -3286.6954
 11 10  9  2 14 30.0000000  0 11G23G32G17G04G12G13G31G10G20G01G11
 -22238546.64248 -17266934.05247  20993087.5454   20993087.9654   20993088.6764
      1646.6094
 -10143372.26648  -7834038.54247  22601669.0374   22601667.5534   22601674.2004
     -3014.2814
 -20748731.80748 -16092461.07447  20831726.5464   20831726.6734   20831729.4194
     -1157.3084
 -13172644.66748 -10197574.40847  22224621.9654   22224623.2284   22224626.1704
      2641.8464
  -7768810.25946  -6000893.38345  24872623.0574   24872623.1084   24872629.7594
       971.2414
  -9254591.73448  -7146573.67746  22401143.6954   22401143.8604   22401146.7524
      3215.5214
  -3132148.49847  -1389799.22046  24511521.3214   24511521.4364   24511527.4264
       851.0674
  -2600247.94746  -1962608.77146  23825161.6694   23825163.0364   23825166.5484
      3038.1974
 -15696303.96048 -12170357.63947  21096017.9804   21096017.6694   21096020.7324
     -1811.9984
   2242485.24547   1763914.70247  22827886.9764   22827887.2034   22827894.6874
     -2926.4504
   -573848.80546   -376177.23746  24193552.8154   24193552.7824   24193558.1154
     -3291.0524
 11 10  9  2 15  0.0000000  0 11G23G32G17G04G12G13G31G10G20G01G11
 -22287659.04548 -17305203.44447  20983742.4974   20983742.1234   20983742.9584
      1626.8094
 -10052844.83247  -7763497.75847  22618895.5734   22618894.1344   22618901.4094
     -3021.6184
 -20713730.10748 -16065187.06247  20838386.9914   20838387.2554   20838389.7204
     -1176.9464
 -13251817.22248 -10259267.31247  22209556.2684   22209556.7624   22209559.0964
      2635.6984
  -7797656.51246  -6023371.12745  24867133.3994   24867134.8544   24867136.7054
       951.8434
  -9350903.17147  -7221621.51946  22382815.7154   22382815.9264   22382819.7374
      3204.4014
  -3157403.01547  -1409478.40146  24506715.8414   24506716.9314   24506722.0374
       831.6634
  -2691318.26646  -2033572.65346  23807831.4684   23807832.0144   23807837.7804
      3032.8014
 -15641796.70948 -12127884.49447  21106390.4424   21106390.0794   21106392.9484
     -1822.6044
   2330373.91547   1832399.28547  22844611.9514   22844611.9794   22844619.3134
     -2933.5774
   -475036.88146   -299181.11246  24212357.2534   24212357.6044   24212364.2174
     -3296.3814
 11 10  9  2 15 30.0000000  0 11G23G32G17G04G12G13G31G10G20G01G11
 -22336190.22448 -17343019.93947  20974506.5074   20974506.5024   20974507.8894
      1608.2394
  -9962101.51448  -7692788.76547  22636163.7464   22636162.7084   22636169.2964
     -3028.1834
 -20678148.56148 -16037461.21747  20845157.5494   20845158.5184   20845160.8174
     -1195.5794
 -13330814.41948 -10320823.57647  22194523.3014   22194523.5184   22194527.3744
      2630.5164
  -7825947.54746  -6045416.06945  24861752.1754   24861749.5324   24861757.0894
       934.2494
  -9446891.83948  -7296417.86247  22364549.6074   22364549.4674   22364553.7084
      3194.3144
  -3182099.73147  -1428722.63046  24502016.8004   24502017.5314   24502022.4704
       814.1274
  -2782242.33546  -2104422.56746  23790529.0054   23790528.0744   23790534.1184
      3028.5504
 -15586984.17948 -12085173.43947  21116820.6034   21116820.3004   21116823.3024
     -1831.9774
   2418474.15947   1901048.74647  22861376.8284   22861376.9264   22861384.4854
     -2940.0774
   -376078.93246   -222071.22646  24231187.4724   24231187.5624   24231191.7794
     -3301.0484
 11 10  9  2 16  0.0000000  0 11G23G32G17G04G12G13G31G10G20G01G11
 -22384136.91648 -17380380.98447  20965383.0554   20965382.7694   20965383.9024
      1588.4054
  -9871142.92247  -7621911.97447  22653472.6594   22653471.7754   22653477.2154
     -3035.6924
 -20641986.85648 -16009283.33447  20852039.0444   20852039.6014   20852041.9084
     -1215.1454
 -13409633.63948 -10382241.14747  22179524.6434   22179525.2474   22179528.6894
      2624.2614
  -7853681.78546  -6067027.16645  24856472.6814   24856474.3084   24856475.7674
       914.9904
  -9542553.73448  -7370959.59247  22346346.3384   22346347.7714   22346349.0704
      3183.3284
  -3206236.44447  -1447530.48446  24497423.8044   24497423.5294   24497430.1114
       795.1694
  -2873017.91446  -2175156.79446  23773255.0104   23773255.6974   23773260.8024
      3023.8494
 -15531866.48548 -12042224.59447  21127309.1384   21127308.7204   21127312.1174
     -1842.4984
   2506786.33747   1969863.33547  22878182.2344   22878182.4964   22878189.5864
     -2947.4864
   -276975.21146   -144847.72145  24250046.0064   24250046.9054   24250053.4224
     -3305.7044
 11 10  9  2 16 30.0000000  0 11G23G32G17G04G12G13G31G10G20G01G11
 -22431497.52048 -17417285.33647  20956370.4764   20956370.1424   20956371.4594
      1568.1324
  -9779971.05747  -7550869.01047  22670821.7264   22670821.3194   22670828.3014
     -3043.5824
 -20605246.24948 -15980654.32847  20859030.9774   20859031.0874   20859033.7714
     -1235.1674
 -13488273.50748 -10443518.97547  22164560.1114   22164560.3614   22164563.3504
      2617.5004
  -7880857.88346  -6088203.20345  24851300.1674   24851300.3864   24851306.5494
       895.4744
  -9637886.12747  -7445244.55047  22328205.0354   22328205.1844   22328208.2254
      3171.3394
  -3229812.42747  -1465901.62846  24492937.0444   24492936.1654   24492944.8174
       775.3874
  -2963644.50946  -2245774.90146  23756009.7464   23756009.4984   23756014.2114
      3017.4444
 -15476444.92848 -11999038.97347  21137855.9104   21137855.3844   21137858.7694
     -1853.2744
   2595309.40247   2038842.24847  22895027.6784   22895027.8794   22895033.9744
     -2955.1434
   -177727.24046    -67511.83945  24268932.4604   24268932.7504   24268937.8124
     -3311.7414
 11 10  9  2 17  0.0000000  0 11G23G32G17G04G12G13G31G10G20G01G11
 -22478271.18048 -17453732.31347  20947469.6734   20947469.4154   20947470.6944
      1549.4234
  -9688587.98447  -7479661.51447  22688211.5624   22688211.6864   22688217.9164
     -3049.3954
 -20567927.68248 -15951574.95947  20866132.5434   20866132.6194   20866135.5284
     -1253.3454
 -13566732.48748 -10504655.84647  22149629.7614   22149630.5104   22149634.0724
      2612.2804
  -7907475.40946  -6108944.03445  24846237.8644   24846236.9484   24846241.2254
       877.9884
  -9732886.56748  -7519270.84847  22310126.8224   22310127.7904   22310131.0404
      3161.1624
  -3252825.08647  -1483833.34746  24488558.2534   24488558.7024   24488569.3144
       757.8634
  -3054121.32246  -2316276.30146  23738792.3114   23738792.8674   23738798.1844
      3013.4154
 -15420721.51048 -11955618.15747  21148459.6834   21148459.1714   21148462.4944
     -1862.3664
   2684042.36647   2107984.71647  22911912.8514   22911913.3154   22911919.9944
     -2961.0904
    -78336.29146      9935.45646  24287847.6254   24287848.7744   24287852.7364
     -3315.2514
 11 10  9  2 17 30.0000000  0 11G23G32G17G04G12G13G31G10G20G01G11
 -22524456.19548 -17489720.61747  20938681.0774   20938680.6294   20938681.6324
      1529.2654
  -9596995.52847  -7408290.86347  22705641.1804   22705640.5344   22705647.0044
     -3056.8964
 -20530032.40548 -15922046.22347  20873343.7484   20873343.8274   20873346.8914
     -1273.2204
 -13645009.28148 -10565650.75047  22134734.3574   22134733.5294   22134737.1804
      2605.7534
  -7933533.89246  -6129249.27445  24841277.3864   24841275.5544   24841282.8504
       859.2514
  -9827552.26748  -7593036.31247  22292112.4194   22292112.6254   22292116.4084
      3149.5514
  -3275275.10447  -1501327.42746  24484286.6984   24484286.4914   24484293.7234
       738.2384
  -3144447.50146  -2386660.33546  23721604.8274   23721605.6704   23721608.6064
      3007.9434
 -15364697.28448 -11911962.93847  21159120.5254   21159120.0434   21159124.1944
     -1872.8764
   2772984.22947   2177289.96647  22928838.4704   22928837.7724   22928845.9054
     -2968.7914
     21196.41946     87493.20846  24306787.6384   24306788.1374   24306792.4344
     -3320.2624
 11 10  9  2 18  0.0000000  0 11G23G32G17G04G12G13G31G10G20G01G11
 -22570050.68248 -17525248.77847  20930004.5284   20930004.2934   20930005.6854
      1509.5244
  -9505195.31148  -7336758.36947  22723110.4734   22723109.6294   22723116.1434
     -3064.0514
 -20491561.42248 -15892068.87247  20880664.5984   20880664.8114   20880667.5434
     -1292.2924
 -13723102.19848 -10626502.37547  22119873.5534   22119873.8534   22119877.0864
      2599.6134
  -7959032.35446  -6149118.28745  24836425.3204   24836425.9034   24836428.1724
       840.1654
  -9921880.16148  -7666538.53147  22274162.3844   22274162.2554   22274167.0364
      3138.2364
  -3297159.25947  -1518380.38146  24480122.8244   24480122.2004   24480127.5244
       719.5614
  -3234621.93046  -2456926.11046  23704445.0784   23704444.5584   23704450.0484
      3003.1324
 -15308373.49948 -11868074.30847  21169838.8524   21169838.1184   21169841.6014
     -1882.8504
   2862134.36647   2246757.49647  22945803.3354   22945802.6624   22945810.4274
     -2975.4564
    120869.82646    165160.60046  24325754.6154   24325754.6534   24325758.7294
     -3325.1164
 11 10  9  2 18 30.0000000  0 11G23G32G17G04G12G13G31G10G20G01G11
 -22615051.06048 -17560313.98247  20921441.7084   20921441.5534   20921442.0374
      1489.8954
  -9413187.14047  -7265063.80046  22740618.9564   22740618.9604   22740624.7134
     -3070.5324
 -20452513.97448 -15861642.34247  20888095.4604   20888095.2384   20888097.8304
     -1311.3654
 -13801007.83848 -10687208.07447  22105048.7134   22105048.9574   22105051.6504
      2593.4964
  -7983968.05646  -6168548.94845  24831680.9604   24831680.6144   24831688.1304
       821.8534
 -10015865.53948  -7739773.87447  22256278.2534   22256278.8424   22256281.8664
      3126.8654
  -3318474.84347  -1534989.87146  24476066.5764   24476066.0454   24476073.5034
       700.6334
  -3324641.79846  -2527071.45446  23687314.5854   23687315.2434   23687319.8014
      2997.9254
 -15251749.55448 -11823951.77547  21180614.0814   21180613.3374   21180617.3864
     -1892.7004
   2951493.78847   2316388.12647  22962807.8354   22962807.7894   22962815.0834
     -2982.2364
    220684.58546    242938.15846  24344748.5574   24344750.0494   24344753.8984
     -3329.6004
 11 10  9  2 19  0.0000000  0 11G23G32G17G04G12G13G31G10G20G01G11
 -22659461.17148 -17594919.21747  20912990.2844   20912990.5034   20912991.0674
      1470.9234
  -9320978.02547  -7193212.60647  22758165.4044   22758163.9914   22758170.8814
     -3076.5714
 -20412896.25848 -15830771.44247  20895633.9804   20895634.4774   20895637.3344
     -1329.6624
 -13878729.81848 -10747770.66147  22090258.8584   22090258.1334   22090263.2554
      2588.0364
  -8008344.86146  -6187543.91045  24827039.5144   24827039.7254   24827045.0994
       803.1684
 -10109511.06048  -7812744.39347  22238457.5714   22238456.3694   22238461.1354
      3116.2484
  -3339225.57747  -1551159.41346  24472117.0744   24472117.5224   24472120.7034
       682.6234
  -3414511.71347  -2597099.94346  23670213.9214   23670212.7734   23670217.4354
      2993.3664
 -15194832.56848 -11779600.92947  21191445.2054   21191444.8154   21191448.0854
     -1901.7174
   3041056.23047   2386176.92347  22979850.8634   22979849.9864   22979858.4944
     -2988.6484
    320634.10747    320820.70346  24363769.1604   24363769.5564   24363775.4654
     -3333.6064
 11 10  9  2 19 30.0000000  0 11G23G32G17G04G12G13G31G10G20G01G11
 -22703273.24448 -17629058.45947  20904653.1534   20904652.6784   20904654.1544
      1449.9224
  -9228563.64647  -7121201.47246  22775751.6284   22775751.4084   22775756.5414
     -3084.4234
 -20372703.39148 -15799452.38547  20903282.4894   20903282.7764   20903285.6334
     -1349.7774
 -13956260.46048 -10808184.15047  22075505.1454   22075505.1144   22075509.4474
      2580.7594
  -8032155.98846  -6206097.94545  24822511.5374   24822511.6904   24822513.5544
       783.5124
 -10202807.44248  -7885442.83947  22220703.5044   22220704.7364   22220708.1254
      3103.6604
  -3359404.04147  -1566882.50946  24468277.4544   24468277.6794   24468285.0854
       662.6284
  -3504224.28546  -2667005.82146  23653141.4754   23653142.0014   23653145.2494
      2987.3494
 -15137616.98248 -11735017.38847  21202332.5304   21202331.9924   21202335.5804
     -1912.7084
   3130827.11547   2456128.16947  22996933.5534   22996934.0774   22996940.7244
     -2996.3614
    420723.71047    398812.39046  24382815.6314   24382816.0504   24382822.9104
     -3338.7644
 11 10  9  2 20  0.0000000  0 11G23G32G17G04G12G13G31G10G20G01G11
 -22746490.36448 -17662734.10747  20896429.4394   20896429.0784   20896430.3054
      1430.8664
  -9135950.35947  -7049035.30247  22793375.7384   22793374.2634   22793381.1554
     -3090.2114
 -20331941.08348 -15767689.56747  20911039.3154   20911039.1514   20911042.5434
     -1368.0524
 -14033602.92948 -10868451.00947  22060787.2554   22060787.5154   22060791.0994
      2575.0994
  -8055406.00646  -6224215.01745  24818086.8284   24818086.3594   24818089.7864
       766.0304
 -10295756.61748  -7957870.74747  22203016.3454   22203016.9874   22203020.2134
      3092.5384
  -3379013.78247  -1582162.77346  24464545.5584   24464545.2164   24464552.9784
       644.3894
  -3593783.49047  -2736792.19446  23636100.1854   23636099.2014   23636104.2434
      2982.9204
 -15080109.01148 -11690206.00747  21213276.1844   21213275.5544   21213279.0484
     -1921.5144
   3220800.91447   2526237.52547  23014055.1754   23014055.0524   23014063.2474
     -3002.4444
    520947.01547    476908.27546  24401887.9874   24401887.0964   24401893.3894
     -3342.9104
 11 10  9  2 20 30.0000000  0 11G23G32G17G04G12G13G31G10G20G01G11
 -22789110.08248 -17695944.26447  20888318.5554   20888318.5674   20888319.9524
      1409.6894
  -9043139.13047  -6976714.96647  22811037.0624   22811036.4894   22811042.3124
     -3098.0764
 -20290609.64748 -15735483.26947  20918904.3794   20918905.0004   20918907.7374
     -1388.2774
 -14110754.59148 -10928569.18247  22046106.1564   22046106.0664   22046109.8434
      2567.5624
  -8078092.48046  -6241892.83145  24813769.1834   24813769.1864   24813770.6854
       745.9114
 -10388354.82448  -8030025.16847  22185395.4034   22185395.9014   22185399.3014
      3079.6654
  -3398052.61447  -1596998.07446  24460922.0084   24460923.0374   24460929.4774
       623.5494
  -3683187.50047  -2806457.62346  23619086.8854   23619085.1544   23619089.6214
      2976.4474
 -15022308.95348 -11645167.02747  21224275.2194   21224274.6354   21224278.3344
     -1932.5614
   3310977.67347   2596505.01047  23031215.4024   23031215.1704   23031222.8384
     -3010.4094
    621303.95946    555108.29646  24420985.5944   24420984.5644   24420992.4744
     -3348.5164
 11 10  9  2 21  0.0000000  0 11G23G32G17G04G12G13G31G10G20G01G11
 -22831130.79148 -17728687.66547  20880322.7594   20880322.5074   20880323.9724
      1390.5794
  -8950131.35047  -6904241.45246  22828735.8724   22828734.9104   22828740.6054
     -3103.4494
 -20248709.88548 -15702834.12747  20926877.3604   20926877.9284   20926880.8494
     -1406.1184
 -14187713.65148 -10988537.28447  22031460.7704   22031461.8484   22031464.4664
      2562.0834
  -8100215.14646  -6259131.44245  24809559.6534   24809561.8154   24809564.9114
       727.6454
 -10480599.07548  -8101903.77347  22167841.8794   22167841.5214   22167845.0924
      3068.8024
  -3416519.48647  -1611387.88646  24457407.9804   24457408.1314   24457413.7544
       605.7334
  -3772435.19247  -2876001.26046  23602103.3784   23602102.3004   23602107.1024
      2972.1554
 -14964218.29648 -11599901.60847  21235329.4664   21235329.0934   21235332.3564
     -1941.2764
   3401356.85547   2666930.24646  23048414.4714   23048414.0284   23048421.5024
     -3016.1944
    721793.79146    633411.83246  24440108.1614   24440107.9044   24440113.1444
     -3351.8504
 11 10  9  2 21 30.0000000  0 11G23G32G17G04G12G13G31G10G20G01G11
 -22872547.69648 -17760960.55547  20872441.3114   20872441.1224   20872442.5664
      1370.7034
  -8856925.21947  -6831613.34146  22846472.1464   22846471.8394   22846477.4064
     -3110.1234
 -20206239.89848 -15669740.66347  20934959.7314   20934959.8384   20934962.4624
     -1424.9994
 -14264475.32948 -11048351.56847  22016854.0344   22016854.5964   22016857.6884
      2555.4324
  -8121769.60546  -6275927.39845  24805456.2734   24805457.2494   24805463.7664
       709.1534
 -10572483.37348  -8173501.89747  22150356.8054   22150357.7964   22150360.8934
      3056.9094
  -3434408.50847  -1625326.86246  24454004.1344   24454003.7364   24454009.7284
       586.8714
  -3861522.35047  -2945419.79646  23585150.6234   23585149.3484   23585154.7174
      2966.7214
 -14905834.72348 -11554407.95647  21246439.4724   21246438.7534   21246442.5304
     -1950.8764
   3491940.79447   2737515.02647  23065651.7864   23065650.6844   23065659.3024
     -3022.7564
    822418.49346    711820.47246  24459256.7784   24459255.9464   24459258.3794
     -3356.5884
 11 10  9  2 22  0.0000000  0 11G23G32G17G04G12G13G31G10G20G01G11
 -22913365.36548 -17792766.52847  20864673.7184   20864673.9704   20864674.9004
      1350.4134
  -8763529.06747  -6758837.16746  22864245.3334   22864243.7864   22864249.9504
     -3116.5024
 -20163207.00548 -15636208.57547  20943148.5024   20943148.1844   20943151.6194
     -1443.9644
 -14341044.04548 -11108015.51647  22002282.8554   22002282.7124   22002287.1734
      2548.9274
  -8142761.18946  -6292284.55445  24801464.4414   24801465.8124   24801468.2804
       690.2924
 -10664010.98948  -8244822.09447  22132939.4104   22132939.6244   22132942.3534
      3044.5004
  -3451726.77847  -1638821.50546  24450707.9794   24450708.2894   24450713.8574
       567.8004
  -3950454.23847  -3014717.35746  23568226.7944   23568226.9374   23568231.2544
      2961.6784
 -14847165.94048 -11508692.07447  21257603.9554   21257604.2044   21257606.8524
     -1960.3514
   3582722.50647   2808253.90446  23082927.0504   23082926.6574   23082933.9294
     -3029.7984
    923170.51946    790328.30845  24478428.2074   24478430.6754   24478435.8814
     -3360.3124
 11 10  9  2 22 30.0000000  0 11G23G32G17G04G12G13G31G10G20G01G11
 -22953575.21648 -17824098.87247  20857022.7244   20857022.1984   20857022.9594
      1330.2044
  -8669936.92947  -6685908.31246  22882054.5914   22882055.2794   22882060.9744
     -3122.9604
 -20119604.82048 -15602232.85647  20951445.6844   20951445.7164   20951448.9374
     -1462.9164
 -14417410.70448 -11167521.98747  21987751.2624   21987752.2884   21987753.9574
      2542.1074
  -8163181.64546  -6308196.61545  24797578.1074   24797576.9894   24797582.3244
       670.9084
 -10755171.77848  -8315856.43447  22115592.2374   22115592.1904   22115595.5474
      3032.5194
  -3468464.54647  -1651863.97346  24447523.7204   24447524.7494   24447528.5374
       548.3584
  -4039222.37747  -3083887.31246  23551334.4064   23551333.5094   23551340.1644
      2956.1484
 -14788205.76748 -11462749.12347  21268823.5814   21268823.3804   21268826.6194
     -1970.1484
   3673708.60947   2879152.05546  23100240.8544   23100241.6784   23100248.5474
     -3036.4124
   1024056.26246    868940.32145  24497626.5104   24497625.8454   24497633.5574
     -3365.0674
 11 10  9  2 23  0.0000000  0 11G23G32G17G04G12G13G31G10G20G01G11
 -22993183.07448 -17854962.11947  20849485.0014   20849484.7054   20849485.9634
      1309.9284
  -8576158.01847  -6612833.95346  22899900.6884   22899899.3644   22899906.8664
     -3129.4754
 -20075442.11348 -15567820.36547  20959849.6864   20959849.5984   20959852.4654
     -1481.6594
 -14493581.21548 -11226875.63547  21973256.2014   21973256.6604   21973260.4864
      2535.5804
  -8183038.42546  -6323669.63045  24793798.3084   24793799.2714   24793803.1944
       652.4504
 -10845970.38148  -8386608.54147  22098313.8744   22098314.3744   22098317.0874
      3020.2774
  -3484628.42447  -1664459.30246  24444447.5414   24444447.7284   24444453.7324
       528.8694
  -4127833.35647  -3152934.82146  23534472.5364   23534473.0414   23534477.3724
      2950.4194
 -14728962.74348 -11416585.77547  21280097.2664   21280096.7044   21280100.2154
     -1979.6474
   3764890.74547   2950202.95546  23117592.6914   23117592.4294   23117600.4224
     -3042.7994
   1125066.94946    947649.71845  24516848.4134   24516849.5074   24516853.9674
     -3369.4654
 11 10  9  2 23 30.0000000  0 12G23G02G32G17G04G12G13G31G10G20G01G11
 -23032186.60648 -17885354.45347  20842062.9354   20842062.5554   20842063.8284
      1289.6034
   -342547.920 6   -240942.57845  25045275.130                    25045224.6054
      3428.955
  -8482192.83347  -6539614.38546  22917781.6474   22917780.8994   22917787.4554
     -3135.6654
 -20030719.34448 -15532971.48247  20968360.3504   20968360.5394   20968362.3754
     -1500.5564
 -14569553.03948 -11286074.44247  21958799.7394   21958799.5364   21958802.7674
      2528.6864
  -8202329.48246  -6338701.63245  24790129.1464   24790127.3624   24790133.2884
       633.5184
 -10936402.92548  -8457075.43747  22081105.4174   22081104.7674   22081108.8394
      3007.6724
  -3500216.01047  -1676605.65646  24441481.4304   24441481.5424   24441488.0454
       509.4414
  -4216285.41447  -3221858.48946  23517640.6154   23517640.4904   23517645.4954
      2945.4884
 -14669437.24848 -11370202.33147  21291424.5644   21291423.8134   21291427.6224
     -1989.2194
   3856269.07747   3021406.71746  23134981.2014   23134980.6874   23134990.0654
     -3049.5364
   1226202.37847   1026456.31545  24536095.0764   24536094.9134   24536101.0754
     -3373.5524
 11 10  9  2 24  0.0000000  0 11G23G32G17G04G12G13G31G10G20G01G11
 -23070571.73048 -17915264.92047  20834758.5574   20834758.2744   20834759.6014
      1267.0134
  -8388030.57447  -6466241.28646  22935700.5594   22935700.5344   22935706.4694
     -3144.0574
 -19985424.89048 -15497677.12447  20976979.1924   20976979.5944   20976982.5274
     -1521.4684
 -14645311.61748 -11345107.08947  21944382.8534   21944383.2424   21944386.4964
      2519.4444
  -8221041.72846  -6353282.82445  24786567.6964   24786569.0544   24786571.5424
       611.8104
 -11026454.27148  -8527245.29047  22063968.6234   22063969.1904   22063972.0904
      2993.0234
  -3515213.24147  -1688291.93046  24438628.0104   24438628.7994   24438634.0984
       487.7754
  -4304564.57447  -3290647.43146  23500841.9874   23500841.4834   23500845.7194
      2937.5554
 -14609617.80748 -11323589.81847  21302808.0364   21302807.0864   21302810.8124
     -2001.0094
   3947855.53247   3092772.67146  23152409.6994   23152409.0084   23152417.5494
     -3058.7694
   1327474.73546   1105369.64045  24555365.1194   24555364.0294   24555370.8354
     -3379.8214
 11 10  9  2 24 30.0000000  0 12G23G02G32G17G04G12G13G31G10G20G01G11
 -23108352.88548 -17944704.76847  20827568.8264   20827568.5004   20827569.8834
      1249.6794
   -212393.891 7                  25006095.069
      3428.367
  -8293688.53247  -6392728.11246  22953653.0454   22953652.0564   22953659.1274
     -3147.2984
 -19939575.61648 -15461950.42347  20985703.9684   20985704.4824   20985707.2524
     -1537.2904
 -14720871.10448 -11403984.60147  21930004.4124   21930004.1564   21930008.6204
      2515.5754
  -8239189.68246  -6367424.04945  24783113.4894   24783113.8704   24783120.6044
       595.6814
 -11116137.28448  -8597128.14047  22046902.7504   22046902.7544   22046907.1564
      2983.6564
  -3529634.64447  -1699529.39546  24435882.9834   24435884.0024   24435889.2674
       471.5694
  -4392685.65447  -3359313.17846  23484073.3314   23484072.3204   23484077.5264
      2935.0964
 -14549521.67748 -11276761.70047  21314243.8574   21314243.6064   21314247.4684
     -2007.4944
   4039633.44547   3164287.81546  23169874.7714   23169873.9944   23169882.7864
     -3062.0594
   1428866.05747   1184375.66645  24574660.6024   24574660.6434   24574667.6684
     -3381.4534
 11 10  9  2 25  0.0000000  0 11G23G32G17G04G12G13G31G10G20G01G11
 -23145528.87848 -17973673.07447  20820494.8624   20820494.1984   20820495.1794
      1228.6754
  -8199168.62447  -6319076.28246  22971639.7434   22971639.1264   22971645.9064
     -3153.9214
 -19893173.53848 -15425792.96347  20994534.1174   20994534.3384   20994536.9734
     -1556.2734
 -14796230.37348 -11462706.10447  21915663.7574   21915663.8634   21915667.8864
      2508.1884
  -8256773.87646  -6381126.15845  24779767.2654   24779768.5654   24779771.5924
       576.6544
 -11205449.41048  -8666721.99147  22029907.3044   22029907.7834   22029910.5324
      2970.4444
  -3543480.02847  -1710318.04546  24433247.6204   24433248.4184   24433255.7224
       451.4334
  -4480648.32747  -3427855.50046  23467335.1534   23467333.7554   23467338.3534
      2928.9044
 -14489150.02848 -11229718.91747  21325732.1604   21325731.3624   21325735.5494
     -2017.3324
   4131601.59347   3235951.18546  23187375.9214   23187375.7604   23187383.5474
     -3069.2584
   1530375.19547   1263473.49145  24593977.6254   24593977.1804   24593982.9454
     -3386.0604
 11 10  9  2 25 30.0000000  0 11G23G32G17G04G12G13G31G10G20G01G11
 -23182095.80948 -18002166.76847  20813536.0034   20813536.2024   20813536.8494
      1208.5194
  -8104469.98147  -6245285.17746  22989659.9854   22989658.9394   22989666.3604
     -3159.7904
 -19846217.07048 -15389203.52947  21003469.6374   21003469.9804   21003472.5314
     -1574.7834
 -14871385.02348 -11521268.16347  21901362.2954   21901363.1654   21901366.6874
      2501.4244
  -8273791.08246  -6394386.57145  24776529.9614   24776529.6134   24776532.1184
       557.1444
 -11294384.97048  -8736022.39647  22012983.6504   22012984.0334   22012986.9824
      2958.0074
  -3556745.54547  -1720654.93246  24430723.1994   24430724.1604   24430730.5244
       432.2494
  -4568448.81947  -3496271.46546  23450627.2004   23450625.2864   23450630.4594
      2923.4644
 -14428501.60548 -11182460.45547  21337273.1324   21337272.9964   21337276.3844
     -2026.3954
   4223761.92847   3307764.36246  23204913.1394   23204912.7784   23204921.7384
     -3075.5824
   1632003.54846   1342664.18445  24613316.4354   24613319.9664   24613322.6194
     -3390.0244
 11 10  9  2 26  0.0000000  0 11G23G32G17G04G12G13G31G10G20G01G11
 -23218049.10148 -18030182.30647  20806694.5374   20806694.4544   20806695.3294
      1187.3844
  -8009590.79447  -6171353.43246  23007715.0694   23007715.9544   23007720.3094
     -3166.5694
 -19798704.35948 -15352180.64247  21012511.2514   21012511.3624   21012513.9754
     -1593.8554
 -14946329.72848 -11579666.62847  21887101.1614   21887101.3204   21887103.6554
      2493.8124
  -8290236.60946  -6407201.33345  24773401.0014   24773403.6544   24773405.9234
       538.4174
 -11382937.98748  -8805024.73047  21996131.9114   21996132.8594   21996135.6744
      2944.4934
  -3569426.69647  -1730536.40446  24428310.3264   24428311.3194   24428319.3504
       412.2174
  -4656083.00347  -3564557.82146  23433950.2084   23433949.4614   23433954.9334
      2917.5504
 -14367574.45648 -11134984.79147  21348867.2514   21348866.8534   21348870.1874
     -2036.4424
   4316116.99747   3379729.24646  23222487.5664   23222487.4744   23222495.4724
     -3082.5174
   1733753.38146   1421949.57645  24632678.2504   24632676.6144   24632684.5644
     -3394.5494
 11 10  9  2 26 30.0000000  0 11G23G32G17G04G12G13G31G10G20G01G11
 -23253388.93048 -18057719.82147  20799969.5684   20799969.3474   20799970.5444
      1167.3624
  -7914533.95647  -6097283.26346  23025803.7864   23025802.9144   23025810.3484
     -3172.0504
 -19750637.83948 -15314726.23647  21021658.1164   21021658.4074   21021661.1224
     -1611.9834
 -15021064.15448 -11637901.23747  21872879.4854   21872879.7804   21872883.2774
      2487.0114
  -8306112.81746  -6419572.85845  24770379.5194   24770379.2774   24770386.2074
       519.3634
 -11471107.33348  -8873728.10947  21979354.0854   21979354.1654   21979357.2964
      2931.9854
  -3581523.94747  -1739963.28346  24426009.1794   24426009.9274   24426015.0984
       392.6624
  -4743551.26747  -3632714.89346  23417305.1454   23417304.9104   23417309.5134
      2912.3114
 -14306371.13148 -11087293.93347  21360514.0164   21360513.0304   21360517.3554
     -2045.1684
   4408664.56947   3451844.13947  23240099.3934   23240099.3844   23240107.4764
     -3088.6134
   1835622.43246   1501327.80445  24652064.4244   24652064.5544   24652069.9284
     -3397.9994
 11 10  9  2 27  0.0000000  0 11G23G32G17G04G12G13G31G10G20G01G11
 -23288114.61748 -18084778.79147  20793361.2694   20793361.0284   20793362.3994
      1146.9054
  -7819301.93647  -6023076.57946  23043926.2214   23043924.9484   23043932.3344
     -3177.7224
 -19702020.04048 -15276842.25747  21030909.8294   21030909.5784   21030912.4784
     -1630.4344
 -15095587.54048 -11695971.39147  21858698.2704   21858698.8294   21858701.7614
      2480.1434
  -8321418.40246  -6431499.64245  24767468.9094   24767467.7354   24767471.5494
       500.0424
 -11558890.75348  -8942130.74547  21962649.5664   21962648.4034   21962652.9684
      2919.2914
  -3593036.78046  -1748934.66846  24423818.6434   24423818.7114   24423824.4984
       373.4904
  -4830853.43047  -3700742.56446  23400692.1924   23400691.9324   23400695.8764
      2906.6804
 -14244893.78548 -11039389.55447  21372212.6704   21372212.2294   21372215.5874
     -2054.2564
   4501402.98347   3524107.73146  23257747.1504   23257746.8874   23257755.2834
     -3094.7804
   1937608.38246   1580797.14145  24671472.8974   24671473.0594   24671479.0474
     -3401.5294
 11 10  9  2 27 30.0000000  0 11G23G32G17G04G12G13G31G10G20G01G11
 -23322225.37248 -18111358.60347  20786870.6474   20786870.4264   20786871.2334
      1126.4544
  -7723896.73347  -5948734.91646  23062080.9664   23062080.2414   23062087.3664
     -3183.3124
 -19652852.40548 -15238529.81047  21040265.6954   21040265.8774   21040268.8424
     -1648.1734
 -15169898.62348 -11753876.13247  21844557.5844   21844557.3394   21844561.4334
      2473.1374
  -8336153.70746  -6442981.74645  24764662.7044   24764663.1404   24764669.7474
       481.8674
 -11646285.84548  -9010230.80647  21946018.7174   21946019.9054   21946021.8784
      2906.5174
  -3603963.93347  -1757449.15146  24421740.0644   24421739.0304   24421744.8274
       353.8644
  -4917988.84947  -3768640.27846  23384111.8234   23384110.3324   23384115.5244
      2901.3474
 -14183143.62948 -10991272.60547  21383963.3694   21383962.8274   21383966.9274
     -2063.1414
   4594330.95547   3596519.01346  23275430.7714   23275430.2514   23275438.4864
     -3100.9194
   2039709.78346   1660356.40545  24690901.6554   24690900.2704   24690908.1344
     -3406.0214
 11 10  9  2 28  0.0000000  0 11G23G32G17G04G12G13G31G10G20G01G11
 -23355720.17348 -18137458.45947  20780496.4414   20780496.0514   20780497.3064
      1105.9554
  -7628320.03747  -5874259.61946  23080269.0154   23080268.9144   23080273.9794
     -3189.2024
 -19603136.39848 -15199790.06147  21049726.6094   21049726.6254   21049729.5164
     -1666.5854
 -15243995.71648 -11811614.11347  21830457.0184   21830457.7804   21830460.9914
      2466.0564
  -8350318.14646  -6454018.86645  24761966.1774   24761966.3374   24761971.9054
       462.1524
 -11733290.26748  -9078026.43247  21929462.3174   21929463.0684   21929466.7674
      2893.3134
  -3614305.44347  -1765507.39346  24419772.9394   24419772.4564   24419775.7884
       334.8354
  -5004956.80547  -3836407.49046  23367562.3954   23367560.4524   23367566.4904
      2895.9944
 -14121122.46648 -10942944.46847  21395765.8844   21395765.1134   21395769.0934
     -2072.1764
   4687447.53047   3669077.26946  23293150.2364   23293150.2754   23293158.2114
     -3107.3754
   2141925.40746   1740004.69545  24710352.4514   24710350.8664   24710357.8134
     -3409.2144
 11 10  9  2 28 30.0000000  0 11G23G32G17G04G12G13G31G10G20G01G11
 -23388596.92648 -18163076.73147  20774240.3014   20774239.6924   20774240.9994
      1085.6924
  -7532572.69747  -5799651.37646  23098489.1764   23098488.7474   23098495.2454
     -3194.2394
 -19552872.84748 -15160623.66547  21059291.3414   21059291.2134   21059294.5404
     -1684.3194
 -15317876.20848 -11869183.32047  21816398.2754   21816398.2764   21816401.4274
      2459.1214
  -8363911.67446  -6464611.47745  24759381.4084   24759382.8604   24759385.5854
       443.6874
 -11819900.38248  -9145514.81447  21912981.0644   21912979.8014   21912984.5564
      2880.6254
  -3624059.55047  -1773107.96646  24417916.6084   24417915.8504   24417920.8554
       315.1634
  -5091755.42547  -3904042.77446  23351044.9384   23351043.7084   23351048.4184
      2890.7654
 -14058830.61148 -10894405.41447  21407619.6994   21407618.9264   21407622.4854
     -2080.7634
   4780752.82347   3741782.56046  23310905.6514   23310905.6524   23310913.4704
     -3113.3954
   2244254.70546   1819741.60245  24729824.1654   24729823.8414   24729831.1194
     -3412.4354
 11 10  9  2 29  0.0000000  0 11G23G32G17G04G12G13G31G10G20G01G11
 -23420855.50048 -18188213.30247  20768101.8124   20768102.1284   20768102.5834
      1064.5834
  -7436657.34147  -5724912.23446  23116740.8834   23116740.9454   23116747.4454
     -3200.4704
 -19502064.03348 -15121032.38647  21068959.8124   21068960.0044   21068962.9624
     -1703.2244
 -15391539.46648 -11926583.23247  21802380.4894   21802380.6664   21802384.4484
      2451.3884
  -8376933.82246  -6474759.02746  24756903.6324   24756901.8824   24756909.1894
       424.0324
 -11906114.16048  -9212694.35147  21896575.0884   21896575.2484   21896578.9764
      2866.7464
  -3633227.11247  -1780251.72546  24416172.1934   24416171.7284   24416182.5984
       295.1114
  -5178384.84147  -3971546.19346  23334559.5344   23334558.6954   23334563.4794
      2884.3784
 -13996270.00648 -10845656.94047  21419524.2724   21419524.0604   21419527.4134
     -2090.3474
   4874244.85347   3814633.40546  23328696.9294   23328696.7194   23328704.7014
     -3119.9774
   2346695.62746   1899565.44245  24749319.8724   24749317.5214   24749327.4914
     -3417.6114
 11 10  9  2 29 30.0000000  0 11G23G32G17G04G12G13G31G10G20G01G11
 -23452491.88348 -18212865.04847  20762081.4144   20762080.7434   20762082.4004
      1044.0964
  -7340572.48747  -5650041.04346  23135025.4824   23135023.7334   23135031.7874
     -3205.3654
 -19450708.63048 -15081015.21547  21078732.5554   21078733.2254   21078735.4744
     -1720.8764
 -15464980.88248 -11983810.30447  21788404.5584   21788405.2534   21788408.9584
      2444.2764
  -8389381.24546  -6484458.36646  24754535.7604   24754535.5174   24754540.8234
       405.0554
 -11991926.22048  -9279560.87347  21880245.5844   21880246.0264   21880248.4094
      2853.6754
  -3641803.06447  -1786934.69946  24414538.7034   24414538.7514   24414544.4834
       276.1284
  -5264841.39547  -4038914.91646  23318106.5244   23318107.3184   23318110.9514
      2878.8024
 -13933439.05248 -10796697.79647  21431481.0254   21431480.5794   21431483.6954
     -2098.8374
   4967925.70147   3887631.34246  23346523.9334   23346523.1954   23346531.8904
     -3125.8674
   2449249.78846   1979477.51845  24768835.3534   24768835.2604   24768842.5834
     -3420.3084
 11 10  9  2 30  0.0000000  0 11G23G32G17G04G12G13G31G10G20G01G11
 -23483510.84848 -18237035.70547  20756178.7194   20756178.7194   20756179.8374
      1023.5974
  -7244325.72247  -5575043.69046  23153340.9764   23153339.7534   23153346.6244
     -3210.7884
 -19398814.27248 -15040578.06247  21088607.8584   21088607.9684   21088611.0794
     -1738.8184
 -15538204.44048 -12040867.60647  21774471.2944   21774470.9104   21774475.2494
      2437.0704
  -8401260.04546  -6493714.56245  24752274.9214   24752275.2224   24752279.3464
       386.0564
 -12077339.78748  -9346116.88447  21863992.0484   21863991.8404   21863994.9374
      2840.3094
  -3649792.90547  -1793160.62746  24413018.7214   24413019.5474   24413025.9724
       256.3114
  -5351130.06147  -4106152.82546  23301686.5684   23301686.5354   23301691.5174
      2873.4124
 -13870345.42348 -10747533.97447  21443486.9164   21443486.7314   21443490.4724
     -2107.6264
   5061788.69847   3960771.20346  23364384.6894   23364384.5204   23364393.6294
     -3131.9484
   2551910.05846   2059472.27845  24788370.6054   24788373.0054   24788378.1104
     -3423.6644
 11 10  9  2 30 30.0000000  0 11G23G32G17G04G12G13G31G10G20G01G11
 -23513906.00448 -18260720.25847  20750394.8744   20750394.7854   20750395.7494
      1002.6614
  -7147913.24547  -5499917.17446  23171687.5894   23171687.3584   23171693.8724
     -3216.7684
 -19346376.92848 -14999717.81947  21098586.4244   21098586.2214   21098589.2714
     -1756.9694
 -15611203.29748 -12097749.82047  21760579.4314   21760579.3384   21760583.6544
      2429.3804
  -8412563.97346  -6502522.82245  24750123.7014   24750124.2104   24750128.5504
       366.7654
 -12162347.14148  -9412356.37147  21847815.4394   21847816.0054   21847819.7364
      2826.6284
  -3657191.98947  -1798927.09446  24411611.0894   24411611.9504   24411619.6934
       236.4354
  -5437244.15547  -4173254.69946  23285300.0074   23285298.7904   23285304.9904
      2867.6034
 -13806984.35748 -10698161.74047  21455544.5924   21455543.9214   21455547.5674
     -2116.5814
   5155838.21347   4034056.44846  23382282.3154   23382282.3494   23382290.7784
     -3138.4794
   2654680.59446   2139552.98445  24807926.3964   24807925.9994   24807935.0974
     -3427.9594
 11 10  9  2 31  0.0000000  0 11G23G32G17G04G12G13G31G10G20G01G11
 -23543682.29848 -18283922.58747  20744728.5674   20744728.1724   20744729.5314
       981.6964
  -7051342.45947  -5424667.31746  23190064.3214   23190063.6194   23190070.5584
     -3222.5084
 -19293403.60248 -14958439.92047  21108666.4284   21108667.0154   21108669.5834
     -1775.3684
 -15683981.55948 -12154460.14347  21746730.6114   21746731.1774   21746734.3294
      2421.4994
  -8423298.98046  -6510887.58445  24748079.5314   24748080.6804   24748083.8494
       347.8964
 -12246951.18548  -9478281.56847  21831715.7144   21831715.8754   21831719.7574
      2812.8214
  -3664002.00747  -1804233.60746  24410315.0394   24410316.4154   24410323.6534
       216.8594
  -5523189.15247  -4240224.82446  23268945.9644   23268944.7824   23268949.2684
      2861.2444
 -13743363.42648 -10648587.06847  21467651.0054   21467650.4394   21467653.9554
     -2125.6204
   5250067.54047   4107481.79146  23400213.4624   23400213.5174   23400222.0704
     -3144.3884
   2757554.07946   2219713.93745  24827503.8424   24827504.0404   24827509.7144
     -3431.1634
 11 10  9  2 31 30.0000000  0 11G23G32G17G04G12G13G31G10G20G01G11
 -23572834.29548 -18306638.45047  20739181.3544   20739181.2384   20739182.1184
       961.4044
  -6954610.73547  -5349292.07646  23208472.3904   23208472.3424   23208477.2774
     -3226.8234
 -19239891.83948 -14916742.44847  21118849.4904   21118849.4024   21118852.6964
     -1792.5024
 -15756532.81748 -12210993.57947  21732924.2574   21732924.6654   21732928.1944
      2414.8234
  -8433460.50346  -6518805.62945  24746146.5204   24746146.7174   24746152.0264
       329.3684
 -12331144.93248  -9543887.06247  21815694.3014   21815694.1794   21815697.3724
      2799.7634
  -3670219.31247  -1809077.96446  24409133.0234   24409133.7874   24409140.0044
       197.5254
  -5608959.73347  -4307059.02646  23252624.4974   23252623.3744   23252628.2474
      2856.2304
 -13679479.25448 -10598807.24447  21479807.9344   21479807.3014   21479811.6474
     -2133.5994
   5344480.16647   4181049.93846  23418180.1964   23418180.3734   23418187.7454
     -3149.8614
   2860534.18246   2299957.87645  24847100.2344   24847099.6674   24847108.1294
     -3434.2824
 11 10  9  2 32  0.0000000  0 11G23G32G17G04G12G13G31G10G20G01G11
 -23601361.28448 -18328867.29147  20733752.8054   20733752.5034   20733753.7994
       940.1934
  -6857719.81147  -5273792.76846  23226909.6944   23226908.7244   23226915.8774
     -3232.6024
 -19185843.46148 -14874626.84347  21129134.7184   21129135.0824   21129137.9954
     -1810.8404
 -15828856.16548 -12267349.43347  21719161.9424   21719162.1464   21719166.1884
      2406.6834
  -8443049.11746  -6526277.46946  24744321.8134   24744322.5744   24744330.6664
       309.9824
 -12414926.17448  -9609171.13447  21799751.2154   21799751.2284   21799753.6154
      2785.4524
  -3675844.48347  -1813461.26146  24408062.9414   24408062.3014   24408073.3844
       177.0984
  -5694555.03947  -4373756.66046  23236335.8024   23236334.4394   23236339.5824
      2849.8164
 -13615333.43048 -10548823.53847  21492014.5714   21492013.6694   21492017.4944
     -2142.7704
   5439074.96147   4254760.06046  23436180.8664   23436181.2594   23436189.1874
     -3156.7064
   2963619.05946   2380283.48445  24866716.4754   24866718.2314   24866726.0654
     -3438.0544
 11 10  9  2 32 30.0000000  0 11G23G32G17G04G12G13G31G10G20G01G11
 -23629261.19848 -18350607.49447  20728443.5294   20728443.1994   20728444.4574
       919.1104
  -6760670.27047  -5198169.87646  23245377.4904   23245377.1284   23245384.6484
     -3238.0444
 -19131259.29048 -14832093.73247  21139521.6984   21139522.0694   21139524.9644
     -1828.8834
 -15900948.59248 -12323525.34347  21705443.2454   21705442.8284   21705446.3674
      2398.7754
  -8452063.15146  -6533301.76046  24742605.9554   24742609.0254   24742609.1874
       290.2134
 -12498291.18348  -9674130.85847  21783887.6654   21783886.4324   21783890.6564
      2771.2734
  -3680874.57347  -1817380.81546  24407105.8644   24407105.2374   24407110.8614
       157.2644
  -5779973.37447  -4440316.38946  23220080.7024   23220080.7324   23220085.5484
      2843.7804
 -13550926.46448 -10498636.33847  21504270.9874   21504270.2564   21504273.4084
     -2151.7044
   5533851.86347   4328612.10446  23454216.1434   23454216.6854   23454225.1414
     -3162.7734
   3066808.82646   2460690.79845  24886352.4324   24886352.8114   24886360.1874
     -3441.2024
 11 10  9  2 33  0.0000000  0 11G23G32G17G04G12G13G31G10G20G01G11
 -23656537.58748 -18371861.85247  20723253.2024   20723253.1604   20723254.0534
       898.1184
  -6663467.92847  -5122427.92446  23263874.6644   23263876.0154   23263881.5444
     -3243.1174
 -19076145.09648 -14789147.59647  21150009.6534   21150010.2584   21150012.5304
     -1846.4184
 -15972812.58548 -12379523.26247  21691767.4714   21691768.1384   21691771.5954
      2391.1204
  -8460506.61446  -6539881.24846  24741001.4564   24740999.6994   24741003.7044
       271.4794
 -12581241.62048  -9738767.54647  21768102.4454   21768103.3674   21768105.5674
      2757.4334
  -3685314.13247  -1820840.30446  24406260.8494   24406261.9504   24406261.7764
       137.1054
  -5865218.06947  -4506740.83746  23203860.2414   23203858.3914   23203863.9354
      2838.1504
 -13486263.57948 -10448249.72347  21516575.5724   21516575.0874   21516578.5084
     -2160.2544
   5628805.75347   4402602.00446  23472285.5934   23472285.3494   23472294.9854
     -3168.7204
   3170097.48346   2541175.22845  24906009.0274   24906009.3944   24906018.0154
     -3445.1794
 11 10  9  2 33 30.0000000  0 11G23G32G17G04G12G13G31G10G20G01G11
 -23683187.87448 -18392628.32447  20718181.5544   20718181.2864   20718182.5554
       877.5674
  -6566112.77647  -5046566.89346  23282401.0454   23282401.0354   23282407.7404
     -3248.1414
 -19020500.73948 -14745788.35347  21160598.7234   21160598.0534   21160601.5394
     -1863.9374
 -16044444.97948 -12435340.71247  21678136.6164   21678136.5814   21678140.3054
      2383.4864
  -8468377.88946  -6546014.78046  24739505.0794   24739500.8894   24739509.7904
       252.4514
 -12663773.20448  -9803077.86147  21752397.2594   21752397.5244   21752400.8754
      2743.6114
  -3689159.52247  -1823835.78446  24405527.4704   24405527.2844   24405535.3444
       118.1544
  -5950286.56647  -4573027.96646  23187671.2884   23187670.0074   23187675.8144
      2832.5374
 -13421344.37248 -10397663.38847  21528929.7744   21528929.5414   21528933.1004
     -2168.6324
   5723937.48447   4476730.48546  23490388.5504   23490388.2104   23490396.7594
     -3174.3804
   3273485.23646   2621736.81945  24925684.2084   24925687.3414   24925694.3804
     -3448.6134
 11 10  9  2 34  0.0000000  0 11G23G32G17G04G12G13G31G10G20G01G11
 -23709213.09048 -18412907.70347  20713229.1424   20713229.0064   20713230.1734
       857.6164
  -6468608.10747  -4970589.35146  23300955.8154   23300955.4514   23300962.2604
     -3252.1644
 -18964329.78148 -14702018.78047  21171287.3494   21171287.8904   21171290.5224
     -1880.6584
 -16115845.50548 -12490977.48847  21664549.6004   21664549.9274   21664553.7234
      2376.6814
  -8475677.79946  -6551703.03946  24738112.1234   24738112.3374   24738118.0664
       234.3764
 -12745885.16448  -9867061.18747  21736772.0654   21736772.0494   21736774.8644
      2730.5514
  -3692414.85247  -1826372.74746  24404908.2234   24404908.9254   24404917.0894
        98.9704
  -6035179.89847  -4639178.60746  23171515.8574   23171516.4244   23171521.3744
      2827.3684
 -13356171.88548 -10346879.69247  21541331.2654   21541331.0014   21541335.0964
     -2176.0664
   5819244.29847   4550995.42946  23508524.8974   23508524.8404   23508533.6514
     -3179.4634
   3376969.40346   2702373.55045  24945376.2814   24945379.0674   24945380.4744
     -3450.4454
 11 10  9  2 34 30.0000000  0 11G23G32G17G04G12G13G31G10G20G01G11
 -23734608.14348 -18432696.04348  20708396.9444   20708396.6394   20708397.7364
       835.7844
  -6370951.76247  -4894493.62746  23319539.2294   23319538.0964   23319545.4494
     -3258.0864
 -18907630.06448 -14657837.20547  21182077.0614   21182077.2044   21182080.2674
     -1899.0594
 -16187008.93848 -12546429.50647  21651007.9184   21651007.1524   21651011.7104
      2367.8054
  -8482402.93846  -6556943.02446  24736833.8584   24736833.5554   24736841.3074
       214.2424
 -12827571.42348  -9930712.80147  21721227.3374   21721226.9134   21721230.5984
      2715.4094
  -3695072.15547  -1828443.28946  24404402.5394   24404402.2564   24404405.4894
        78.6294
  -6119893.72347  -4705189.37246  23155396.1844   23155395.8014   23155400.9704
      2819.9594
 -13290743.58548 -10295896.64547  21553782.1494   21553781.3584   21553785.5314
     -2185.4924
   5914728.95047   4625398.96146  23526694.4444   23526694.7504   23526703.3424
     -3186.3214
   3480552.46746   2783087.33845  24965087.5924   24965087.5494   24965095.0424
     -3454.8994
 11 10  9  2 35  0.0000000  0 11G23G32G17G04G12G13G31G10G20G01G11
 -23759372.13148 -18451992.68347  20703684.2334   20703684.0274   20703685.3234
       815.2904
  -6273144.39547  -4818280.21846  23338151.2844   23338150.7814   23338157.3154
     -3262.2324
 -18850402.53848 -14613244.36547  21192966.7894   21192967.6444   21192970.0714
     -1915.9484
 -16257932.44248 -12601694.57047  21637511.2434   21637511.5124   21637515.0224
      2360.4984
  -8488553.07446  -6561735.40446  24735665.3994   24735664.0774   24735668.5554
       195.9244
 -12908828.19648  -9994029.72847  21705764.6974   21705766.0414   21705767.6594
      2701.7674
  -3697132.36447  -1830048.15646  24404009.3494   24404009.7444   24404019.6954
        59.3354
  -6204425.99147  -4771058.66646  23139309.7674   23139309.5814   23139314.9024
      2814.8274
 -13225059.79448 -10244714.51747  21566281.3034   21566281.2054   21566285.0194
     -2193.2424
   6010391.53347   4699941.12346  23544899.3814   23544898.9094   23544907.9694
     -3190.9114
   3584234.049 6   2863877.90345  24984818.250                    24984822.4614
     -3457.654
 11 10  9  2 35 30.0000000  0 11G23G32G17G04G12G13G31G10G20G01G11
 -23783509.74348 -18470801.22847  20699091.2874   20699090.6604   20699091.9544
       793.6084
  -6175193.59347  -4741955.01746  23356791.0544   23356790.7364   23356797.6814
     -3267.8934
 -18792655.21748 -14568246.49347  21203955.9594   21203956.2084   21203959.2524
     -1934.0924
 -16328620.67248 -12656776.30347  21624059.5804   21624059.7654   21624063.4454
      2351.7644
  -8494133.74346  -6566084.05746  24734599.7494   24734601.7404   24734605.7064
       176.0374
 -12989659.15248 -10057014.87347  21690383.0264   21690382.5734   21690386.3244
      2686.8444
  -3698601.59047  -1831193.78146  24403731.1424   24403732.0744   24403734.8334
        38.4884
  -6288782.08147  -4836790.67246  23123257.4234   23123256.4114   23123261.4804
      2808.1634
 -13159127.92448 -10193339.07447  21578827.7614   21578827.0864   21578831.4064
     -2202.3994
   6106224.99747   4774616.43346  23563135.2294   23563135.3554   23563144.4444
     -3197.9854
   3688006.72546   2944739.44345  25004565.0084   25004562.7164   25004579.2064
     -3461.1784
 11 10  9  2 36  0.0000000  0 11G23G32G17G04G12G13G31G10G20G01G11
 -23807017.35348 -18489118.87847  20694617.6714   20694617.4524   20694618.5804
       773.0584
  -6077098.01647  -4665517.01346  23375458.1344   23375457.7894   23375464.7434
     -3272.3924
 -18734386.44848 -14522842.28647  21215044.1524   21215045.0194   21215047.6574
     -1951.1654
 -16399068.54348 -12711670.73947  21610654.1344   21610654.8744   21610657.2894
      2344.0444
  -8499142.29546  -6569986.99646  24733648.0084   24733649.3754   24733652.4354
       157.2994
 -13070058.95748 -10119664.06447  21675083.5494   21675083.5734   21675086.5204
      2672.6954
  -3699473.34647  -1831872.57946  24403564.2664   24403564.7654   24403570.8764
        19.0514
  -6372957.96247  -4902382.24846  23107239.7064   23107238.5814   23107243.5244
      2802.4334
 -13092945.99048 -10141768.76347  21591421.7724   21591420.8754   21591425.7004
     -2210.3554
   6202231.36347   4849426.47046  23581405.5654   23581405.4454   23581413.4704
     -3203.4074
   3791872.44546   3025673.46845  25024331.0174   25024332.0034   25024337.7184
     -3463.8254
 11 10  9  2 36 30.0000000  0 11G23G32G17G04G12G13G31G10G20G01G11
 -23829892.45348 -18506943.69747  20690264.7084   20690264.6724   20690266.0834
       751.8644
  -5978857.06347  -4588965.71346  23394152.8474   23394152.3224   23394159.0484
     -3277.5754
 -18675596.11148 -14477031.65447  21226231.7924   21226231.8564   21226234.6524
     -1968.4674
 -16469272.55048 -12766375.15647  21597294.3984   21597294.6614   21597297.8254
      2335.9214
  -8503576.44047  -6573442.06846  24732806.3304   24732804.0764   24732808.4514
       137.9384
 -13150023.09248 -10181973.78147  21659866.7544   21659866.4654   21659869.9934
      2658.0764
  -3699747.85846  -1832085.93746  24403512.5674   24403511.2404   24403524.7734
         -.6784
  -6456950.78647  -4967831.18246  23091256.3164   23091255.3564   23091260.0944
      2796.1174
 -13026513.40148 -10090003.14147  21604063.3644   21604063.3184   21604067.1974
     -2218.6374
   6298411.54847   4924371.94146  23599707.8904   23599708.0054   23599716.7034
     -3208.8354
   3895831.67546   3106680.39145  25044113.2654   25044110.8264   25044119.4794
     -3467.0134
 11 10  9  2 37  0.0000000  0 11G23G32G17G04G12G13G31G10G20G01G11
 -23852138.77848 -18524278.55047  20686031.6284   20686030.9954   20686032.3004
       731.1254
  -5880477.00347  -4512306.06646  23412873.6664   23412874.0314   23412880.9914
     -3281.8244
 -18616290.56848 -14430819.55947  21237517.4684   21237518.0494   21237519.9724
     -1985.4404
 -16539235.44948 -12820891.69247  21583981.2334   21583980.8574   21583984.1184
      2328.1424
  -8507440.93046  -6576453.51146  24732069.2494   24732067.9814   24732074.9644
       119.2204
 -13229553.56148 -10243945.56947  21644732.6544   21644733.7234   21644736.7014
      2643.8614
  -3699428.79547  -1831837.89446  24403574.1574   24403574.1064   24403578.1874
       -20.3234
  -6540764.42447  -5033140.50046  23075307.6794   23075306.1664   23075311.2584
      2790.7654
 -12959836.46048 -10038047.11647  21616751.6184   21616751.0774   21616755.3514
     -2226.5594
   6394760.35847   4999448.82346  23618042.6724   23618042.8394   23618051.5194
     -3214.5854
   3999878.71346   3187755.71945  25063912.6374   25063914.2604   25063920.3404
     -3470.1044
 11 10  9  2 37 30.0000000  0 11G23G32G17G04G12G13G31G10G20G01G11
 -23873751.85948 -18541119.96147  20681918.8064   20681918.5044   20681919.8724
       709.9364
  -5781955.60647  -4435536.28246  23431622.1614   23431620.5554   23431628.6144
     -3286.4534
 -18556467.86448 -14384204.48647  21248900.9424   21248900.8374   21248903.9634
     -2002.6214
 -16608951.74048 -12875216.06747  21570714.4204   21570714.6254   21570718.4864
      2319.7264
  -8510731.96047  -6579018.07846  24731443.1104   24731442.6494   24731446.5604
       100.0124
 -13308644.13748 -10305574.58047  21629682.4954   21629683.2164   21629685.3534
      2628.9494
  -3698511.13247  -1831122.71046  24403747.3394   24403748.2774   24403756.4234
       -40.8934
  -6624394.29147  -5098306.61346  23059392.9184   23059391.9934   23059397.0834
      2784.3004
 -12892912.26748  -9985898.42847  21629487.0904   21629486.6674   21629490.3154
     -2234.8574
   6491280.28547   5074659.02746  23636409.7754   23636409.6284   23636418.3794
     -3220.4944
 -25828963.89216 -20055498.56855  25083727.907                    25083734.3904
     -3472.768
 11 10  9  2 38  0.0000000  0 10G23G32G17G04G12G13G31G10G20G01
 -23894732.22348 -18557468.35047  20677926.4294   20677926.3654   20677927.4294
       688.6504
  -5683295.26947  -4358658.25046  23450396.7274   23450395.2354   23450401.6784
     -3290.9294
 -18496130.85848 -14337188.66147  21260382.9104   21260383.1354   21260385.7324
     -2019.8624
 -16678420.43048 -12929347.50347  21557495.1924   21557495.3824   21557498.9374
      2311.1844
  -8513450.21746  -6581136.11346  24730924.9334   24730925.9044   24730931.9294
        80.5854
 -13387293.35848 -10366859.69347  21614715.9664   21614715.7614   21614718.7864
      2614.0234
  -3696994.86347  -1829940.77246  24404035.5054   24404036.2014   24404044.7264
       -60.6164
  -6707840.32147  -5163329.47746  23043513.4294   23043512.7184   23043518.1984
      2778.1904
 -12825742.93248  -9933558.72047  21642268.8944   21642268.3594   21642272.7874
     -2243.2764
   6587969.73847   5150001.36946  23654808.9104   23654808.8264   23654817.9984
     -3226.0994
 11 10  9  2 38 30.0000000  0 10G23G32G17G04G12G13G31G10G20G01
 -23915082.78348 -18573325.97148  20674053.8784   20674053.6834   20674054.3604
       667.2954
  -5584501.30747  -4281676.07846  23469196.4284   23469195.3884   23469202.7064
     -3296.0934
 -18435285.40248 -14289776.65647  21271961.4324   21271962.0194   21271964.7504
     -2037.2504
 -16747643.88048 -12983287.85647  21544322.4054   21544323.1534   21544325.7644
      2302.6624
  -8515600.41546  -6582811.64646  24730516.3694   24730518.4474   24730521.5934
        61.6554
 -13465502.64248 -10427801.99847  21599832.9574   21599833.3314   21599836.9944
      2598.9714
  -3694885.87847  -1828297.68346  24404437.3024   24404438.0584   24404442.5944
       -80.9444
  -6791105.68547  -5228211.57346  23027668.1534   23027667.9444   23027672.6384
      2772.0134
 -12758333.65148  -9881032.05547  21655096.6484   21655096.0914   21655099.9074
     -2251.5404
   6684823.87847   5225472.10746  23673239.6694   23673239.4844   23673247.9924
     -3231.5744
 11 10  9  2 39  0.0000000  0 10G23G32G17G04G12G13G31G10G20G01
 -23934797.27848 -18588687.91547  20670302.2794   20670301.9984   20670303.0114
       646.6694
  -5485569.55547  -4204586.54046  23488022.6784   23488023.1254   23488029.2834
     -3300.0104
 -18373927.47348 -14241965.32047  21283637.3964   21283637.5004   21283640.3904
     -2053.6724
 -16816614.33848 -13037031.05047  21531197.4104   21531197.7714   21531202.5904
      2294.9594
  -8517176.50646  -6584039.87146  24730217.8344   24730216.7174   24730221.4234
        43.3354
 -13543263.59448 -10488394.94247  21585035.6894   21585035.6744   21585039.0514
      2584.5864
  -3692175.93947  -1826185.94646  24404953.8644   24404954.7354   24404959.6394
      -100.1814
  -6874183.60747  -5292947.59846  23011859.4274   23011858.7484   23011863.4294
      2766.1604
 -12690679.63448  -9828314.67047  21667970.8534   21667970.0784   21667974.2784
     -2259.0454
   6781847.23747   5301074.61346  23691703.4144   23691702.7364   23691712.1734
     -3236.9994
 11 10  9  2 39 30.0000000  0 10G23G32G17G04G12G13G31G10G20G01
 -23953878.68848 -18603556.55548  20666670.9184   20666671.1644   20666671.9784
       625.4874
  -5386505.02347  -4127393.51346  23506873.9264   23506873.8814   23506880.8954
     -3304.0914
 -18312062.16048 -14193758.62047  21295410.4154   21295410.3914   21295413.4134
     -2070.6754
 -16885333.75548 -13090578.64047  21518121.0314   21518120.3304   21518124.1084
      2286.3734
  -8518181.93746  -6584823.25846  24730026.5834   24730027.2494   24730030.8084
        24.0744
 -13620577.43748 -10548639.47447  21570323.2584   21570323.8254   21570325.9384
      2569.4784
  -3688869.06347  -1823609.01446  24405583.7374   24405583.8224   24405589.7134
      -120.2374
  -6957076.58747  -5357539.50646  22996085.8544   22996085.2274   22996089.1194
      2759.6714
 -12622785.85948  -9775410.46447  21680890.3934   21680890.6684   21680893.6554
     -2267.1664
   6879035.59847   5376805.71346  23710197.5434   23710197.4444   23710205.4114
     -3242.4904
 11 10  9  2 40  0.0000000  0 10G23G32G17G04G12G13G31G10G20G01
 -23972327.36648 -18617932.17348  20663160.6074   20663160.3924   20663161.5774
       604.4444
  -5287309.83347  -4050098.64446  23525750.9604   23525750.5204   23525757.1304
     -3308.6024
 -18249691.97848 -14145158.50047  21307277.9134   21307278.4164   21307282.1044
     -2087.3824
 -16953800.93348 -13143929.66547  21505092.1444   21505092.3614   21505096.3514
      2278.0884
  -8518617.98446  -6585163.00346  24729942.1194   24729942.8204   24729950.2694
         5.3544
 -13697442.11348 -10608534.01347  21555696.3974   21555696.5994   21555699.6924
      2554.5514
  -3684965.15647  -1820566.84546  24406326.2414   24406326.5504   24406329.9624
      -139.9304
  -7039785.13347  -5421987.71146  22980346.6434   22980345.7004   22980350.8154
      2753.8104
 -12554653.97448  -9722320.71547  21693855.4474   21693855.1874   21693858.4954
     -2275.0264
   6976387.08447   5452663.95846  23728723.5564   23728722.5394   23728731.2544
     -3247.8524
