     2.11           OBSERVATION DATA    G (GPS)             RINEX VERSION / TYPE
teqc  2016Apr1                          20160930 07:51:17UTCPGM / RUN BY / DATE
Linux 2.4.20-8|Pentium IV|gcc|Linux|486/DX+                 COMMENT
teqc  2016Apr1                          20160816 03:22:46UTCCOMMENT
teqc  2009Mar23                         20111001 01:04:05UTCCOMMENT
Linux 2.4.20-8|Pentium IV|gcc -static|Linux|486/DX+         COMMENT
    P1 =    P1  TurboRogue; =    Y1  Benchmark              COMMENT
    L1 = L1(CA)                                             COMMENT
    P2 =    P2  TurboRogue; =    Y2  Benchmark              COMMENT
    L2 = L2(P2) TurboRogue; = L2(Y2) Benchmark              COMMENT
 SNR is mapped to RINEX snr flag value [0-9]                COMMENT
  L1 & L2: min(max(int(snr_dBHz/6), 0), 9)                  COMMENT
YELL CACS-GSD 889201 YELLOWKNIFE NT CANADA                  MARKER NAME
40127M003                                                   MARKER NUMBER
OPERATOR            NRCan/GEODETIC SURVEY OF CANADA         OBSERVER / AGENCY
204U                AOA SNR-12 ACT      3.3.32.2N           REC # / TYPE / VERS
285                 AOAD/M_T        NONE                    ANT # / TYPE
 -1224452.4000 -2689216.0000  5633638.2000                  APPROX POSITION XYZ
        0.1000        0.0000        0.0000                  ANTENNA: DELTA H/E/N
     1     1                                                WAVELENGTH FACT L1/2
     7    L1    L2    C1    P1    P2    S1    S2            # / TYPES OF OBSERV
    30.0000                                                 INTERVAL
teqc windowed: start @ 2011 Oct  1 00:10:00.000             COMMENT
teqc windowed:  end  @ 2011 Oct  1 00:20:00.000             COMMENT
  2011    10     1     0    10    0.0000000     GPS         TIME OF FIRST OBS
                                                            END OF HEADER
 11 10  1  0 10  0.0000000  0  9G05G16G13G02G21G25G10G30G29
 110720166.650 7  86275442.524 7  21069357.320    21069357.605    21069360.356
        45.000          46.000
 129585348.069 3 100975576.965    24659286.078    24659285.186    24659289.545
        19.300
 127799435.526 2  99583958.861 1  24319437.972    24319437.594    24319444.578
        15.100           6.500
 119314177.614 5  92972079.983 5  22704738.973    22704738.860    22704741.663
        33.000          33.000
 124498106.337 5  97011505.773 3  23691206.273    23691205.939    23691210.683
        30.100          23.800
 124942594.136 4  97357850.353 3  23775795.015    23775795.381    23775804.451
        28.100          23.000
 125145926.968 3  97516294.548 3  23814487.233    23814486.357    23814493.169
        23.000          21.100
 116665837.436 6  90908434.204 5  22200779.050    22200778.443    22200784.219
        36.000          34.000
 107111577.437 8  83463571.615 8  20382654.007    20382654.126    20382657.464
        48.000          51.000
 11 10  1  0 10 30.0000000  0  9G05G16G13G02G21G25G10G30G29
 110723638.986 7  86278148.430 7  21070017.712    21070018.125    21070020.881
        45.000          46.000
 129490521.945 2 100901686.825    24641240.008    24641240.197    24641244.396
        16.100
 127865533.270 2  99635463.402 1  24332014.726    24332015.512    24332021.917
        12.600          11.000
 119406274.207 5  93043842.962 5  22722264.882    22722264.762    22722267.721
        33.000          33.000
 124405403.272 4  96939269.720 4  23673565.316    23673564.709    23673569.873
        29.000          24.900
 125052903.206 4  97443805.352 3  23796786.250    23796786.558    23796795.491
        28.100          23.000
 125249315.514 3  97596857.297 3  23834161.073    23834160.412    23834167.285
        23.800          23.000
 116743020.812 6  90968577.069 5  22215466.768    22215465.881    22215471.455
        36.000          33.000
 107117217.282 8  83467966.336 8  20383727.338    20383727.455    20383730.772
        48.000          51.000
 11 10  1  0 11  0.0000000  0  9G05G16G13G02G21G25G10G30G29
 110727728.728 7  86281335.440 7  21070795.903    21070796.282    21070798.874
        45.000          45.000
 129396010.740 3 100828042.220    24623256.040    24623254.615    24623258.788
        19.300
 127932139.253 2  99687364.072 2  24344690.497    24344690.931    24344696.468
        12.600          13.900
 119498613.520 5  93115795.165 5  22739836.930    22739836.748    22739839.744
        33.000          32.000
 124312846.440 5  96867147.602 3  23655952.567    23655952.169    23655956.614
        30.100          23.000
 125163400.358 5  97529906.976 3  23817814.357    23817814.058    23817822.080
        30.100          21.100
 125352987.228 3  97677640.540 3  23853890.249    23853888.992    23853895.525
        23.000          22.100
 116820701.104 6  91029107.096 5  22230248.748    22230248.197    22230253.346
        36.000          32.000
 107123394.732 8  83472779.909 8  20384902.854    20384902.997    20384906.284
        48.000          51.000
 11 10  1  0 11 30.0000000  0  9G05G16G13G02G21G25G10G30G29
 110732435.387 7  86285003.229 7  21071691.387    21071691.682    21071694.092
        45.000          45.000
 129301817.646 3 100754645.773    24605329.991    24605329.855    24605334.323
        21.100
 127999250.539 2  99739658.204    24357461.630    24357461.749    24357467.795
        15.100
 119591194.546 5  93187935.909 5  22757454.691    22757454.509    22757457.762
        32.000          32.000
 124220437.453 4  96795140.660 4  23638367.646    23638367.247    23638371.898
        29.000          24.900
 125274082.694 5  97616152.900 3  23838876.381    23838876.046    23838884.503
        30.100          23.000
 125456939.274 3  97758642.292 3  23873671.571    23873670.309    23873676.582
        23.000          21.100
 116898875.563 6  91090022.204 5  22245124.901    22245124.483    22245129.484
        36.000          32.000
 107130109.985 8  83478012.510 8  20386180.759    20386180.920    20386184.229
        48.000          51.000
 11 10  1  0 12  0.0000000  0  9G05G16G13G02G21G25G10G30G29
 110737758.038 7  86289150.915 7  21072704.208    21072704.645    21072706.916
        45.000          45.000
 129207943.082 3 100681496.639    24587465.634    24587466.302    24587469.863
        19.900
 128066865.936 2  99792345.715 1  24370327.924    24370327.479    24370334.198
        17.800           6.500
 119684015.272 5  93260263.593 5  22775118.294    22775118.040    22775120.858
        33.000          32.000
 124128177.547 4  96723249.927 3  23620810.987    23620810.476    23620815.334
        29.000          22.100
 125384947.480 4  97702540.997 3  23859973.728    23859972.944    23859981.707
        29.000          23.000
 125561168.930 3  97839860.381 3  23893505.816    23893504.451    23893510.589
        22.100          19.900
 116977541.273 6  91151320.059 5  22260094.995    22260094.267    22260099.273
        36.000          33.000
 107137363.224 8  83483664.357 8  20387561.187    20387561.247    20387564.350
        48.000          51.000
 11 10  1  0 12 30.0000000  0  9G05G16G13G02G21G25G10G30G29
 110743696.592 7  86293778.589 7  21073834.241    21073834.488    21073836.789
        45.000          45.000
 129114392.146 2 100608599.959    24569663.970    24569663.393    24569668.269
        16.100
 128134982.756 2  99845424.304    24383289.861    24383290.042    24383295.693
        17.800
 119777073.073 5  93332775.706 5  22792827.190    22792826.872    22792829.647
        33.000          31.000
 124036067.641 5  96651476.076 4  23603283.206    23603282.847    23603287.106
        31.000          24.900
 125495991.764 5  97789068.947 3  23881104.634    23881104.052    23881112.668
        30.100          23.000
 125665672.940 3  97921292.092 3  23913391.952    23913390.542    23913397.235
        22.100          19.300
 117056695.508 5  91212998.542 5  22275157.044    22275156.518    22275162.281
        35.100          33.000
 107145154.401 7  83489735.322 8  20389043.752    20389043.830    20389047.006
        47.000          51.000
 11 10  1  0 13  0.0000000  0  9G05G16G13G02G21G25G10G30G29
 110750250.461 7  86298885.601 7  21075081.273    21075081.538    21075083.727
        45.000          45.000
 129021167.506 2 100535957.834    24551923.946    24551923.479    24551928.467
        16.100
 128203597.193 3  99898890.382 1  24396346.655    24396346.791    24396350.910
        19.300          11.000
 119870366.410 5  93405471.058 5  22810580.601    22810580.515    22810583.450
        34.000          32.000
 123944109.036 5  96579820.108 3  23585783.491    23585783.215    23585787.954
        30.100          23.000
 125607212.791 4  97875734.610 3  23902268.529    23902268.198    23902277.608
        27.100          22.100
 125770449.453 3  98002936.349 3  23933328.466    23933328.309    23933335.123
        21.100          21.100
 117136335.669 5  91275055.738 5  22290312.220    22290311.679    22290317.083
        35.100          33.000
 107153483.793 8  83496225.682 8  20390628.646    20390628.817    20390632.167
        48.000          51.000
 11 10  1  0 13 30.0000000  0  9G05G16G13G02G21G25G10G30G29
 110757419.176 7  86304471.721 7  21076445.323    21076445.586    21076447.952
        45.000          45.000
 128928271.089 3 100463571.394 1  24534246.684    24534245.726    24534250.940
        19.300           6.500
 128272706.568 3  99952741.765    24409497.329    24409497.868    24409501.112
        19.300
 119963897.178 5  93478352.874 5  22828378.372    22828378.141    22828380.968
        34.000          31.000
 123852302.574 5  96508282.756 4  23568313.563    23568312.975    23568318.002
        31.000          24.900
 125718607.791 4  97962535.858 4  23923466.517    23923465.848    23923475.678
        27.100          24.900
 125875495.201 3  98084790.417 2  23953317.680    23953317.707    23953324.547
        22.100          17.000
 117216458.680 6  91337489.182 5  22305558.978    22305558.436    22305563.951
        36.000          32.000
 107162351.864 7  83503135.828 8  20392316.257    20392316.354    20392319.826
        47.000          51.000
 11 10  1  0 14  0.0000000  0  9G05G16G13G02G21G25G10G30G29
 110765201.975 7  86310536.307 7  21077925.985    21077926.384    21077928.841
        45.000          45.000
 128835704.591 3 100391441.532 1  24516631.746    24516631.364    24516635.724
        21.100           6.500
 128342308.214 3 100006976.138    24422743.096    24422743.208    24422746.130
        19.900
 120057659.192 5  93551414.097 4  22846220.410    22846220.447    22846223.169
        31.000          29.000
 123760649.762 5  96436865.127 4  23550872.450    23550871.813    23550876.846
        31.000          27.100
 125830173.837 4  98049470.381 3  23944696.945    23944696.350    23944705.665
        27.100          23.000
 125980806.708 3  98166851.169 2  23973358.831    23973357.930    23973365.030
        23.000          16.100
 117297061.732 6  91400296.658 5  22320897.011    22320896.589    22320902.438
        36.000          32.000
 107171758.326 8  83510465.524 8  20394106.251    20394106.405    20394109.834
        48.000          51.000
 11 10  1  0 14 30.0000000  0  9G05G16G13G02G21G25G10G30G29
 110773598.195 7  86317078.682 7  21079523.962    21079524.318    21079526.730
        45.000          45.000
 128743473.126 3 100319573.260 1  24499080.095    24499079.761    24499084.847
        19.300           9.000
 128412402.178 3 100061594.985    24436081.332    24436081.751    24436084.794
        21.100
 120151653.143 5  93624656.414 5  22864106.565    22864106.449    22864109.660
        31.000          30.100
 123669151.723 5  96365568.047 4  23533460.941    23533460.360    23533465.420
        31.000          24.900
 125941908.132 4  98136536.033 3  23965959.523    23965958.530    23965967.843
        27.100          19.300
 126086382.312 3  98249117.840 3  23993449.166    23993448.602    23993455.524
        23.000          19.300
 117378142.138 5  91463476.120 5  22336325.932    22336325.637    22336331.512
        35.100          32.000
 107181703.203 8  83518214.770 8  20395998.851    20395998.974    20396002.366
        48.000          51.000
 11 10  1  0 15  0.0000000  0  9G05G16G13G02G21G25G10G30G29
 110782607.814 7  86324099.085 7  21081238.729    21081239.113    21081241.377
        46.000          46.000
 128651578.915 3 100247968.133 1  24481592.960    24481591.959    24481597.360
        19.900           6.500
 128482984.375 3 100116594.225    24449513.327    24449513.435    24449516.670
        19.300
 120245876.642 5  93698077.543 4  22882036.839    22882036.633    22882039.589
        31.000          29.000
 123577809.262 5  96294392.153 4  23516078.466    23516078.334    23516083.132
        31.000          24.900
 126053807.780 4  98223730.504 3  23987252.904    23987252.651    23987261.179
        25.900          19.300
 126192219.245 3  98331588.321 2  24013589.662    24013588.677    24013595.388
        23.000          16.100
 117459697.024 5  91527025.394 5  22351845.835    22351845.341    22351850.908
        35.100          32.000
 107192187.034 7  83526383.984 8  20397993.708    20397993.916    20397997.472
        47.000          51.000
 11 10  1  0 15 30.0000000  0  9G05G16G13G02G21G25G10G30G29
 110792229.855 7  86331596.625 7  21083069.788    21083070.063    21083072.658
        45.000          46.000
 128560023.366 3 100176626.490    24464170.611    24464169.380    24464174.581
        19.300           3.000
 128554050.911 3 100171970.457    24463035.732    24463036.027    24463040.129
        19.300
 120340327.952 5  93771676.129 5  22900010.143    22900009.879    22900012.873
        31.000          31.000
 123486624.008 5  96223338.698 3  23498726.590    23498726.527    23498731.011
        32.000          23.000
 126165870.003 4  98311051.636 3  24008577.802    24008577.390    24008586.098
        27.100          21.100
 126298313.806 3  98414259.395 2  24033778.774    24033777.663    24033784.145
        22.100          16.100
 117541723.607 6  91590942.278 5  22367455.315    22367454.716    22367459.834
        36.000          32.000
 107203209.551 8  83534972.957 8  20400091.381    20400091.437    20400094.927
        48.000          51.000
 11 10  1  0 16  0.0000000  0  9G05G16G13G02G21G25G10G30G29
 110802463.875 7  86339570.757 7  21085017.584    21085017.924    21085020.545
        45.000          46.000
 128468807.197 3 100105547.974    24446813.770    24446812.776    24446816.796
        19.300           3.000
 128625602.312 2 100227725.300    24476651.232    24476651.441    24476656.134
        17.000
 120435004.897 5  93845450.218 5  22918027.059    22918026.733    22918029.656
        31.000          31.000
 123395597.317 5  96152408.896 3  23481404.540    23481404.507    23481409.111
        31.000          23.800
 126278092.011 4  98398497.302 3  24029933.402    24029932.329    24029941.459
        25.900          23.000
 126404663.711 3  98497129.468 2  24054016.628    24054015.645    24054021.894
        23.000          16.100
 117624218.798 6  91655224.314 5  22383153.709    22383153.048    22383158.182
        36.000          31.000
 107214770.696 8  83543981.631 8  20402291.307    20402291.425    20402294.972
        48.000          51.000
 11 10  1  0 16 30.0000000  0  9G05G16G13G02G21G25G10G30G29
 110813309.398 7  86348021.576 7  21087081.690    21087081.916    21087084.515
        45.000          46.000
 128377938.557 3 100034741.774 2  24429521.443    24429520.322    24429525.195
        23.000          13.900
 128697634.651 2 100283854.991    24490358.168    24490358.602    24490363.446
        12.600
 120529906.796 5  93919399.694 5  22936086.282    22936086.008    22936089.118
        31.000          32.000
 123304730.202 5  96081603.414 4  23464113.385    23464113.052    23464117.662
        31.000          24.900
 126390470.921 4  98486065.173 3  24051318.393    24051317.449    24051326.488
        27.100          22.100
 126511266.374 3  98580196.427 2  24074302.036    24074301.527    24074308.067
        23.000          13.900
 117707179.587 6  91719869.120 5  22398940.693    22398940.075    22398945.058
        36.000          31.000
 107226870.620 8  83553410.119 8  20404593.916    20404593.999    20404597.436
        48.000          51.000
 11 10  1  0 17  0.0000000  0  9G05G16G13G02G21G25G10G30G29
 110824764.525 7  86356946.822 7  21089262.046    21089262.337    21089265.021
        45.000          45.000
 128287416.983 3  99964205.660    24412294.711    24412293.831    24412299.523
        19.900
 128770144.475 2 100340356.389    24504156.522    24504156.919    24504161.527
        16.100           3.000
 120625032.026 5  93993523.462 5  22954187.698    22954187.172    22954191.020
        32.000          34.000
 123214023.802 5  96010923.139 4  23446852.744    23446852.128    23446856.854
        32.000          25.900
 126503003.953 4  98573753.154 3  24072732.534    24072732.035    24072741.174
        27.100          23.000
 126618118.821 3  98663457.914 2  24094635.584    24094634.976    24094641.467
        23.000          13.900
 117790603.092 5  91784874.415 5  22414815.564    22414814.968    22414819.981
        35.100          32.000
 107239509.355 8  83563258.471 8  20406998.801    20406999.046    20407002.578
        48.000          51.000
 11 10  1  0 17 30.0000000  0  9G05G16G13G02G21G25G10G30G29
 110836832.037 7  86366350.366 7  21091558.523    21091558.775    21091561.177
        45.000          45.000
 128197244.370 3  99893941.069 2  24395135.358    24395134.775    24395141.224
        19.300          12.600
 128843128.915 2 100397227.336    24518044.661    24518044.603    24518048.495
        16.100
 120720378.172 5  94067819.169 5  22972331.323    22972330.910    22972334.605
        31.000          32.000
 123123479.279 5  95940369.012 4  23429622.478    23429622.152    23429627.066
        32.000          27.100
 126615688.252 4  98661559.025 2  24094175.461    24094175.005    24094184.479
        28.100          16.100
 126725218.364 3  98746911.909 2  24115016.033    24115015.367    24115021.940
        22.100          16.100
 117874486.548 5  91850238.131 5  22430778.271    22430777.309    22430782.509
        35.100          31.000
 107252687.110 8  83573526.845 8  20409506.445    20409506.630    20409510.060
        48.000          51.000
 11 10  1  0 18  0.0000000  0  9G05G16G13G02G21G25G10G30G29
 110849509.456 7  86376229.531 7  21093970.299    21093970.538    21093973.086
        45.000          45.000
 128107424.768 3  99823951.756 1  24378042.509    24378043.076    24378049.116
        21.100           6.500
 128916585.872 3 100454466.575    24532023.129    24532023.561    24532025.330
        19.300
 120815944.615 5  94142286.755 5  22990516.706    22990516.730    22990519.671
        32.000          31.000
 123033097.904 5  95869942.057 4  23412423.707    23412423.108    23412427.908
        32.000          25.900
 126728521.098 4  98749480.671 3  24115647.105    24115646.483    24115655.623
        27.100          19.900
 126832562.764 3  98830556.904 2  24135442.709    24135442.232    24135448.716
        19.900          13.900
 117958826.963 5  91915957.917 5  22446827.551    22446826.919    22446832.128
        34.000          31.000
 107266403.569 8  83584214.983 8  20412116.823    20412116.945    20412120.290
        48.000          51.000
 11 10  1  0 18 30.0000000  0  9G05G16G13G02G21G25G10G30G29
 110862794.033 7  86386581.067 7  21096498.017    21096498.341    21096501.210
        45.000          46.000
 128017962.097 3  99754241.252 1  24361018.551    24361018.317    24361023.952
        19.900           9.000
 128990514.110 3 100512073.412    24546092.236    24546091.939    24546093.678
        19.300
 120911729.260 5  94216924.394 5  23008744.052    23008743.701    23008746.771
        31.000          30.100
 122942881.067 5  95799643.374 4  23395255.770    23395255.252    23395260.013
        31.000          27.100
 126841499.599 4  98837515.793 3  24137145.626    24137145.617    24137155.315
        25.900          21.100
 126940148.862 3  98914390.106 2  24155915.376    24155915.222    24155922.409
        21.100          17.000
 118043621.507 5  91982031.578 5  22462963.399    22462962.579    22462967.996
        34.000          31.000
 107280658.691 8  83595322.873 8  20414829.578    20414829.659    20414833.056
        48.000          51.000
 11 10  1  0 19  0.0000000  0  9G05G16G13G02G21G25G10G30G29
 110876686.243 7  86397405.820 7  21099142.088    21099142.443    21099145.004
        45.000          45.000
 127928857.177 4  99684809.258    24344063.042    24344061.954    24344066.219
        24.900           3.000
 129064908.075 3 100570042.224    24560249.697    24560249.350    24560251.513
        19.900
 121007729.912 5  94291730.292 5  23027012.477    23027011.953    23027015.081
        31.000          30.100
 122852829.874 5  95729473.771 4  23378119.399    23378118.966    23378123.561
        32.000          27.100
 126954620.957 3  98925662.196 3  24158672.613    24158671.851    24158682.013
        23.800          22.100
 127047973.710 3  98998409.319 2  24176433.842    24176433.251    24176440.882
        19.300          15.100
 118128867.084 5  92048456.685 5  22479184.987    22479184.255    22479189.760
        34.000          31.000
 107295452.676 8  83606850.678 8  20417644.820    20417644.844    20417648.069
        48.000          51.000
 11 10  1  0 19 30.0000000  0  9G05G16G13G02G21G25G10G30G29
 110891186.057 7  86408704.384 7  21101901.240    21101901.539    21101904.177
        45.000          45.000
 127840110.526 3  99615655.004 1  24327175.589    24327174.919    24327180.461
        22.100          11.000
 129139768.075 2 100628374.853    24574493.711    24574493.802    24574497.550
        16.100
 121103945.165 5  94366703.263 5  23045321.224    23045321.042    23045324.146
        31.000          30.100
 122762945.402 5  95659434.092 4  23361015.341    23361014.611    23361019.018
        32.000          25.900
 127067882.396 4  99013917.751 3  24180225.466    24180225.151    24180234.231
        25.900          21.100
 127156035.019 3  99082612.866 2  24196997.328    24196996.487    24197004.285
        21.100          17.800
 118214560.862 5  92115231.072 5  22495491.966    22495491.326    22495496.825
        34.000          31.000
 107310785.271 8  83618798.212 8  20420562.058    20420562.247    20420565.620
        48.000          51.000
 11 10  1  0 20  0.0000000  0  9G05G16G13G02G21G25G10G30G29
 110906292.173 7  86420475.338 7  21104775.759    21104776.148    21104778.653
        45.000          45.000
 127751728.068 3  99546785.192 2  24310356.815    24310356.099    24310362.723
        23.000          17.000
 129215090.353 2 100687067.843    24588826.757    24588826.900    24588831.861
        15.100
 121200373.659 5  94441842.388 5  23063670.961    23063670.741    23063673.489
        31.000          30.100
 122673228.573 5  95589525.018 4  23343941.972    23343941.724    23343945.948
        33.000          24.900
 127181281.078 4  99102280.293 3  24201805.262    24201804.531    24201813.146
        27.100          19.300
 127264329.505 2  99166998.007 2  24217604.969    24217604.246    24217612.027
        17.800          16.100
 118300699.679 5  92182352.161 5  22511883.352    22511882.692    22511888.525
        35.100          31.000
 107326656.590 7  83631165.546 8  20423582.145    20423582.389    20423585.873
        47.000          51.000
