     2.11           OBSERVATION DATA    M (MIXED)           RINEX VERSION / TYPE
teqc  2016Apr1                          20160930 07:51:16UTCPGM / RUN BY / DATE
Linux 2.4.20-8|Pentium IV|gcc|Linux|486/DX+                 COMMENT
teqc  2016Apr1                          20160816 03:33:13UTCCOMMENT
teqc  2010Mar17     root                20111002 00:18:16UTCCOMMENT
MAKERINEX 1.141     BKG/GOWETTZELL      2011-10-01 01:02    COMMENT
OHI2                                                        MARKER NAME
66008M005                                                   MARKER NUMBER
AUTOMATIC           BKG/GOWETTZELL                          OBSERVER / AGENCY
AECFDJ1KK5C         JPS E_GGD           3.4 DEC,12,2009 P2  REC # / TYPE / VERS
     0                                                      RCV CLOCK OFFS APPL
383-0203            TPSCR.G3        TPSH                    ANT # / TYPE
  1525811.1000 -2432479.1000 -5676166.0000                  APPROX POSITION XYZ
        0.0375        0.0000        0.0000                  ANTENNA: DELTA H/E/N
     1     1                                                WAVELENGTH FACT L1/2
     9    C1    P1    P2    L1    L2    D1    D2    S1    S2# / TYPES OF OBSERV
    30.0000                                                 INTERVAL
teqc windowed: start @ 2011 Oct  1 00:10:00.000             COMMENT
teqc windowed:  end  @ 2011 Oct  1 00:20:00.000             COMMENT
  2011    10     1     0    10    0.0000000     GPS         TIME OF FIRST OBS
    15                                                      LEAP SECONDS
                                                            END OF HEADER
 11 10  1  0 10  0.0000000  0 20G14R15G09R22G15R24G17G11R13G12R03G26-0.000443659
                                R05G27R06G18R14G22G28R23
  24546583.030    24546583.790    24546591.592   128993191.516 5 100514168.259 2
      4635.712        3612.255          35.000          12.000
  21500856.071    21500856.308    21500865.456   114894127.537 7  89362116.091 7
      4825.832        3753.424          46.000          42.000
  21159367.476    21159367.210    21159372.707   111193283.185 8  86644152.048 7
      2564.561        1998.357          52.000          43.000
  23069024.849    23069024.855    23069029.883   123144044.163 7  95778743.056 6
     -2965.225       -2306.278          43.000          36.000
  22502636.694    22502637.121    22502643.058   118252187.562 7  92144581.392 5
     -1849.283       -1440.997          46.000          33.000
  20660594.194    20660593.612    20660599.490   110481493.029 8  85930093.242 7
      4408.083        3428.507          51.000          46.000
  20763981.823    20763981.907    20763986.211   109115524.896 8  85025101.940 6
      1719.999        1340.255          51.000          41.000
  24485320.007    24485320.330    24485325.132   128671246.720 6 100263325.437 3
      -587.212        -457.552          40.000          19.000
  21774619.071    21774618.638    21774624.832   116275325.441 8  90436413.305 6
     -2560.015       -1991.119          48.000          41.000
  24078062.625    24078061.414    24078068.309   126531052.616 7  98595672.645 4
      4776.807        3722.187          42.000          25.000
  19064304.941    19064304.428    19064313.421   101659311.662 8  79068405.109 8
       573.097         445.741          53.000          49.000
  24196216.913    24196214.989    24196221.844   127152023.648 6  99079509.681 2
     -2539.398       -1978.740          38.000          16.000
  22045437.060    22045437.034    22045447.229   117845535.100 7  91657676.610 6
     -1521.923       -1183.717          47.000          41.000
  19637527.583    19637527.165    19637532.818   103195909.896 8  80412412.629 7
      1500.486        1169.211          52.000          44.000
  21902788.955    21902788.005    21902795.241   116877500.348 8  90904749.008 6
      2317.073        1802.167          48.000          40.000
  24972657.829    24972658.883    24972665.614   131232180.086 6 102258868.446 2
     -2015.910       -1570.826          39.000          15.000
  19076077.652    19076076.929                   101686296.239 8
       928.627     -214748.365          51.000
  23856475.385    23856473.901    23856479.796   125366645.189 6  97688298.506 3
      -183.212        -142.755          41.000          21.000
  22524783.387    22524782.566    22524786.999   118368587.629 7  92235298.159 3
     -2487.261       -1938.131          43.000          23.000
  20021340.029    20021339.452    20021347.040   107100695.850 8  83300581.398 7
       183.853         142.994          52.000          47.000
 11 10  1  0 10 30.0000000  0 20G14R15G09R22G15R24G17G11R13G12R03G26-0.000465197
                                R05G27R06G18R14G22G28R23
  24520148.690    24520147.748    24520154.718   128854268.690 6 100405916.858 2
      4626.360        3604.918          39.000          16.000
  21473790.604    21473790.828    21473799.278   114749495.787 7  89249624.760 6
      4816.754        3746.364          46.000          41.000
  21144768.692    21144768.022    21144773.407   111116563.317 8  86584370.354 7
      2550.633        1987.504          52.000          43.000
  23085722.559    23085720.723    23085726.535   123233162.282 7  95848057.334 5
     -2975.297       -2314.083          44.000          35.000
  22513233.263    22513233.525    22513238.781   118307869.253 7  92187969.690 5
     -1862.238       -1451.092          47.000          33.000
  20635920.392    20635920.083    20635925.485   110349552.758 8  85827473.070 7
      4388.493        3413.275          51.000          46.000
  20754227.037    20754226.879    20754231.464   109064262.844 8  84985157.492 7
      1698.016        1323.131          52.000          42.000
  24488717.156    24488715.786    24488719.646   128689090.564 6 100277229.746 2
      -601.742        -468.880          41.000          17.000
  21789031.093    21789030.715    21789036.568   116352285.090 8  90496270.786 6
     -2570.127       -1998.990          48.000          41.000
  24050804.679    24050804.288    24050811.793   126387818.639 6  98484061.858 4
      4772.650        3718.957          41.000          25.000
  19061143.287    19061142.495    19061151.504   101642450.983 8  79055291.253 8
       551.496         428.940          53.000          49.000
  24210729.339    24210727.582    24210734.279   127228287.859 6  99138936.285 2
     -2544.396       -1982.631          38.000          16.000
  22054041.760    22054041.434    22054050.540   117891525.697 8  91693446.997 6
     -1543.579       -1200.557          48.000          41.000
  19629028.646    19629028.109    19629033.516   103151247.077 8  80377610.447 7
      1477.538        1151.331          53.000          44.000
  21889838.767    21889838.434    21889846.058   116808404.587 7  90851007.859 6
      2289.855        1780.993          47.000          40.000
  24984191.045    24984191.072    24984199.199   131292784.323 6 102306092.483 3
     -2023.814       -1576.997          38.000          18.000
  19070914.572    19070913.995                   101658775.197 8
       906.618     -214748.365          51.000
  23857575.103    23857574.395    23857581.482   125372427.143 6  97692803.861 3
      -201.735        -157.196          39.000          22.000
  22539007.881    22539006.177    22539011.716   118443338.223 7  92293545.378 3
     -2495.593       -1944.643          42.000          22.000
  20020387.185    20020386.598    20020394.032   107095598.555 8  83296616.832 7
       156.515         121.730          52.000          47.000
 11 10  1  0 11  0.0000000  0 20G14R15G09R22G15R24G17G11R13G12R03G26-0.000486734
                                R05G27R06G18R14G22G28R23
  24493764.140    24493762.679    24493771.804   128715619.377 6 100297878.546 2
      4616.681        3597.425          39.000          16.000
  21446775.293    21446775.044    21446783.653   114605131.787 7  89137341.734 7
      4807.329        3739.034          47.000          42.000
  21130247.426    21130246.939    21130252.503   111040255.319 8  86524909.603 7
      2536.378        1976.397          53.000          43.000
  23102465.580    23102469.089    23102476.925   123322576.409 6  95917601.859 6
     -2985.876       -2322.320          41.000          38.000
  22523901.826    22523901.709    22523907.388   118363931.770 7  92231654.744 5
     -1875.409       -1461.354          47.000          33.000
  20611355.611    20611355.381    20611360.768   110218193.749 8  85725304.997 7
      4368.534        3397.749          51.000          46.000
  20744596.693    20744596.465    20744600.772   109013653.650 8  84945721.770 7
      1675.734        1305.765          51.000          42.000
  24492191.631    24492192.620    24492196.869   128707364.502 6 100291469.396 3
      -616.641        -480.520          39.000          18.000
  21803498.852    21803497.841    21803504.108   116429539.410 8  90556357.449 6
     -2580.378       -2006.958          48.000          40.000
  24023569.846    24023569.915    24023577.177   126244703.251 7  98372543.486 4
      4768.192        3715.477          43.000          24.000
  19058101.600    19058100.744    19058109.636   101626230.800 8  79042675.568 8
       529.657         411.956          53.000          49.000
  24225266.126    24225266.049    24225273.381   127304690.916 6  99198471.130 2
     -2549.489       -1986.618          37.000          15.000
  22062764.860    22062764.716    22062773.386   117938158.356 8  91729716.767 6
     -1565.430       -1217.552          48.000          41.000
  19620659.226    19620658.975    19620664.359   103107266.660 8  80343340.019 7
      1454.266        1133.193          52.000          44.000
  21877043.031    21877042.425    21877049.419   116740120.285 7  90797897.880 6
      2262.242        1759.519          47.000          39.000
  24995767.106    24995766.458    24995775.621   131353616.655 6 102353494.205 2
     -2031.817       -1583.268          36.000          15.000
  19065874.649    19065873.665                   101631907.214 8
       884.352     -214748.365          51.000
  23858780.704    23858779.090    23858785.604   125378756.901 7  97697736.087 3
      -220.502        -171.812          42.000          23.000
  22553277.440    22553277.275    22553281.523   118518328.534 6  92351979.386 3
     -2504.081       -1951.240          41.000          21.000
  20019586.127    20019585.441    20019593.084   107091313.832 8  83293284.272 7
       128.946         100.291          52.000          47.000
 11 10  1  0 11 30.0000000  0 20G14R15G09R22G15R24G17G11R13G12R03G26 0.000491728
                                R05G27R06G18R14G22G28R23
  24767223.217    24767223.476    24767230.201   130152665.435 6 101417654.931 2
      4608.386        3590.912          36.000          14.000
  21719602.026    21719601.994    21719610.267   116063035.618 7  90271267.022 7
      4799.296        3732.786          47.000          42.000
  21415597.045    21415596.531    21415602.006   112539777.217 8  87693368.252 7
      2523.537        1966.393          53.000          43.000
  23419066.658    23419065.828    23419070.948   125012586.088 7  97232054.057 6
     -2994.356       -2329.006          45.000          37.000
  22834433.319    22834433.339    22834438.683   119995784.903 7  93503228.589 5
     -1887.033       -1470.414          46.000          33.000
  20886691.700    20886691.688    20886697.551   111690542.970 8  86870465.545 7
      4349.981        3383.312          51.000          46.000
  21034882.096    21034881.881    21034886.169   110539113.637 8  86134391.905 7
      1654.927        1289.550          53.000          42.000
  24795539.489    24795541.351    24795546.653   130301480.756 6 101533638.052 3
      -630.016        -490.883          36.000          18.000
  22117811.355    22117810.606    22117817.102   118107952.691 8  91861789.994 6
     -2589.108       -2013.750          48.000          41.000
  24296151.322    24296150.885    24296158.941   127677126.943 7  99488717.923 4
      4765.067        3713.033          42.000          25.000
  19354971.243    19354970.324    19354979.335   103209270.109 8  80273928.376 8
       509.318         396.137          53.000          49.000
  24539623.212    24539623.939    24539629.732   128956642.069 6 100485705.827 2
     -2552.940       -1989.298          38.000          16.000
  22371399.637    22371399.287    22371408.463   119587984.167 8  93012914.565 6
     -1585.671       -1233.292          48.000          41.000
  19912211.657    19912211.299    19912217.005   104639385.160 8  81537198.608 7
      1432.464        1116.199          53.000          44.000
  22164190.400    22164189.964    22164197.735   118272394.790 7  91989666.973 6
      2236.090        1739.180          47.000          40.000
  25307179.385    25307177.081    25307180.720   132990086.460 6 103628665.472 1
     -2038.322       -1588.273          41.000          11.000
  19360748.526    19360747.360                   103203750.107 8
       863.589     -214748.365          51.000
  24159880.297    24159878.404    24159885.769   126961046.655 7  98930689.092 3
      -237.664        -185.196          43.000          23.000
  22867383.390    22867383.396    22867387.743   120168967.902 6  93638191.897 3
     -2510.903       -1956.587          40.000          19.000
  20318727.674    20318727.395    20318735.021   108691521.649 8  84537890.359 7
       102.916          80.042          53.000          47.000
 11 10  1  0 12  0.0000000  0 20G14R15G09R22G15R24G17G11R13G12R03G26 0.000470187
                                R05G27R06G18R14G22G28R23
  24740942.891    24740941.563    24740949.923   130014559.401 6 101310040.081 2
      4598.752        3583.433          38.000          15.000
  21692685.558    21692684.932    21692693.523   115919200.669 7  90159395.435 7
      4789.766        3725.367          47.000          42.000
  21401231.559    21401230.635    21401236.172   112464284.393 8  87634542.694 7
      2509.374        1955.353          53.000          43.000
  23435920.195    23435920.389    23435926.001   125102567.479 7  97302039.843 6
     -3004.312       -2336.731          43.000          38.000
  22845242.122    22845242.530    22845248.383   120052588.766 7  93547491.302 5
     -1899.813       -1480.375          47.000          32.000
  20862342.763    20862342.812    20862349.544   111560344.427 8  86769200.046 7
      4329.948        3367.736          50.000          46.000
  21025497.715    21025497.555    21025501.692   110489798.886 8  86095964.837 7
      1632.794        1272.306          52.000          42.000
  24799183.520    24799180.305    24799185.427   130320597.968 6 101548534.703 3
      -644.461        -502.190          41.000          21.000
  22132385.213    22132384.928    22132390.826   118185777.195 8  91922320.151 6
     -2599.110       -2021.529          48.000          40.000
  24268962.145    24268961.592    24268968.360   127534240.710 7  99377378.127 4
      4760.666        3709.608          42.000          25.000
  19352166.679    19352166.159    19352175.135   103194317.336 8  80262298.451 8
       487.625         379.261          53.000          49.000
  24554213.124    24554209.538    24554217.809   129033303.043 6 100545441.610 2
     -2557.738       -1993.051          37.000          14.000
  22380358.942    22380358.696    22380367.816   119635876.760 7  93050164.260 6
     -1607.089       -1249.952          47.000          41.000
  19904100.233    19904099.872    19904105.544   104596759.525 8  81503983.845 7
      1409.312        1098.163          53.000          44.000
  22151696.436    22151696.098    22151703.059   118205724.480 8  91937812.312 6
      2208.601        1717.798          48.000          40.000
  25318839.094    25318836.926    25318841.475   133051353.774 6 103676406.372 1
     -2046.066       -1594.367          41.000          11.000
  19355950.915    19355949.815                   103178176.331 8
       841.390     -214748.365          51.000
  24161290.014    24161288.256    24161295.385   126968454.254 6  98936461.185 3
      -256.132        -199.583          41.000          23.000
  22881741.466    22881741.226    22881744.851   120244418.255 6  93696984.362 3
     -2519.019       -1962.883          40.000          19.000
  20318227.489    20318226.898    20318234.582   108688844.288 8  84535807.967 7
        75.635          58.828          52.000          47.000
 11 10  1  0 12 30.0000000  0 20G14R15G09R22G15R24G17G11R13G12R03G26 0.000448648
                                R05G27R06G18R14G22G28R23
  24714715.999    24714714.856    24714721.552   129876737.193 6 101202646.405 2
      4589.771        3576.420          38.000          15.000
  21665820.163    21665820.156    21665828.837   115775642.848 7  90047739.404 7
      4781.105        3718.639          47.000          42.000
  21386945.002    21386944.421    21386949.822   112389209.146 8  87576042.520 7
      2496.001        1944.938          53.000          43.000
  23452828.712    23452830.324    23452838.676   125192834.697 7  97372247.920 6
     -3013.210       -2343.579          42.000          39.000
  22856122.529    22856123.186    22856128.585   120109767.340 7  93592045.996 5
     -1911.716       -1489.645          46.000          32.000
  20838106.075    20838105.505    20838112.566   111430739.317 8  86668396.098 7
      4310.704        3352.771          50.000          46.000
  21016237.914    21016238.006    21016242.149   110441139.922 8  86058048.774 7
      1611.479        1255.700          51.000          42.000
  24802902.501    24802899.287    24802904.919   130340142.296 7 101563764.213 3
      -658.067        -512.782          42.000          18.000
  22147013.499    22147013.145    22147019.209   118263892.019 8  91983076.106 6
     -2608.188       -2028.586          48.000          40.000
  24241794.077    24241794.527    24241801.243   127391479.385 7  99266135.648 4
      4757.065        3706.803          42.000          25.000
  19349483.213    19349482.484    19349491.503   103180006.452 8  80251167.770 8
       466.771         363.045          53.000          49.000
  24568822.909    24568823.752    24568831.996   129110096.984 6 100605281.072 2
     -2561.572       -1996.024          37.000          15.000
  22389436.048    22389435.910    22389444.761   119684401.758 7  93087905.845 6
     -1627.565       -1265.880          47.000          41.000
  19896119.714    19896119.279    19896124.623   104554820.468 8  81471304.078 7
      1386.974        1080.759          52.000          44.000
  22139354.750    22139354.952    22139362.639   118139871.999 7  91886593.740 6
      2181.890        1697.031          47.000          39.000
  25330535.836    25330533.650    25330544.157   133112842.389 5 103724319.508 2
     -2052.819       -1599.598          35.000          14.000
  19351276.093    19351275.269                   103153258.308 8
       820.144     -214748.365          51.000
  24162802.373    24162802.013    24162808.132   126976406.203 6  98942657.427 3
      -273.650        -213.222          41.000          23.000
  22896144.422    22896143.807    22896147.624   120320102.787 6  93755959.349 3
     -2526.272       -1968.537          41.000          19.000
  20317878.081    20317877.704    20317885.233   108686976.029 8  84534354.878 7
        49.264          38.319          53.000          47.000
 11 10  1  0 13  0.0000000  0 20G14R15G09R22G15R24G17G11R13G12R03G26 0.000427110
                                R05G27R06G18R14G22G28R23
  24688542.486    24688542.897    24688549.172   129739199.484 6 101095474.356 2
      4579.665        3568.553          36.000          14.000
  21639006.839    21639007.023    21639015.398   115632362.186 7  89936298.994 7
      4771.178        3710.912          47.000          42.000
  21372737.413    21372737.228    21372742.807   112314550.548 8  87517867.019 7
      2481.448        1933.596          52.000          43.000
  23469794.441    23469793.403    23469800.507   125283381.795 7  97442673.648 6
     -3023.046       -2351.273          45.000          40.000
  22867073.572    22867074.032    22867079.795   120167315.257 7  93636888.500 5
     -1924.604       -1499.694          45.000          32.000
  20813980.825    20813980.288    20813986.797   111301728.714 8  86568054.549 7
      4290.208        3336.827          50.000          46.000
  21007102.834    21007102.901    21007107.180   110393134.810 8  86020642.205 6
      1589.066        1238.233          50.000          41.000
  24806701.404    24806701.123    24806702.463   130360110.041 7 101579323.662 3
      -672.787        -524.282          42.000          19.000
  22161695.457    22161695.204    22161701.420   118342292.849 8  92044054.516 6
     -2618.311       -2036.464          48.000          41.000
  24214650.735    24214652.166    24214658.629   127248842.066 7  99154989.791 4
      4752.251        3703.051          42.000          26.000
  19346919.546    19346918.736    19346927.472   103166335.283 8  80240534.651 8
       444.850         345.994          53.000          49.000
  24583460.036    24583460.525    24583468.674   129187019.311 5 100665220.608 2
     -2566.626       -2000.002          34.000          14.000
  22398632.156    22398631.429    22398640.656   119733553.182 8  93126134.641 6
     -1648.980       -1282.538          48.000          41.000
  19888269.143    19888268.738    19888274.286   104513566.421 8  81439158.086 7
      1363.496        1062.463          50.000          44.000
  22127167.388    22127167.374    22127175.626   118074836.478 8  91836010.625 6
      2153.969        1675.306          48.000          40.000
  25342280.005    25342278.239    25342286.653   133174546.454 6 103772400.427 2
     -2060.614       -1605.682          37.000          12.000
  19346724.099    19346723.266                   103128994.069 8
       797.714     -214748.365          51.000
  24164419.038    24164417.650    24164423.820   126984898.667 7  98949274.893 3
      -292.249        -227.723          42.000          23.000
  22910590.683    22910589.604    22910593.600   120396017.155 6  93815113.387 3
     -2534.531       -1974.947          40.000          18.000
  20317679.487    20317678.959    20317686.507   108685912.670 8  84533527.824 7
        21.836          16.981          53.000          47.000
 11 10  1  0 13 30.0000000  0 20G14R15G09R22G15R24G17G11R13G12R03G26 0.000405577
                                R05G27R06G18R14G22G28R23
  24662425.340    24662424.344    24662434.105   129601955.828 6 100988531.554 2
      4570.126        3561.146          36.000          13.000
  21612248.083    21612247.785    21612256.416   115489367.877 8  89825081.317 7
      4761.981        3703.755          48.000          42.000
  21358611.554    21358610.896    21358616.461   112240316.365 9  87460022.216 7
      2467.623        1922.823          54.000          43.000
  23486807.941    23486808.261    23486812.941   125374211.531 6  97513319.258 6
     -3031.975       -2358.175          36.000          40.000
  22878095.806    22878096.276    22878101.972   120225236.425 7  93682021.846 5
     -1936.647       -1509.072          46.000          32.000
  20789968.347    20789968.047    20789974.235   111173322.388 8  86468183.000 7
      4270.327        3321.367          51.000          46.000
  20998093.528    20998093.532    20998097.792   110345790.255 8  85983750.359 7
      1567.386        1221.341          52.000          42.000
  24810580.848    24810580.447    24810587.843   130380505.999 6 101595216.710 3
      -686.709        -535.093          40.000          20.000
  22176432.089    22176431.605    22176437.764   118420983.651 7  92105258.468 6
     -2627.605       -2043.689          47.000          41.000
  24187533.789    24187533.549    24187540.552   127106336.653 7  99043946.742 4
      4748.241        3699.931          43.000          26.000
  19344476.642    19344475.806    19344484.915   103153309.368 8  80230403.393 8
       423.682         329.531          53.000          49.000
  24598127.374    24598125.936    24598131.350   129264073.591 6 100725262.887 2
     -2570.308       -2002.808          37.000          12.000
  22407943.532    22407943.200    22407952.826   119783333.821 7  93164852.831 6
     -1669.562       -1298.550          47.000          41.000
  19880550.352    19880550.073    19880555.719   104473004.362 8  81407551.302 7
      1340.775        1044.759          53.000          44.000
  22115134.467    22115134.048    22115141.726   118010626.106 7  91786069.293 6
      2126.873        1654.235          47.000          40.000
  25354061.562    25354063.296    25354069.927   133236469.158 6 103820651.912 2
     -2067.432       -1611.027          40.000          15.000
  19342296.000    19342295.316                   103105390.078 8
       776.048     -214748.365          51.000
  24166138.766    24166138.135    24166143.544   126993936.223 7  98956317.097 3
      -310.081        -241.613          42.000          23.000
  22925080.731    22925079.321    22925084.892   120472165.530 6  93874449.805 2
     -2541.902       -1980.694          39.000          17.000
  20317632.102    20317631.564    20317639.028   108685658.727 8  84533330.322 7
        -4.756          -3.699          53.000          47.000
 11 10  1  0 14  0.0000000  0 20G14R15G09R22G15R24G17G11R13G12R03G26 0.000384041
                                R05G27R06G18R14G22G28R23
  24636360.816    24636361.487    24636371.037   129464996.145 5 100881810.048 1
      4560.080        3553.325          33.000          10.000
  21585539.219    21585539.552    21585547.691   115346649.308 7  89714078.090 7
      4752.179        3696.136          47.000          42.000
  21344563.632    21344563.121    21344568.533   112166494.627 8  87402498.801 7
      2453.311        1911.672          52.000          43.000
  23503875.192    23503874.843    23503880.415   125465306.607 7  97584171.303 6
     -3041.362       -2365.528          44.000          39.000
  22889186.746    22889186.316    22889192.175   120283514.972 7  93727433.677 5
     -1949.042       -1518.740          46.000          32.000
  20766066.590    20766066.264    20766072.991   111045510.612 8  86368773.876 7
      4249.904        3305.481          50.000          47.000
  20989207.548    20989207.461    20989211.577   110299093.171 8  85947363.038 7
      1545.264        1204.102          52.000          42.000
  24814543.767    24814541.754    24814541.681   130401315.509 6 101611432.131 3
      -700.969        -546.218          41.000          18.000
  22191219.592    22191219.068    22191225.378   118499949.464 7  92166676.318 6
     -2637.265       -2051.202          47.000          40.000
  24160439.558    24160438.375    24160444.761   126963951.630 7  98932997.483 4
      4743.619        3696.331          43.000          26.000
  19342152.551    19342151.758    19342160.718   103140915.467 8  80220763.700 8
       402.057         312.709          53.000          49.000
  24612808.505    24612809.106    24612815.494   129341244.517 5 100785396.131 2
     -2574.805       -2006.339          35.000          12.000
  22417370.973    22417370.406    22417379.398   119833726.679 8  93204047.206 6
     -1690.477       -1314.814          48.000          40.000
  19872960.873    19872960.616    19872966.241   104433122.020 8  81376474.163 7
      1317.557        1026.671          52.000          44.000
  22103254.660    22103254.441    22103261.784   117947228.575 8  91736760.153 6
      2099.126        1632.652          48.000          40.000
  25365884.059    25365887.245    25365889.211   133298594.564 6 103869061.542 1
     -2074.698       -1616.692          38.000           6.000
  19337989.211    19337988.395                   103082433.478 8
       753.913     -214748.365          51.000
  24167958.889    24167958.177    24167964.434   127003503.593 6  98963772.171 3
      -328.264        -255.793          41.000          23.000
  22939612.807    22939612.848    22939617.086   120548532.652 6  93933956.674 2
     -2549.702       -1986.788          39.000          16.000
  20317733.089    20317732.660    20317740.046   108686199.190 8  84533750.691 7
       -31.776         -24.714          53.000          47.000
 11 10  1  0 14 30.0000000  0 20G14R15G09R22G15R24G17G11R13G12R03G26 0.000362513
                                R05G27R06G18R14G22G28R23
  24610358.176    24610358.609    24610363.141   129328340.122 5 100775325.150 1
      4550.498        3545.844          35.000          10.000
  21558887.312    21558887.243    21558896.028   115204227.441 7  89603305.635 7
      4742.830        3688.867          47.000          42.000
  21330597.729    21330597.306    21330602.814   112093104.148 8  87345311.436 7
      2439.533        1900.936          53.000          44.000
  23520993.139    23520992.080    23520999.152   125556680.662 7  97655240.242 6
     -3050.010       -2372.234          43.000          40.000
  22900347.365    22900347.438    22900352.826   120342165.467 7  93773135.328 5
     -1960.798       -1527.887          47.000          32.000
  20742280.788    20742280.024    20742286.509   110918314.007 8  86269843.216 7
      4230.002        3290.003          51.000          47.000
  20980447.914    20980447.778    20980452.093   110253061.199 8  85911493.985 7
      1523.692        1187.291          50.000          42.000
  24818583.867    24818583.893    24818584.726   130422553.869 6 101627981.712 3
      -714.739        -556.953          40.000          21.000
  22206062.053    22206061.294    22206067.387   118579205.279 8  92228319.719 6
     -2646.300       -2058.237          48.000          40.000
  24133370.631    24133370.210    24133376.718   126821705.621 7  98822156.556 4
      4739.561        3693.164          43.000          26.000
  19339949.821    19339949.284    19339958.141   103129171.167 8  80211629.259 8
       381.033         296.357          53.000          49.000
  24627520.543    24627520.208    24627527.443   129418546.296 5 100845631.288 2
     -2578.577       -2009.242          35.000          13.000
  22426914.715    22426914.518    22426924.028   119884745.077 7  93243728.126 6
     -1710.605       -1330.466          47.000          41.000
  19865504.562    19865504.136    19865509.630   104393937.242 8  81345940.576 7
      1294.890        1009.006          51.000          44.000
  22091528.493    22091528.325    22091536.497   117884663.198 7  91688098.237 6
      2072.014        1611.562          47.000          40.000
  25377748.581    25377745.713    25377754.699   133360937.172 6 103917640.086 1
     -2081.309       -1621.795          36.000          10.000
  19333807.273    19333806.540                   103060141.831 8
       732.365     -214748.365          51.000
  24169883.044    24169882.425    24169889.626   127013616.523 6  98971652.331 3
      -345.829        -269.475          41.000          23.000
  22954189.535    22954189.372    22954193.195   120625133.392 6  93993645.580 2
     -2556.915       -1992.419          39.000          16.000
  20317985.301    20317984.903    20317992.494   108687549.364 8  84534800.834 7
       -58.087         -45.180          52.000          47.000
 11 10  1  0 15  0.0000000  0 20G14R15G09R22G15R24G17G11R13G12R03G26 0.000340991
                                R05G27R06G18R14G22G28R23
  24584409.655    24584410.683    24584420.121   129191987.819 5 100669076.747 1
      4539.791        3537.537          34.000           9.000
  21532290.182    21532289.793    21532298.491   115062100.663 7  89492762.662 7
      4732.364        3680.727          47.000          43.000
  21316714.348    21316713.368    21316718.782   112020143.349 8  87288458.885 7
      2424.597        1889.296          52.000          43.000
  23538159.819    23538159.968    23538165.409   125648327.115 7  97726521.114 6
     -3059.678       -2379.751          43.000          37.000
  22911577.932    22911577.839    22911583.586   120401182.315 7  93819122.455 5
     -1973.562       -1537.836          47.000          32.000
  20718609.833    20718609.404    20718615.387   110791733.207 8  86171391.509 7
      4208.823        3273.528          51.000          47.000
  20971814.373    20971814.199    20971818.464   110207691.885 8  85876141.288 7
      1501.016        1169.626          52.000          42.000
  24822706.617    24822703.685    24822709.833   130444216.913 6 101644862.145 3
      -729.403        -568.352          41.000          19.000
  22220957.473    22220956.885    22220962.854   118658746.441 8  92290185.065 6
     -2656.354       -2066.050          48.000          40.000
  24106327.516    24106327.993    24106334.323   126679597.784 7  98711423.282 4
      4734.312        3689.077          44.000          26.000
  19337868.855    19337868.164    19337876.959   103118073.627 8  80202997.849 8
       358.899         279.144          53.000          49.000
  24642257.856    24642257.252    24642261.594   129495973.809 6 100905964.449 2
     -2583.304       -2012.914          37.000          12.000
  22436574.610    22436574.152    22436584.118   119936382.268 7  93283890.310 6
     -1731.760       -1346.922          47.000          41.000
  19858180.001    19858179.817    19858185.443   104355448.024 8  81315948.988 7
      1271.140         990.500          52.000          44.000
  22079960.726    22079960.379    22079967.396   117822928.267 8  91640082.219 6
      2043.700        1589.548          48.000          40.000
  25389652.818    25389650.070    25389659.590   133423490.891 6 103966383.116 3
     -2088.844       -1627.674          41.000          18.000
  19329750.076    19329749.078                   103038512.486 8
       709.694     -214748.365          51.000
  24171910.620    24171910.115    24171917.608   127024270.324 6  98979953.904 3
      -364.373        -283.939          41.000          22.000
  22968808.087    22968810.431    22968813.921   120701962.672 6  94053512.557 2
     -2564.956       -1998.688          38.000          14.000
  20318388.272    20318387.879    20318395.380   108689704.742 8  84536477.242 7
       -85.485         -66.488          52.000          47.000
 11 10  1  0 15 30.0000000  0 20G14R15G09R22G15R24G17G11R13G12R03G26 0.000319485
                                R05G27R06G18R14G22G28R23
  24558528.530    24558520.831    24558531.401   129055958.981 5 100563080.465 1
      4528.943        3529.055          32.000           5.000
  21505752.017    21505752.071    21505759.994   114920288.969 7  89382464.735 7
      4721.842        3672.544          47.000          42.000
  21302914.586    21302914.441    21302919.836   111947629.893 8  87231954.918 7
      2409.676        1877.669          52.000          43.000
  23555382.282    23555381.243    23555386.797   125740258.784 7  97798023.713 6
     -3069.014       -2387.035          45.000          37.000
  22922881.061    22922880.557    22922886.326   120460579.078 7  93865405.603 5
     -1986.166       -1547.650          47.000          32.000
  20695057.217    20695056.958    20695062.883   110665787.976 8  86073434.147 7
      4187.603        3257.024          51.000          46.000
  20963309.869    20963309.963    20963314.159   110163001.773 8  85841317.840 7
      1478.380        1151.983          49.000          42.000
  24826912.691    24826909.832    24826911.067   130466319.103 7 101662084.836 3
      -743.982        -579.764          42.000          18.000
  22235908.346    22235908.494    22235914.652   118738587.360 8  92352283.550 6
     -2666.311       -2073.797          48.000          40.000
  24079314.629    24079315.216    24079321.558   126537646.125 7  98600811.691 4
      4729.148        3685.044          44.000          26.000
  19335911.841    19335911.265    19335920.135   103107638.572 8  80194881.706 8
       336.847         261.991          53.000          49.000
  24657018.850    24657015.754    24657018.931   129573541.136 6 100966406.539 1
     -2587.778       -2016.416          38.000          10.000
  22446353.319    22446352.788    22446361.913   119988651.197 7  93324543.823 6
     -1752.722       -1363.230          47.000          41.000
  19850991.536    19850991.024    19850996.655   104317671.199 8  81286512.514 7
      1247.393         971.994          51.000          44.000
  22068549.599    22068549.137    22068557.276   117762041.601 8  91592725.960 6
      2015.426        1567.552          48.000          40.000
  25401598.118    25401598.470    25401605.325   133486268.882 6 104015300.954 3
     -2096.249       -1633.437          41.000          19.000
  19325819.616    19325818.924                   103017562.587 8
       687.070     -214748.365          51.000
  24174044.204    24174043.057    24174050.206   127035479.307 6  98988688.104 3
      -382.804        -298.294          41.000          23.000
  22983475.869    22983474.541    22983478.513   120779034.492 6  94113568.507 2
     -2572.996       -2004.915          37.000          13.000
  20318944.605    20318943.982    20318951.369   108692679.922 8  84538791.275 7
      -112.770         -87.712          52.000          47.000
 11 10  1  0 16  0.0000000  0 20G14R15G09R22G15R24G17G11R13G12R03G26 0.000297986
                                R05G27R06G18R14G22G28R23
  24532701.289    24532699.860    24532706.189   128920241.331 6 100457326.606 1
      4518.413        3520.782          36.000           7.000
  21479269.939    21479270.223    21479279.283   114778779.918 7  89272402.205 7
      4711.623        3664.592          47.000          43.000
  21289198.640    21289198.093    21289203.538   111875550.293 8  87175789.019 7
      2395.110        1866.316          53.000          43.000
  23572651.625    23572651.558    23572656.453   125832456.425 7  97869733.234 6
     -3077.919       -2393.974          43.000          36.000
  22934252.806    22934252.486    22934258.183   120520338.028 7  93911970.985 5
     -1998.283       -1557.115          47.000          32.000
  20671621.408    20671620.936    20671626.909   110540466.617 8  85975962.009 7
      4166.660        3240.736          51.000          46.000
  20954932.367    20954932.127    20954936.328   110118975.983 8  85807012.050 7
      1456.149        1134.659          50.000          42.000
  24831193.744    24831193.265    24831200.233   130488843.749 6 101679636.660 3
      -758.078        -590.685          38.000          19.000
  22250913.914    22250913.013    22250919.035   118818711.087 8  92414601.986 6
     -2675.787       -2081.168          48.000          40.000
  24052328.786    24052329.844    24052336.308   126395836.469 7  98490310.756 4
      4724.328        3681.297          44.000          26.000
  19334076.618    19334075.617    19334084.577   103097851.009 8  80187269.169 8
       315.143         245.113          53.000          49.000
  24671796.829    24671798.116    24671805.248   129651230.391 6 101026943.705 2
     -2591.963       -2019.712          36.000          13.000
  22456245.277    22456244.903    22456254.406   120041532.900 7  93365673.943 6
     -1773.226       -1379.179          47.000          41.000
  19843935.683    19843935.321    19843940.730   104280592.290 8  81257619.873 7
      1224.030         953.790          52.000          44.000
  22057297.096    22057296.546    22057303.455   117701989.541 8  91546018.833 6
      1987.492        1545.825          48.000          40.000
  25413583.184    25413583.580    25413586.542   133549253.501 6 104064379.921 2
     -2103.203       -1638.888          36.000          13.000
  19322013.973    19322013.396                   102997276.524 8
       664.848     -214748.365          51.000
  24176280.419    24176278.483    24176285.969   127047226.789 7  98997841.898 3
      -400.844        -312.347          42.000          23.000
  22998185.064    22998183.546    22998190.520   120856331.589 6  94173799.973 2
     -2580.655       -2010.932          36.000          12.000
  20319650.712    20319650.086    20319657.593   108696457.440 8  84541729.352 7
      -139.587        -108.568          53.000          46.000
 11 10  1  0 16 30.0000000  0 20G14R15G09R22G15R24G17G11R13G12R03G26 0.000276491
                                R05G27R06G18R14G22G28R23
  24506933.736    24506929.181    24506939.120   128784833.476 6 100351814.069 1
      4508.357        3513.051          36.000           8.000
  21452844.770    21452844.885    21452852.887   114637571.598 7  89162573.606 7
      4701.862        3657.000          47.000          42.000
  21275564.734    21275563.804    21275569.280   111803901.267 8  87119958.635 7
      2381.111        1855.412          52.000          43.000
  23589970.606    23589971.442    23589977.714   125924912.235 7  97941643.562 6
     -3086.152       -2400.320          44.000          36.000
  22945691.693    22945691.903    22945697.195   120580452.219 7  93958813.184 5
     -2009.735       -1566.033          45.000          32.000
  20648302.042    20648301.468    20648307.443   110415767.717 8  85878974.013 7
      4146.190        3224.809          51.000          47.000
  20946680.094    20946679.946    20946684.161   110075610.464 8  85773220.750 7
      1434.479        1117.776          50.000          42.000
  24835561.102    24835559.646    24835565.384   130511784.968 6 101697513.153 3
      -771.606        -601.253          39.000          19.000
  22265970.097    22265969.462    22265975.510   118899110.897 7  92477135.177 6
     -2684.577       -2088.005          47.000          40.000
  24025369.749    24025370.659    24025376.969   126254166.514 7  98379918.693 4
      4719.971        3677.905          43.000          26.000
  19332361.244    19332360.695    19332369.430   103088706.179 8  80180156.537 8
       294.123         228.762          53.000          49.000
  24686605.210    24686600.229    24686608.458   129729035.126 5 101087570.754 1
     -2595.510       -2022.449          35.000           6.000
  22466251.457    22466250.896    22466260.630   120095018.752 7  93407273.988 6
     -1792.905       -1394.482          47.000          41.000
  19837011.932    19837011.433    19837017.025   104244207.632 8  81229268.204 7
      1201.230         936.025          52.000          44.000
  22046198.063    22046197.329    22046204.968   117642768.904 7  91499958.346 6
      1960.162        1524.569          47.000          40.000
  25425608.891    25425603.903    25425614.134   133612437.421 6 104113614.187 1
     -2109.442       -1643.743          37.000           7.000
  19318332.130    19318331.417                   102977650.401 8
       643.215     -214748.365          51.000
  24178616.425    24178615.365    24178621.404   127059506.458 6  99007410.367 3
      -418.181        -325.869          40.000          22.000
  23012936.414    23012934.580    23012940.134   120933847.749 6  94234202.233 2
     -2587.622       -2016.353          37.000          12.000
  20320505.667    20320505.161    20320512.598   108701031.230 8  84545286.749 7
      -165.708        -128.887          53.000          46.000
 11 10  1  0 17  0.0000000  0 20G14R15G09R22G15R24G17G11R13G12R03G26 0.000255004
                                R05G27R06G18R14G22G28R23
  24481226.016    24481225.195    24481230.274   128649744.004 6 100246549.685 1
      4497.500        3504.545          36.000           9.000
  21426477.514    21426477.651    21426486.128   114496673.084 7  89052985.962 7
      4691.320        3648.799          47.000          43.000
  21262012.936    21262012.602    21262018.107   111732689.850 8  87064469.243 7
      2366.278        1843.850          52.000          43.000
  23607340.903    23607340.918    23607347.030   126017628.076 7  98013756.083 5
     -3094.957       -2407.184          46.000          35.000
  22957199.566    22957199.583    22957205.115   120640924.587 7  94005934.470 5
     -2021.825       -1575.441          47.000          31.000
  20625100.677    20625100.463    20625106.270   110291700.646 8  85782477.441 7
      4124.879        3208.239          52.000          46.000
  20938554.657    20938554.585    20938558.584   110032910.782 8  85739948.289 7
      1412.087        1100.330          52.000          42.000
  24840002.889    24840004.708    24840009.872   130535146.841 6 101715717.342 3
      -785.865        -612.346          38.000          19.000
  22281078.652    22281077.944    22281084.393   118979790.893 7  92539886.289 6
     -2694.091       -2095.407          47.000          40.000
  23998439.526    23998439.270    23998445.881   126112643.302 7  98269640.964 4
      4714.820        3673.892          44.000          26.000
  19330768.166    19330767.265    19330776.249   103080209.291 8  80173547.859 8
       272.299         211.789          53.000          49.000
  24701433.567    24701433.146    24701438.033   129806958.107 6 101148290.043 2
     -2599.516       -2025.603          39.000          12.000
  22476370.603    22476370.360    22476379.339   120149111.004 7  93449345.668 6
     -1813.292       -1410.335          47.000          41.000
  19830221.360    19830220.930    19830226.554   104208523.441 8  81201462.348 7
      1177.663         917.662          52.000          44.000
  22035257.680    22035257.334    22035264.533   117584386.504 8  91454549.813 6
      1931.998        1502.660          48.000          40.000
  25437669.286    25437668.134    25437675.793   133675822.930 6 104163005.444 3
     -2116.312       -1649.081          41.000          20.000
  19314775.529    19314774.571                   102958689.780 8
       620.805     -214748.365          51.000
  24181055.899    24181054.196    24181061.082   127072322.304 6  99017396.668 3
      -436.223        -339.902          40.000          22.000
  23027727.591    23027728.650    23027731.730   121011586.376 5  94294777.783 2
     -2595.221       -2022.250          35.000          12.000
  20321510.013    20321509.520    20321517.121   108706404.538 8  84549465.994 7
      -192.556        -149.765          52.000          47.000
 11 10  1  0 17 30.0000000  0 20G14R15G09R22G15R24G17G11R13G12R03G26 0.000233529
                                R05G27R06G18R14G22G28R23
  24455582.749    24455580.588    24455588.639   128514981.464 6 100141540.033 1
      4487.015        3496.391          36.000          10.000
  21400168.949    21400169.515    21400178.399   114356092.287 7  88943645.424 7
      4681.178        3640.912          47.000          43.000
  21248546.798    21248546.134    21248551.444   111661922.552 8  87009325.921 7
      2351.960        1832.697          53.000          44.000
  23624758.816    23624757.848    23624763.602   126110605.584 7  98086072.092 6
     -3103.063       -2413.503          44.000          37.000
  22968775.769    22968775.747    22968781.076   120701757.484 7  94053336.692 5
     -2033.244       -1584.341          47.000          31.000
  20602018.943    20602018.572    20602024.692   110168273.531 8  85686478.619 7
      4104.006        3192.003          51.000          47.000
  20930557.028    20930556.754    20930560.827   109990882.490 8  85707198.993 7
      1390.229        1083.293          52.000          42.000
  24844527.007    24844530.907    24844536.057   130558932.802 6 101734252.093 3
      -799.439        -622.921          36.000          19.000
  22296240.624    22296239.777    22296246.119   119060753.527 7  92602857.226 6
     -2702.942       -2102.287          47.000          40.000
  23971537.943    23971537.668    23971544.323   125971273.935 7  98159483.138 4
      4710.193        3670.262          44.000          26.000
  19329297.151    19329296.370    19329305.279   103072365.553 8  80167447.186 8
       251.072         195.280          53.000          49.000
  24716277.697    24716282.736    24716292.055   129885002.152 5 101209103.656 2
     -2603.253       -2028.547          33.000          13.000
  22486602.219    22486601.774    22486612.528   120203810.750 7  93491889.827 6
     -1832.952       -1425.625          46.000          41.000
  19823565.445    19823564.897    19823570.408   104173545.408 8  81174206.749 7
      1154.641         899.720          53.000          44.000
  22024475.118    22024474.644    22024482.414   117526849.045 8  91409798.485 6
      1904.310        1481.133          48.000          40.000
  25449767.839    25449769.341    25449776.712   133739412.444 6 104212555.679 3
     -2122.541       -1653.917          39.000          21.000
  19311344.119    19311343.456                   102940400.297 8
       598.940     -214748.365          50.000
  24183597.248    24183595.870    24183602.872   127085677.379 6  99027803.187 3
      -453.669        -353.514          41.000          22.000
  23042565.162    23042566.216    23042566.184   121089550.160 6  94355528.780 2
     -2601.992       -2027.533          36.000          12.000
  20322664.769    20322664.259    20322671.722   108712580.908 8  84554269.848 7
      -218.767        -170.153          53.000          47.000
 11 10  1  0 18  0.0000000  0 20G14R15G09R22G15R24G17G11R13G12R03G26 0.000212062
                                R05G27R06G18R14G22G28R23
  24429997.511    24430000.983    24430003.904   128380541.343 6 100036781.705 2
      4476.254        3487.989          38.000          12.000
  21373920.510    21373920.464    21373928.757   114215824.366 8  88834548.248 7
      4670.690        3632.752          48.000          43.000
  21235163.313    21235162.784    21235168.251   111591593.085 8  86954523.763 7
      2337.358        1821.314          52.000          44.000
  23642223.167    23642223.225    23642229.567   126203833.579 7  98158582.905 6
     -3111.383       -2419.956          45.000          38.000
  22980418.231    22980418.383    22980423.959   120762940.745 7  94101011.926 5
     -2044.912       -1593.433          47.000          32.000
  20579055.648    20579055.419    20579062.410   110045482.361 8  85590974.408 7
      4082.739        3175.460          51.000          47.000
  20922685.373    20922685.409    20922689.555   109949518.356 8  85674967.220 7
      1368.075        1066.031          50.000          42.000
  24849137.616    24849137.135    24849139.853   130583133.965 6 101753110.297 3
      -813.234        -633.714          40.000          18.000
  22311453.298    22311452.460    22311459.074   119141989.760 7  92666040.976 6
     -2712.078       -2109.393          47.000          40.000
  23944663.456    23944663.782    23944670.389   125830052.299 7  98049440.408 4
      4705.270        3666.450          43.000          26.000
  19327947.380    19327946.627    19327955.227   103065167.152 8  80161848.444 8
       229.534         178.526          53.000          49.000
  24731157.730    24731157.071    24731160.042   129963157.556 6 101270004.001 1
     -2606.649       -2031.148          38.000           9.000
  22496948.696    22496947.942    22496956.798   120259106.731 7  93534897.755 6
     -1852.728       -1441.009          47.000          40.000
  19817042.314    19817041.780    19817047.240   104139266.695 8  81147496.073 7
      1131.303         881.537          53.000          44.000
  22013849.735    22013849.570    22013857.038   117470150.250 8  91365699.445 6
      1876.315        1459.352          48.000          40.000
  25461906.492    25461904.553    25461916.077   133803195.984 5 104262257.060 2
     -2128.946       -1658.940          35.000          14.000
  19308037.923    19308036.825                   102922774.596 8
       576.826     -214748.365          51.000
  24186239.707    24186238.207    24186245.068   127099562.793 6  99038622.946 3
      -471.352        -367.290          41.000          22.000
  23057441.745    23057442.413    23057446.717   121167729.966 6  94416448.116 1
     -2609.116       -2033.081          36.000          11.000
  20323967.712    20323967.274    20323974.562   108719550.633 8  84559690.749 7
      -245.156        -190.679          53.000          46.000
 11 10  1  0 18 30.0000000  0 20G14R15G09R22G15R24G17G11R13G12R03G26 0.000190600
                                R05G27R06G18R14G22G28R23
  24404475.294    24404477.022    24404482.835   128246426.138 6  99932276.601 2
      4465.148        3479.299          38.000          12.000
  21347729.689    21347729.829    21347738.743   114075871.724 7  88725696.311 7
      4659.853        3624.325          47.000          43.000
  21221863.506    21221863.038    21221868.485   111521702.380 8  86900063.503 7
      2322.447        1809.699          53.000          43.000
  23659733.047    23659733.643    23659739.244   126297307.542 7  98231285.000 6
     -3119.772       -2426.497          44.000          38.000
  22992127.608    22992127.162    22992132.841   120824471.109 7  94148957.636 5
     -2056.701       -1602.625          47.000          31.000
  20556212.750    20556212.513    20556219.479   109923329.842 8  85495966.929 7
      4061.163        3158.681          51.000          47.000
  20914940.274    20914940.316    20914944.294   109908817.811 8  85643252.530 6
      1345.689        1048.588          52.000          41.000
  24853817.138    24853821.255    24853828.762   130607747.806 5 101772290.071 3
      -827.413        -644.703          35.000          19.000
  22326717.558    22326716.571    22326722.914   119223496.994 7  92729435.490 6
     -2721.325       -2116.584          47.000          41.000
  23917818.365    23917818.757    23917825.270   125688979.902 7  97939513.956 4
      4700.019        3662.355          44.000          27.000
  19326717.654    19326717.384    19326726.234   103058613.464 8  80156751.147 8
       207.814         161.633          53.000          49.000
  24746050.729    24746048.238    24746054.076   130041421.175 6 101330988.806 2
     -2610.483       -2034.114          36.000          13.000
  22507401.213    22507401.698    22507411.285   120314994.243 7  93578365.758 6
     -1872.663       -1456.512          46.000          40.000
  19810652.229    19810651.896    19810657.403   104105687.228 8  81121330.263 7
      1107.731         863.165          53.000          44.000
  22003382.054    22003380.960    22003388.717   117414290.662 8  91322253.114 6
      1848.038        1437.364          48.000          40.000
  25474080.022    25474080.478    25474084.860   133867169.335 6 104312106.586 1
     -2135.493       -1664.064          38.000           8.000
  19304855.731    19304854.852                   102905812.257 8
       554.454     -214748.365          51.000
  24188981.112    24188981.027    24188987.004   127113975.686 6  99049853.701 3
      -489.101        -381.117          41.000          22.000
  23072359.056    23072360.193    23072362.709   121246122.753 5  94477533.408 1
     -2616.592       -2038.910          34.000          11.000
  20325418.399    20325417.887    20325425.210   108727310.934 8  84565726.550 7
      -271.750        -211.362          53.000          46.000
 11 10  1  0 19  0.0000000  0 20G14R15G09R22G15R24G17G11R13G12R03G26 0.000169147
                                R05G27R06G18R14G22G28R23
  24379018.165    24379017.305    24379024.116   128112644.214 5  99828031.150 2
      4454.473        3471.021          35.000          12.000
  21321600.467    21321600.572    21321609.427   113936243.625 8  88617096.788 7
      4649.505        3616.275          48.000          43.000
  21208648.571    21208648.072    21208653.501   111452257.561 8  86845950.690 7
      2308.044        1798.475          53.000          43.000
  23677289.735    23677289.891    23677296.041   126391029.722 7  98304180.073 6
     -3127.516       -2432.514          42.000          37.000
  23003903.217    23003902.526    23003908.533   120886351.815 7  94197176.349 5
     -2067.863       -1611.326          46.000          31.000
  20533491.013    20533490.813    20533497.362   109801824.853 8  85401463.078 7
      4040.006        3142.228          51.000          47.000
  20907322.727    20907322.743    20907326.674   109868786.770 8  85612059.537 7
      1323.837        1031.563          52.000          42.000
  24858577.556    24858583.217    24858589.685   130632778.575 5 101791794.761 3
      -840.662        -655.032          35.000          18.000
  22342032.223    22342031.602    22342038.031   119305279.066 7  92793043.769 6
     -2729.937       -2123.283          47.000          41.000
  23891004.102    23891003.411    23891009.866   125548063.330 7  97829708.943 4
      4695.249        3658.632          45.000          27.000
  19325611.007    19325610.298    19325619.159   103052710.190 8  80152159.722 8
       186.618         145.146          53.000          49.000
  24760962.208    24760960.848    24760968.448   130119796.291 5 101392060.255 2
     -2613.685       -2036.653          33.000          12.000
  22517968.088    22517968.135    22517977.807   120371475.299 7  93622295.412 6
     -1891.860       -1471.445          47.000          41.000
  19804396.532    19804396.129    19804401.713   104072813.126 8  81095714.091 7
      1084.686         845.211          52.000          44.000
  21993072.742    21993072.262    21993078.986   117359277.264 8  91279464.949 6
      1820.351        1415.833          48.000          40.000
  25486289.959    25486292.199    25486298.009   133931335.838 6 104362106.487 2
     -2141.403       -1668.636          38.000          14.000
  19301798.830    19301798.222                   102889519.038 8
       532.635     -214748.365          51.000
  24191825.221    24191824.592    24191831.211   127128920.110 6  99061498.635 3
      -506.361        -394.576          41.000          21.000
  23087319.320    23087318.492    23087322.077   121324732.190 5  94538787.491 1
     -2623.199       -2044.091          35.000           9.000
  20327017.543    20327017.112    20327024.469   108735865.336 8  84572379.983 7
      -297.709        -231.551          52.000          47.000
 11 10  1  0 19 30.0000000  0 20G14R15G09R22G15R24G17G11R13G12R03G26 0.000147710
                                R05G27R06G18R14G22G28R23
  24353624.241    24353624.988    24353632.406   127979202.469 6  99724050.899 2
      4441.909        3461.233          38.000          14.000
  21295532.698    21295532.697    21295540.866   113796945.421 8  88508753.838 7
      4637.275        3606.766          48.000          43.000
  21195519.454    21195519.077    21195524.335   111383263.547 8  86792189.152 7
      2291.882        1785.882          52.000          43.000
  23694893.627    23694893.381    23694900.230   126485000.195 6  98377268.278 6
     -3136.886       -2439.801          41.000          37.000
  23015745.469    23015745.058    23015750.568   120948583.640 7  94245668.647 5
     -2080.672       -1621.293          45.000          31.000
  20510891.479    20510891.092    20510897.638   109680974.500 8  85307468.397 7
      4016.978        3124.315          51.000          47.000
  20899833.259    20899833.133    20899837.050   109829428.914 8  85581391.102 6
      1300.262        1013.189          51.000          41.000
  24863429.486    24863428.178    24863426.537   130658227.947 6 101811625.570 2
      -855.657        -666.767          40.000          17.000
  22357399.361    22357398.580    22357404.526   119387337.172 7  92856866.755 6
     -2740.265       -2131.316          47.000          40.000
  23864218.779    23864218.103    23864224.375   125407308.325 7  97720029.844 4
      4688.727        3653.543          44.000          27.000
  19324626.519    19324625.845    19324634.702   103047460.065 8  80148076.304 8
       163.706         127.327          53.000          49.000
  24775900.178    24775900.320    24775903.726   130198283.748 6 101453219.439 2
     -2618.483       -2040.417          38.000          13.000
  22528646.278    22528645.322    22528654.761   120428549.668 7  93666686.509 6
     -1912.710       -1487.658          47.000          40.000
  19798275.503    19798275.174    19798280.863   104040648.461 8  81070650.722 7
      1059.907         825.902          52.000          44.000
  21982922.421    21982921.340    21982929.217   117305114.374 8  91237338.296 6
      1790.816        1392.857          48.000          40.000
  25498536.806    25498536.806    25498547.313   133995696.147 5 104412257.360 2
     -2148.968       -1674.524          34.000          16.000
  19298868.780    19298867.931                   102873898.394 8
       509.033     -214748.365          51.000
  24194770.686    24194769.359    24194776.933   127144397.647 6  99073559.001 3
      -525.241        -409.279          41.000          21.000
  23102318.111    23102318.945    23102324.603   121403559.648 5  94600211.506 1
     -2631.593       -2050.647          35.000           8.000
  20328765.454    20328765.003    20328772.335   108745215.586 8  84579652.407 7
      -325.379        -253.071          53.000          46.000
 11 10  1  0 20  0.0000000  0 20G14R15G09R22G15R24G17G11R13G12R03G26 0.000126288
                                R05G27R06G18R14G22G28R23
  24328299.028    24328299.380    24328304.008   127846114.227 6  99620346.092 2
      4430.669        3452.454          38.000          16.000
  21269529.484    21269529.595    21269537.568   113657991.157 8  88400678.403 7
      4626.339        3598.257          48.000          43.000
  21182478.330    21182477.837    21182483.295   111314731.917 8  86738787.914 7
      2276.921        1774.222          53.000          44.000
  23712546.069    23712545.904    23712551.498   126579225.852 7  98450554.948 6
     -3144.814       -2445.962          42.000          37.000
  23027656.108    23027655.632    23027661.600   121011174.587 7  94294440.787 5
     -2092.048       -1630.160          45.000          31.000
  20488417.142    20488416.805    20488422.446   109560792.407 8  85213993.470 7
      3995.156        3107.342          52.000          47.000
  20892473.703    20892473.573    20892477.657   109790754.484 8  85551255.209 7
      1278.014         995.850          51.000          42.000
  24868352.910    24868354.219    24868357.225   130684104.971 6 101831789.581 3
      -869.462        -677.515          41.000          18.000
  22372819.252    22372818.550    22372824.845   119469680.355 7  92920911.456 6
     -2749.192       -2138.266          47.000          40.000
  23837466.623    23837466.394    23837472.788   125266726.905 7  97610485.968 4
      4683.376        3649.388          44.000          27.000
  19323766.345    19323765.463    19323774.398   103042873.450 8  80144508.954 8
       142.089         110.513          53.000          49.000
  24790854.470    24790851.916    24790864.764   130276892.072 5 101514472.817 1
     -2621.801       -2042.934          31.000           8.000
  22539432.986    22539433.191    22539443.562   120486224.016 7  93711544.289 6
     -1932.238       -1502.854          46.000          40.000
  19792292.183    19792291.728    19792297.177   104009204.425 8  81046148.877 7
      1036.378         807.567          52.000          44.000
  21972932.811    21972933.090    21972940.924   117251814.160 8  91195882.601 6
      1762.554        1370.873          48.000          40.000
  25510823.206    25510824.440    25510830.774   134060257.367 5 104462564.652 1
     -2155.028       -1679.228          33.000          11.000
  19296066.759    19296065.891                   102858961.467 8
       486.779     -214748.365          52.000
  24197819.279    24197818.226    24197826.083   127160416.619 6  99086041.284 3
      -542.730        -422.925          41.000          22.000
  23117362.912    23117363.696    23117366.083   121482613.574 5  94661811.936 1
     -2638.547       -2055.984          35.000           6.000
  20330663.774    20330663.058    20330670.549   108755369.760 8  84587550.107 7
      -351.595        -273.463          52.000          46.000
