     2.11           OBSERVATION DATA    M (MIXED)           RINEX VERSION / TYPE
teqc  2016Apr1                          20160930 07:51:16UTCPGM / RUN BY / DATE
Linux 2.4.20-8|Pentium IV|gcc|Linux|486/DX+                 COMMENT
teqc  2016Apr1                          20160816 03:34:59UTCCOMMENT
teqc  2010Mar17     gpsops              20111002 00:08:19UTCCOMMENT
Linux 2.4.21-27.ELsmp|Opteron|gcc -static|Linux x86_64|=+   COMMENT
BIT 2 OF LLI FLAGS DATA COLLECTED UNDER A/S CONDITION       COMMENT
                                                            COMMENT
This data is provided as a public service by NASA/JPL.      COMMENT
No warranty is expressed or implied regarding suitability   COMMENT
for use.  For further information, contact:                 COMMENT
Dave Stowers, NASA/JPL m/s 238-600                          COMMENT
4800 Oak Grove Drive, Pasadena CA 91109 USA                 COMMENT
                                                            COMMENT
Forced Modulo Decimation to 30 seconds                      COMMENT
 SNR is mapped to RINEX snr flag value [0-9]                COMMENT
  L1 & L2: min(max(int(snr_dBHz/6), 0), 9)                  COMMENT
pseudorange smoothing corrections not applied               COMMENT
STHL                                                        MARKER NAME
30606M003                                                   MARKER NUMBER
GGN                 JPL                                     OBSERVER / AGENCY
618-00321           TPS NET-G3A         3.4p1               REC # / TYPE / VERS
383-0150            TPSCR.G3        SCIS                    ANT # / TYPE
  6104817.3080  -605827.9960 -1740738.8560                  APPROX POSITION XYZ
        0.0083        0.0000        0.0000                  ANTENNA: DELTA H/E/N
     1     1                                                WAVELENGTH FACT L1/2
     7    L1    L2    P1    P2    C1    S1    S2            # / TYPES OF OBSERV
    30.0000                                                 INTERVAL
teqc windowed: start @ 2011 Oct  1 00:10:00.000             COMMENT
teqc windowed:  end  @ 2011 Oct  1 00:20:00.000             COMMENT
  2011    10     1     0    10    0.0000000     GPS         TIME OF FIRST OBS
    15                                                      LEAP SECONDS
                                                            END OF HEADER
 11 10  1  0 10  0.0000000  0 19G04G20G07R13G26G08R17G28G02G17R03R24
                                R14R08R23R12G10R01G27
 110529142.880 8  86126654.52547  21032942.792    21032941.887    21032943.151
        51.000          42.0004
 128762607.774 6 100334469.17243  24502684.918    24502683.553    24502686.414
        40.000          18.0004
 122520025.131 7  95470175.12445  23314736.656    23314736.842    23314736.933
        43.000          30.0004
 103629326.085 8  80600588.563 8  19406438.845    19406439.135    19406441.006
        53.000          49.000
 124327639.927 7  96878676.58843  23658767.533    23658768.002    23658767.814
        42.000          23.0004
 112960133.534 8  88020882.14246  21495598.512    21495598.156    21495599.458
        51.000          41.0004
 125641163.076 7  97720924.551 5  23479042.806    23479046.781    23479043.953
        42.000          30.000
 111504049.140 8  86886216.96546  21218448.522    21218446.150    21218449.472
        49.000          38.0004
 126775603.281 6  98786181.47443  24124595.473    24124600.274    24124596.723
        39.000          21.0004
 111427064.573 8  86826384.61846  21203807.830    21203805.779    21203808.398
        51.000          41.0004
 119253969.814 7  92753091.777 6  22363869.531    22363870.530    22363869.006
        46.000          41.000
 110713178.774 8  86110331.919 7  20703874.034    20703873.504    20703875.248
        53.000          46.000
 121069367.928 7                  22712307.001                    22712306.535
        45.000
 128904506.271 7 100259067.501 6  24071996.455    24071995.478    24071997.048
        42.000          36.000
 115712819.116 8  89998949.816 7  21631258.598    21631258.788    21631259.924
        50.000          43.000
 110233024.271 9  85736834.882 7  20635829.187    20635831.726    20635830.460
        54.000          47.000
 128006975.101 6  99745664.33942  24358902.859    24358911.226    24358904.478
        37.000          16.0004
 129186773.212 6 100478602.161 5  24167059.759    24167067.984    24167061.787
        39.000          31.000
 126634532.890 6  98676258.40742  24097749.352    24097749.090    24097752.003
        39.000          16.0004
 11 10  1  0 10 30.0000000  0 19G04G20G07R13G26G08R17G28G02G17R03R24
                                R14R08R23R12G10R01G27
 110472672.371 8  86082651.57347  21022196.592    21022195.763    21022197.243
        52.000          42.0004
 128761470.012 6 100333582.66843  24502468.475    24502468.137    24502469.754
        40.000          18.0004
 122619762.652 7  95547892.53744  23333716.146    23333716.525    23333716.546
        43.000          29.0004
 103595545.912 9  80574315.089 8  19400113.406    19400112.586    19400114.989
        54.000          49.000
 124348127.809 7  96894641.10643  23662665.507    23662666.542    23662666.140
        42.000          23.0004
 113027528.392 8  88073397.59546  21508423.320    21508422.873    21508424.539
        51.000          41.0004
 125583794.245 6  97676304.749 5  23468320.723    23468325.854    23468322.857
        41.000          30.000
 111496063.424 8  86879994.32846  21216928.959    21216926.643    21216930.132
        49.000          38.0004
 126663803.927 6  98699064.79943  24103321.452    24103325.251    24103321.600
        38.000          21.0004
 111455562.961 8  86848591.16447  21209230.895    21209228.693    21209231.440
        50.000          42.0004
 119137367.937 7  92662401.429 6  22342002.417    22342003.087    22342002.194
        45.000          41.000
 110726922.650 9  86121021.613 7  20706444.253    20706444.321    20706445.604
        54.000          46.000
 120948186.890 7                  22689573.096                    22689572.624
        44.000
 128856853.410 7 100222004.364 5  24063099.399    24063094.637    24063097.871
        42.000          34.000
 115790721.607 8  90059540.638 7  21645822.078    21645822.651    21645822.952
        50.000          43.000
 110315851.296 9  85801255.871 7  20651334.541    20651337.130    20651335.868
        54.000          47.000
 127951925.627 6  99702768.87042  24348428.175    24348434.639    24348429.068
        38.000          16.0004
 129120910.167 6 100427375.268 5  24154740.193    24154747.602    24154741.359
        40.000          31.000
 126528002.581 6  98593247.79142  24077477.668    24077477.971    24077479.400
        38.000          16.0004
 11 10  1  0 11  0.0000000  0 19G04G20G07R13G26G08R17G28G02G17R03R24
                                R14R08R23R12G10R01G27
 110416626.429 8  86038979.44847  21011531.488    21011530.906    21011531.993
        52.000          42.0004
 128760646.448 6 100332940.98442  24502310.964    24502311.260    24502311.432
        38.000          17.0004
 122719671.863 7  95625743.71144  23352728.412    23352728.818    23352728.529
        43.000          28.0004
 103562510.762 8  80548621.092 8  19393926.966    19393926.017    19393928.360
        53.000          49.000
 124368882.648 6  96910813.63643  23666615.066    23666616.666    23666616.150
        41.000          22.0004
 113095320.463 8  88126222.57246  21521323.771    21521323.202    21521324.720
        51.000          41.0004
 125526800.140 6  97631976.337 5  23457670.250    23457674.003    23457671.704
        41.000          30.000
 111488261.191 8  86873914.67046  21215443.939    21215442.109    21215445.282
        50.000          38.0004
 126552108.718 6  98612029.24143  24082066.240    24082070.033    24082067.526
        41.000          20.0004
 111484201.412 8  86870906.85346  21214680.552    21214678.359    21214681.077
        50.000          41.0004
 119021006.750 7  92571898.294 6  22320180.635    22320181.551    22320180.602
        45.000          41.000
 110741015.981 8  86131983.121 7  20709079.294    20709078.606    20709080.839
        53.000          46.000
 120827206.780 7                  22666876.944                    22666876.969
        44.000
 128809397.350 6 100185094.311 5  24054233.371    24054235.792    24054233.597
        40.000          34.000
 115868620.732 8  90120128.859 7  21660384.411    21660383.931    21660385.551
        50.000          43.000
 110399243.909 9  85866116.776 7  20666946.235    20666948.018    20666947.537
        55.000          47.000
 127896673.203 6  99659715.22942  24337912.537    24337919.977    24337915.071
        40.000          16.0004
 129054820.662 6 100375972.453 5  24142374.506    24142383.630    24142376.472
        40.000          31.000
 126421735.774 6  98510442.48842  24057256.030    24057255.648    24057256.942
        39.000          17.0004
 11 10  1  0 11 30.0000000  0 19G04G20G07R13G26G08R17G28G02G17R03R24
                                R14R08R23R12G10R01G27
 110361005.906 8  85995638.82247  21000947.049    21000946.361    21000947.704
        51.000          42.0004
 128760138.023 6 100332544.86042  24502214.077    24502214.101    24502216.070
        37.000          17.0004
 122819749.171 7  95703725.87144  23371772.072    23371773.187    23371772.388
        43.000          28.0004
 103530222.236 9  80523507.794 8  19387880.674    19387879.331    19387881.051
        54.000          49.000
 124389901.731 6  96927192.08643  23670615.522    23670616.155    23670616.176
        41.000          23.0004
 113163506.813 8  88179354.77746  21534299.099    21534298.804    21534300.227
        52.000          41.0004
 125470180.559 7  97587939.265 5  23447090.032    23447093.594    23447090.917
        42.000          30.000
 111480643.426 8  86867978.75246  21213994.405    21213992.232    21213995.366
        51.000          38.0004
 126440522.099 6  98525079.28543  24060831.175    24060836.505    24060832.383
        40.000          20.0004
 111512977.565 8  86893329.83846  21220156.419    21220154.145    21220156.865
        50.000          41.0004
 118904889.308 7  92481584.740 6  22298405.449    22298405.775    22298404.819
        45.000          41.000
 110755455.460 9  86143213.844 7  20711779.845    20711778.760    20711781.121
        54.000          46.000
 120706431.158 7                  22644220.202                    22644219.523
        44.000
 128762141.347 7 100148339.856 5  24045411.963    24045409.865    24045410.234
        42.000          35.000
 115946513.159 8  90180711.861 7  21674945.501    21674945.444    21674946.484
        50.000          43.000
 110483198.603 9  85931414.847 7  20682662.486    20682664.580    20682663.665
        54.000          46.000
 127841218.416 6  99616503.92542  24327360.137    24327368.710    24327362.004
        39.000          16.0004
 128988506.831 6 100324395.194 5  24129970.192    24129978.725    24129972.120
        40.000          31.000
 126315735.031 6  98427844.53242  24037084.785    24037084.138    24037085.874
        38.000          17.0004
 11 10  1  0 12  0.0000000  0 19G04G20G07R13G26G08R17G28G02G17R03R24
                                R14R08R23R12G10R01G27
 110305812.591 8  85952631.08147  20990444.206    20990443.524    20990444.705
        50.000          42.0004
 128759946.728 6 100332395.86442  24502177.542    24502178.034    24502179.213
        38.000          17.0004
 122919992.774 7  95781837.61144  23390847.517    23390849.561    23390848.668
        43.000          28.0004
 103498683.063 9  80498977.324 8  19381974.172    19381973.402    19381975.475
        55.000          49.000
 124411182.938 6  96943774.77243  23674664.415    23674665.748    23674665.402
        39.000          23.0004
 113232085.972 8  88232793.06746  21547349.229    21547349.016    21547350.396
        52.000          41.0004
 125413935.508 7  97544193.545 5  23436579.232    23436583.639    23436579.852
        42.000          30.000
 111473212.132 8  86862188.13546  21212580.029    21212578.090    21212581.323
        50.000          38.0004
 126329043.896 6  98438213.79943  24039617.691    24039621.741    24039618.398
        40.000          20.0004
 111541889.826 8  86915858.88246  21225658.152    21225656.002    21225658.595
        50.000          41.0004
 118789020.638 7  92391464.665 6  22276676.332    22276676.060    22276676.561
        46.000          41.000
 110770238.853 8  86154712.054 7  20714544.017    20714543.942    20714545.620
        53.000          46.000
 120585864.404 7                  22621601.655                    22621601.512
        44.000
 128715089.891 7 100111744.496 5  24036624.596    24036623.038    24036624.246
        42.000          34.000
 116024396.653 8  90241287.917 7  21689505.536    21689505.013    21689506.550
        50.000          43.000
 110567712.894 8  85997148.160 7  20698483.548    20698486.259    20698485.019
        53.000          46.000
 127785563.447 6  99573136.63742  24316769.432    24316777.631    24316770.398
        39.000          16.0004
 128921972.462 6 100272646.456 5  24117524.483    24117531.749    24117525.394
        41.000          31.000
 126210003.890 6  98345456.64943  24016964.604    24016963.893    24016965.743
        38.000          18.0004
 11 10  1  0 12 30.0000000  0 19G04G20G07R13G26G08R17G28G02G17R03R24
                                R14R08R23R12G10R01G27
 110251049.151 8  85909958.31147  20980022.900    20980022.308    20980023.577
        52.000          42.0004
 128760074.619 6 100332495.57042  24502200.840    24502201.801    24502203.383
        38.000          17.0004
 123020400.935 7  95860077.56744  23409954.693    23409956.848    23409956.045
        44.000          28.0004
 103467896.461 9  80475032.187 8  19376208.482    19376207.827    19376210.172
        54.000          49.000
 124432724.641 7  96960560.43743  23678764.709    23678764.988    23678764.705
        42.000          23.0004
 113301056.923 8  88286536.64946  21560474.017    21560473.659    21560475.221
        52.000          41.0004
 125358064.793 7  97500738.992 5  23426138.139    23426141.244    23426139.434
        43.000          30.000
 111465969.139 8  86856544.24846  21211202.154    21211199.756    21211203.145
        50.000          38.0004
 126217676.997 6  98351434.41443  24018425.427    24018429.163    24018426.029
        38.000          21.0004
 111570937.114 8  86938493.13846  21231185.589    21231183.530    21231186.260
        50.000          41.0004
 118673405.619 7  92301541.876 6  22254994.024    22254994.526    22254994.668
        45.000          41.000
 110785363.964 8  86166476.047 7  20717372.961    20717371.672    20717374.265
        53.000          46.000
 120465511.649 7                  22599023.816                    22599023.328
        44.000
 128668247.004 7 100075311.339 5  24027876.650    24027873.299    24027876.477
        42.000          34.000
 116102269.142 8  90301855.416 7  21704062.353    21704062.185    21704063.626
        50.000          43.000
 110652784.902 8  86063315.250 7  20714409.013    20714411.810    20714410.735
        53.000          46.000
 127729710.564 6  99529615.15742  24306140.226    24306148.387    24306142.226
        38.000          16.0004
 128855220.699 6 100220728.759 5  24105035.117    24105044.029    24105037.418
        40.000          31.000
 126104546.180 6  98263281.82243  23996897.755    23996896.314    23996898.167
        37.000          18.0004
 11 10  1  0 13  0.0000000  0 19G04G20G07R13G26G08R17G28G02G17R03R24
                                R14R08R23R12G10R01G27
 110196715.939 8  85867620.78247  20969683.630    20969682.881    20969684.353
        52.000          42.0004
 128760522.255 6 100332844.42242  24502286.221    24502286.670    24502288.293
        39.000          17.0004
 123120970.166 7  95938443.06044  23429093.748    23429093.859    23429094.013
        44.000          28.0004
 103437863.831 8  80451673.477 8  19370584.639    19370583.840    19370586.138
        53.000          49.000
 124454523.837 7  96977546.74743  23682913.185    23682914.440    23682913.072
        42.000          22.0004
 113370416.801 8  88340583.29146  21573672.740    21573672.606    21573673.749
        51.000          41.0004
 125302567.943 6  97457575.157 5  23415765.379    23415769.307    23415766.571
        41.000          30.000
 111458915.429 8  86851047.84746  21209859.837    21209857.776    21209860.971
        51.000          38.0004
 126106424.592 6  98264744.40543  23997254.260    23997259.497    23997255.383
        37.000          21.0004
 111600116.727 8  86961230.51146  21236738.576    21236736.557    21236739.058
        51.000          41.0004
 118558047.847 7  92211819.167 6  22233361.360    22233361.485    22233361.066
        46.000          41.000
 110800827.102 8  86178502.954 7  20720264.438    20720263.715    20720265.697
        53.000          46.000
 120345376.217 7                  22576487.454                    22576487.247
        44.000
 128621615.454 7 100039042.546 5  24019167.154    24019166.116    24019166.523
        42.000          32.000
 116180126.918 8  90362411.471 7  21718616.588    21718617.613    21718618.305
        49.000          43.000
 110738410.835 8  86129913.166 7  20730438.900    20730440.920    20730440.272
        53.000          46.000
 127673660.882 6  99485940.35942  24295474.827    24295483.381    24295476.430
        37.000          17.0004
 128788253.687 6 100168643.432 5  24092508.242    24092515.830    24092509.996
        40.000          31.000
 125999364.190 6  98181321.85843  23976881.399    23976881.638    23976881.851
        36.000          18.0004
 11 10  1  0 13 30.0000000  0 19G04G20G07R13G26G08R17G28G02G17R03R24
                                R14R08R23R12G10R01G27
 110142815.473 8  85825620.45847  20959426.701    20959426.250    20959427.320
        51.000          42.0004
 128761291.614 6 100333443.98142  24502433.660    24502432.751    24502434.485
        39.000          17.0004
 123221698.266 7  96016932.33244  23448260.014    23448261.206    23448261.816
        43.000          28.0004
 103408587.637 9  80428903.101 8  19365102.331    19365101.217    19365103.622
        54.000          49.000
 124476578.482 6  96994732.10343  23687109.262    23687109.702    23687110.151
        41.000          22.0004
 113440164.166 8  88394931.86646  21586945.356    21586945.102    21586946.325
        52.000          41.0004
 125247444.558 6  97414701.796 5  23405466.005    23405467.603    23405466.705
        41.000          30.000
 111452053.213 8  86845700.66546  21208553.615    21208551.662    21208554.821
        50.000          38.0004
 125995289.287 6  98178145.60843  23976105.288    23976108.813    23976106.409
        39.000          21.0004
 111629427.510 8  86984070.09546  21242316.279    21242313.898    21242316.767
        51.000          41.0004
 118442951.408 7  92122299.719 6  22211778.598    22211777.495    22211776.730
        46.000          41.000
 110816626.043 8  86190791.038 7  20723218.936    20723217.765    20723220.382
        53.000          46.000
 120225462.784 7                  22553993.350                    22553991.366
        44.000
 128575199.747 7 100002941.592 5  24010500.750    24010496.776    24010499.703
        43.000          33.000
 116257967.921 8  90422954.476 7  21733168.543    21733167.995    21733169.869
        49.000          43.000
 110824588.320 9  86196940.069 7  20746571.722    20746574.042    20746572.907
        54.000          46.000
 127617416.463 6  99442113.79242  24284771.852    24284778.709    24284773.071
        39.000          17.0004
 128721075.769 6 100116394.207 5  24079940.392    24079948.810    24079941.831
        40.000          31.000
 125894461.718 6  98099579.69842  23956919.518    23956919.180    23956921.458
        38.000          17.0004
 11 10  1  0 14  0.0000000  0 19G04G20G07R13G26G08R17G28G02G17R03R24
                                R14R08R23R12G10R01G27
 110089348.350 8  85783957.80547  20949252.261    20949251.481    20949252.703
        52.000          42.0004
 128762383.993 6 100334295.24642  24502641.259    24502640.895    24502643.066
        39.000          17.0004
 123322582.395 7  96095543.18344  23467459.292    23467459.922    23467459.315
        43.000          28.0004
 103380069.768 9  80406722.537 8  19359761.735    19359760.854    19359763.239
        55.000          49.000
 124498885.823 6  97012114.39943  23691354.513    23691355.597    23691354.772
        40.000          22.0004
 113510296.532 8  88449580.44246  21600291.143    21600290.884    21600291.960
        51.000          41.0004
 125192695.247 6  97372119.230 5  23395233.143    23395235.939    23395234.845
        40.000          30.000
 111445383.608 8  86840503.57346  21207284.581    21207282.679    21207285.845
        49.000          38.0004
 125884273.384 6  98091639.76843  23954980.860    23954983.496    23954980.915
        38.000          20.0004
 111658866.695 8  87007009.72646  21247918.299    21247916.137    21247918.802
        51.000          41.0004
 118328120.044 7  92032986.444 6  22190243.625    22190242.565    22190243.164
        46.000          41.000
 110832757.528 9  86203337.761 7  20726235.556    20726234.553    20726237.195
        54.000          46.000
 120105775.030 7                  22531538.688                    22531537.466
        44.000
 128529003.205 7  99967011.138 5  24001873.245    24001871.744    24001873.035
        42.000          33.000
 116335788.996 8  90483481.975 7  21747716.137    21747717.018    21747717.255
        49.000          43.000
 110911313.993 8  86264393.339 7  20762806.646    20762808.877    20762808.064
        53.000          47.000
 127560978.555 6  99398136.46242  24274030.849    24274039.005    24274033.058
        38.000          17.0004
 128653689.294 6 100063982.864 5  24067334.640    24067343.166    24067335.981
        39.000          31.000
 125789841.393 6  98018057.38142  23937010.869    23937009.805    23937012.070
        38.000          17.0004
 11 10  1  0 14 30.0000000  0 19G04G20G07R13G26G08R17G28G02G17R03R24
                                R14R08R23R12G10R01G27
 110036316.356 8  85742634.21447  20939160.563    20939159.828    20939161.110
        52.000          42.0004
 128763800.605 6 100335399.15542  24502910.324    24502911.204    24502911.746
        38.000          17.0004
 123423619.797 7  96174273.45544  23486686.265    23486687.230    23486686.681
        43.000          27.0004
 103352312.007 9  80385133.169 8  19354563.517    19354562.705    19354564.939
        55.000          50.000
 124521443.359 6  97029691.61743  23695647.397    23695647.730    23695648.184
        41.000          21.0004
 113580811.589 8  88504527.22546  21613709.975    21613709.605    21613710.792
        52.000          40.0004
 125138318.010 6  97329825.990 5  23385071.986    23385074.951    23385073.279
        41.000          30.000
 111438908.162 8  86835457.77646  21206052.322    21206050.229    21206053.458
        51.000          38.0004
 125773380.452 6  98005230.17843  23933877.960    23933880.724    23933878.268
        40.000          20.0004
 111688432.734 8  87030048.21446  21253544.454    21253542.362    21253544.976
        50.000          41.0004
 118213558.391 7  91943882.944 6  22168759.128    22168758.773    22168758.764
        46.000          41.000
 110849218.616 9  86216140.852 7  20729313.749    20729312.715    20729315.294
        54.000          46.000
 119986317.243 7                  22509128.477                    22509127.632
        44.000
 128483029.024 7  99931253.628 5  23993288.341    23993286.758    23993287.462
        43.000          33.000
 116413587.303 8  90543991.773 7  21762259.664    21762260.616    21762260.913
        49.000          42.000
 110998584.783 9  86332270.586 7  20779144.255    20779146.120    20779145.542
        54.000          46.000
 127504349.061 6  99354009.86542  24263254.857    24263263.457    24263257.187
        38.000          17.0004
 128586097.010 6 100011411.336 5  24054689.937    24054698.015    24054690.996
        40.000          31.000
 125685506.356 6  97936757.37243  23917156.812    23917155.762    23917158.102
        38.000          18.0004
 11 10  1  0 15  0.0000000  0 19G04G20G07R13G26G08R17G28G02G17R03R24
                                R14R08R23R12G10R01G27
 109983720.870 8  85701650.75647  20929151.794    20929151.134    20929152.377
        51.000          42.0004
 128765543.003 6 100336756.91642  24503242.858    24503242.319    24503244.335
        39.000          17.0004
 123524808.063 7  96253121.27844  23505941.228    23505942.807    23505941.616
        42.000          28.0004
 103325316.803 9  80364136.896 8  19349508.115    19349507.341    19349509.699
        54.000          49.000
 124544248.784 6  97047462.01943  23699986.899    23699988.228    23699987.258
        40.000          21.0004
 113651707.561 8  88559770.82846  21627200.807    21627200.422    21627201.769
        52.000          40.0004
 125084314.120 6  97287823.260 5  23374979.831    23374982.939    23374980.604
        41.000          30.000
 111432628.578 8  86830564.59246  21204857.065    21204855.216    21204858.460
        51.000          38.0004
 125662612.078 5  97918917.66143  23912798.082    23912802.323    23912800.085
        35.000          20.0004
 111718123.977 8  87053184.26046  21259194.575    21259192.481    21259194.992
        51.000          41.0004
 118099270.969 7  91854992.726 6  22147327.195    22147325.802    22147326.223
        45.000          41.000
 110866006.708 8  86229198.274 7  20732453.396    20732452.415    20732454.977
        53.000          46.000
 119867093.696 7                  22486761.809                    22486761.877
        45.000
 128437281.409 6  99895672.346 5  23984745.002    23984741.923    23984744.541
        41.000          33.000
 116491360.603 8  90604482.122 7  21776798.926    21776798.801    21776799.991
        50.000          43.000
 111086398.012 8  86400569.738 7  20795583.156    20795584.939    20795584.270
        53.000          46.000
 127447529.656 6  99309735.30442  24252442.487    24252450.212    24252444.632
        39.000          17.0004
 128518302.000 6  99958682.075 5  24042006.662    24042014.619    24042007.537
        39.000          31.000
 125581460.080 6  97855682.35243  23897356.963    23897356.304    23897357.771
        39.000          18.0004
 11 10  1  0 15 30.0000000  0 19G04G20G07R13G26G08R17G28G02G17R03R24
                                R14R08R23R12G10R01G27
 109931563.796 8  85661008.91747  20919226.691    20919225.949    20919227.449
        51.000          43.0004
 128767612.880 6 100338369.87242  24503636.380    24503636.504    24503637.429
        39.000          17.0004
 123626144.693 7  96332084.71044  23525224.945    23525226.458    23525225.807
        43.000          28.0004
 103299086.220 9  80343735.333 8  19344596.061    19344594.901    19344597.277
        54.000          49.000
 124567300.138 6  97065424.01343  23704373.318    23704374.620    23704373.801
        39.000          21.0004
 113722982.821 8  88615309.98446  21640764.062    21640763.653    21640765.123
        51.000          40.0004
 125030683.715 6  97246111.083 5  23364956.827    23364960.250    23364958.031
        40.000          30.000
 111426546.415 8  86825825.24846  21203700.265    21203697.961    21203701.207
        50.000          38.0004
 125551970.041 6  97832702.93343  23891744.782    23891748.859    23891745.628
        38.000          20.0004
 111747938.760 8  87076416.56946  21264868.138    21264865.931    21264868.504
        50.000          41.0004
 117985261.454 7  91766318.670 6  22125946.447    22125946.032    22125945.848
        46.000          41.000
 110883118.964 8  86242507.823 7  20735653.479    20735652.673    20735654.938
        53.000          46.000
 119748109.155 7                  22464440.876                    22464440.553
        44.000
 128391764.079 6  99860270.156 5  23976243.143    23976240.798    23976243.220
        40.000          33.000
 116569106.386 8  90664951.068 7  21791333.049    21791333.171    21791334.157
        49.000          42.000
 111174750.886 8  86469288.610 7  20812122.702    20812125.284    20812124.391
        53.000          46.000
 127390522.008 6  99265314.06342  24241593.503    24241601.534    24241596.368
        39.000          17.0004
 128450307.843 6  99905797.759 5  24029286.161    24029295.400    24029289.265
        40.000          31.000
 125477705.694 6  97774834.78243  23877612.157    23877612.574    23877614.224
        39.000          18.0004
 11 10  1  0 16  0.0000000  0 19G04G20G07R13G26G08R17G28G02G17R03R24
                                R14R08R23R12G10R01G27
 109879846.272 8  85620709.58747  20909385.210    20909384.353    20909385.833
        52.000          42.0004
 128770011.335 6 100340238.89143  24504092.608    24504093.431    24504094.019
        37.000          18.0004
 123727627.142 7  96411161.75044  23544537.128    23544538.418    23544537.284
        42.000          28.0004
 103273622.478 8  80323930.200 8  19339827.380    19339826.574    19339829.006
        53.000          49.000
 124590594.707 6  97083575.55043  23708805.902    23708807.535    23708807.043
        40.000          21.0004
 113794634.862 8  88671142.73246  21654399.075    21654398.633    21654400.051
        51.000          40.0004
 124977424.740 6  97204687.899 5  23355003.710    23355007.312    23355005.152
        40.000          30.000
 111420663.118 8  86821240.86346  21202580.536    21202578.540    21202581.648
        50.000          38.0004
 125441458.313 6  97746589.89343  23870714.538    23870717.280    23870715.425
        38.000          20.0004
 111777875.067 8  87099743.57446  21270564.683    21270562.748    21270565.221
        50.000          41.0004
 117871534.445 7  91677864.342 6  22104619.274    22104618.536    22104618.601
        46.000          41.000
 110900552.631 9  86256067.360 7  20738913.159    20738913.045    20738914.841
        54.000          46.000
 119629367.228 7                  22442165.611                    22442165.356
        45.000
 128346480.357 6  99825049.667 5  23967787.822    23967785.742    23967786.511
        40.000          32.000
 116646821.736 8  90725396.349 7  21805860.823    21805861.038    21805861.740
        49.000          42.000
 111263639.985 8  86538424.546 7  20828763.297    20828765.285    20828764.743
        53.000          46.000
 127333327.816 6  99220747.48142  24230710.036    24230717.430    24230711.762
        39.000          17.0004
 128382117.793 6  99852761.264 5  24016530.644    24016538.353    24016532.805
        40.000          31.000
 125374246.091 6  97694216.92443  23857925.480    23857923.720    23857926.488
        40.000          18.0004
 11 10  1  0 16 30.0000000  0 19G04G20G07R13G26G08R17G28G02G17R03R24
                                R14R08R23R12G10R01G27
 109828569.738 8  85580753.88247  20899627.499    20899626.855    20899628.092
        52.000          43.0004
 128772739.744 6 100342364.97143  24504611.412    24504612.002    24504613.128
        39.000          18.0004
 123829252.598 7  96490350.21844  23563875.462    23563877.052    23563876.453
        42.000          28.0004
 103248927.034 9  80304722.630 8  19335202.673    19335202.154    19335204.241
        54.000          49.000
 124614129.831 6  97101914.53243  23713284.905    23713285.362    23713285.715
        40.000          21.0004
 113866661.697 8  88727267.52446  21668104.959    21668104.621    21668106.204
        51.000          40.0004
 124924537.851 6  97163554.112 5  23345120.749    23345122.084    23345121.929
        41.000          30.000
 111414980.403 8  86816812.77246  21201499.114    21201497.358    21201500.293
        50.000          39.0004
 125331079.603 6  97660580.72643  23849711.226    23849712.673    23849710.785
        38.000          19.0004
 111807930.963 8  87123163.76346  21276284.282    21276282.044    21276284.775
        50.000          41.0004
 117758093.839 7  91589632.766 7  22083345.186    22083345.426    22083345.385
        47.000          42.000
 110918304.378 8  86269874.288 7  20742233.258    20742232.116    20742234.648
        53.000          46.000
 119510872.223 7                  22419936.552                    22419935.782
        46.000
 128301434.194 7  99790013.891 5  23959375.691    23959373.657    23959375.190
        42.000          33.000
 116724504.229 8  90785816.074 7  21820383.174    21820382.827    21820383.919
        50.000          42.000
 111353062.615 8  86607975.448 7  20845503.373    20845505.156    20845504.713
        53.000          46.000
 127275948.916 6  99176036.98742  24219790.441    24219798.271    24219792.594
        38.000          16.0004
 128313734.293 6  99799574.163 5  24003737.391    24003745.573    24003739.722
        41.000          31.000
 125271084.319 6  97613831.12843  23838293.238    23838292.510    23838295.511
        39.000          18.0004
 11 10  1  0 17  0.0000000  0 19G04G20G07R13G26G08R17G28G02G17R03R24
                                R14R08R23R12G10R01G27
 109777735.677 8  85541142.96347  20889954.231    20889953.376    20889954.808
        53.000          43.0004
 128775799.592 6 100344749.30942  24505193.603    24505194.254    24505195.549
        38.000          17.0004
 123931018.316 7  96569647.96044  23583240.825    23583242.609    23583241.696
        42.000          28.0004
 103225002.307 8  80286114.519 8  19330722.522    19330721.516    19330723.718
        53.000          49.000
 124637903.371 6  97120439.29343  23717809.531    23717810.400    23717809.587
        40.000          21.0004
 113939061.117 8  88783682.64146  21681882.145    21681882.049    21681883.376
        50.000          40.0004
 124872021.743 6  97122708.664 5  23335306.953    23335308.099    23335307.688
        40.000          31.000
 111409499.868 8  86812542.22846  21200456.443    21200454.256    21200457.478
        50.000          39.0004
 125220835.899 6  97574676.82843  23828730.763    23828734.780    23828732.114
        40.000          20.0004
 111838104.523 8  87146675.63946  21282026.115    21282023.623    21282026.435
        51.000          41.0004
 117644943.660 7  91501627.090 7  22062126.022    22062126.835    22062125.709
        47.000          42.000
 110936371.779 8  86283926.735 7  20745611.635    20745610.879    20745612.973
        53.000          46.000
 119392628.223 7                  22397754.091                    22397753.555
        45.000
 128256629.190 7  99755165.760 5  23951008.920    23951006.743    23951008.278
        42.000          34.000
 116802150.968 8  90846207.988 7  21834898.304    21834897.813    21834899.074
        50.000          42.000
 111443015.535 9  86677938.806 7  20862342.513    20862345.314    20862343.846
        54.000          46.000
 127218387.056 6  99131183.88442  24208836.807    24208844.365    24208838.790
        38.000          16.0004
 128245160.767 6  99746239.130 5  23990908.716    23990918.359    23990911.456
        40.000          31.000
 125168223.620 6  97533679.91442  23818720.417    23818718.759    23818721.613
        39.000          17.0004
 11 10  1  0 17 30.0000000  0 19G04G20G07R13G26G08R17G28G02G17R03R24
                                R14R08R23R12G10R01G27
 109727345.702 8  85501878.07747  20880365.294    20880364.249    20880365.877
        51.000          43.0004
 128779192.046 6 100347392.83342  24505838.202    24505838.855    24505840.525
        38.000          17.0004
 124032922.331 7  96649053.48144  23602633.028    23602634.675    23602633.537
        43.000          27.0004
 103201849.670 9  80268106.912 8  19326386.977    19326386.207    19326388.338
        54.000          49.000
 124661912.861 6  97139147.89643  23722377.247    23722379.801    23722378.185
        41.000          21.0004
 114011831.263 8  88840386.63246  21695730.189    21695729.636    21695731.158
        50.000          40.0004
 124819877.417 6  97082152.438 5  23325561.808    23325563.960    23325563.004
        40.000          31.000
 111404223.141 8  86808430.49346  21199452.288    21199450.090    21199453.281
        52.000          39.0004
 125110730.063 6  97488880.36543  23807778.493    23807781.809    23807780.127
        39.000          20.0004
 111868394.394 8  87170278.14846  21287789.947    21287787.745    21287790.464
        49.000          41.0004
 117532088.602 7  91413850.943 7  22040962.760    22040962.187    22040961.910
        47.000          42.000
 110954751.790 8  86298222.314 7  20749049.029    20749047.815    20749050.413
        53.000          46.000
 119274639.931 7                  22375618.714                    22375618.564
        44.000
 128212069.361 7  99720508.289 5  23942687.856    23942686.102    23942686.447
        42.000          34.000
 116879760.008 8  90906570.571 7  21849406.233    21849405.775    21849407.524
        50.000          42.000
 111533495.848 8  86748312.351 7  20879280.672    20879282.935    20879282.125
        53.000          46.000
 127160644.121 6  99086189.67742  24197849.338    24197856.463    24197850.431
        40.000          16.0004
 128176401.195 6  99692759.510 5  23978046.112    23978056.041    23978049.290
        40.000          31.000
 125065667.346 6  97453765.93742  23799204.950    23799203.827    23799205.713
        40.000          17.0004
 11 10  1  0 18  0.0000000  0 19G04G20G07R13G26G08R17G28G02G17R03R24
                                R14R08R23R12G10R01G27
 109677401.010 8  85462960.16747  20870861.051    20870860.241    20870861.704
        52.000          43.0004
 128782918.524 6 100350296.64042  24506549.166    24506547.674    24506550.499
        39.000          17.0004
 124134961.824 7  96728564.56544  23622050.095    23622051.698    23622051.521
        43.000          27.0004
 103179471.119 9  80250701.374 8  19322196.141    19322195.242    19322197.410
        54.000          49.000
 124686155.865 6  97158038.46543  23726990.496    23726992.643    23726992.323
        41.000          21.0004
 114084970.072 8  88897377.89946  21709648.004    21709647.477    21709649.033
        51.000          40.0004
 124768103.247 6  97041884.031 5  23315885.502    23315887.461    23315887.211
        41.000          31.000
 111399151.710 8  86804478.73446  21198486.928    21198484.798    21198488.116
        50.000          39.0004
 125000764.647 6  97403193.30943  23786853.284    23786855.346    23786853.388
        39.000          21.0004
 111898798.528 8  87193969.68746  21293575.465    21293573.542    21293576.170
        51.000          41.0004
 117419532.558 7  91326307.372 7  22019854.612    22019854.906    22019854.004
        47.000          42.000
 110973441.494 9  86312758.772 7  20752544.332    20752542.746    20752545.895
        54.000          46.000
 119156911.404 7                  22353532.699                    22353532.257
        44.000
 128167757.894 7  99686043.987 5  23934412.601    23934410.664    23934411.446
        42.000          35.000
 116957328.445 8  90966901.579 7  21863906.700    21863906.990    21863908.494
        49.000          42.000
 111624500.464 9  86819093.697 7  20896317.164    20896318.912    20896318.534
        54.000          46.000
 127102721.794 6  99041055.69042  24186826.863    24186833.646    24186827.913
        40.000          16.0004
 128107458.639 6  99639137.803 5  23965149.610    23965158.236    23965150.886
        40.000          31.000
 124963418.316 6  97374091.38043  23779747.622    23779746.684    23779748.844
        40.000          18.0004
 11 10  1  0 18 30.0000000  0 19G04G20G07R13G26G08R17G28G02G17R03R24
                                R14R08R23R12G10R01G27
 109627902.906 8  85424390.24947  20861441.856    20861441.028    20861442.458
        52.000          43.0004
 128786980.188 6 100353461.61942  24507321.172    24507321.531    24507322.343
        38.000          17.0004
 124237133.881 7  96808178.94744  23641493.498    23641494.529    23641494.343
        43.000          27.0004
 103157868.372 9  80233899.241 8  19318150.856    19318149.473    19318152.232
        55.000          49.000
 124710629.845 6  97177109.02143  23731648.525    23731649.723    23731649.410
        41.000          21.0004
 114158474.758 8  88954654.26346  21723635.675    21723635.055    21723636.658
        50.000          40.0004
 124716699.689 7  97001903.843 5  23306280.009    23306281.953    23306280.894
        42.000          31.000
 111394286.865 8  86800687.94946  21197561.191    21197559.045    21197562.249
        49.000          38.0004
 124890942.456 6  97317618.10543  23765954.201    23765956.949    23765954.993
        40.000          22.0004
 111929314.961 8  87217748.73746  21299382.651    21299380.577    21299383.520
        51.000          41.0004
 117307279.933 7  91238999.785 7  21998803.708    21998802.949    21998803.159
        47.000          42.000
 110992437.952 8  86327533.819 7  20756096.357    20756095.888    20756097.981
        53.000          46.000
 119039446.834 7                  22331496.208                    22331497.053
        44.000
 128123698.593 7  99651775.822 5  23926183.748    23926182.899    23926183.236
        42.000          35.000
 117034853.568 8  91027198.902 7  21878398.800    21878399.083    21878400.178
        49.000          42.000
 111716025.925 8  86890280.137 7  20913450.795    20913453.023    20913452.094
        53.000          46.000
 127044621.966 6  98995783.42543  24175769.768    24175777.372    24175771.511
        38.000          18.0004
 128038335.877 6  99585376.049 5  23952218.392    23952226.982    23952220.118
        40.000          31.000
 124861479.526 6  97294658.56443  23760348.574    23760348.526    23760350.306
        39.000          18.0004
 11 10  1  0 19  0.0000000  0 19G04G20G07R13G26G08R17G28G02G17R03R24
                                R14R08R23R12G10R01G27
 109578852.776 8  85386169.40247  20852107.802    20852107.081    20852108.638
        51.000          43.0004
 128791378.746 6 100356889.11042  24508157.568    24508158.530    24508160.055
        37.000          17.0004
 124339435.928 7  96887894.59644  23660961.404    23660962.804    23660961.726
        42.000          27.0004
 103137043.482 9  80217702.105 8  19314250.841    19314249.896    19314251.979
        55.000          49.000
 124735332.432 6  97196357.70143  23736349.569    23736350.560    23736350.147
        40.000          21.0004
 114232343.779 8  89012214.53146  21737692.312    21737691.961    21737693.271
        50.000          40.0004
 124665665.257 7  96962210.796 5  23296743.447    23296743.311    23296743.489
        42.000          31.000
 111389630.636 8  86797059.72146  21196675.196    21196673.300    21196676.375
        51.000          38.0004
 124781265.323 6  97232155.75843  23745082.175    23745085.590    23745083.728
        41.000          22.0004
 111959942.265 8  87241614.17846  21305210.925    21305208.991    21305211.535
        51.000          41.0004
 117195335.414 7  91151931.834 6  21977810.506    21977810.330    21977810.326
        47.000          41.000
 111011738.427 9  86342545.311 7  20759705.573    20759705.515    20759706.906
        54.000          46.000
 118922250.645 7                  22309511.146                    22309510.774
        44.000
 128079895.499 7  99617706.892 5  23918004.666    23918002.210    23918004.088
        43.000          34.000
 117112333.069 8  91087460.730 7  21892883.610    21892882.998    21892884.270
        49.000          42.000
 111808069.446 8  86961869.511 7  20930681.364    20930684.075    20930682.739
        53.000          46.000
 126986346.260 6  98950374.12242  24164680.028    24164686.962    24164681.265
        38.000          17.0004
 127969036.126 6  99531476.581 5  23939253.972    23939263.453    23939255.506
        40.000          30.000
 124759854.327 6  97215470.10743  23741009.831    23741009.364    23741011.359
        38.000          19.0004
 11 10  1  0 19 30.0000000  0 19G04G20G07R13G26G08R17G28G02G17R03R24
                                R14R08R23R12G10R01G27
 109530252.066 8  85348298.74747  20842859.554    20842858.624    20842860.221
        52.000          43.0004
 128796115.346 6 100360580.02042  24509059.261    24509059.018    24509060.968
        37.000          17.0004
 124441866.013 7  96967710.04144  23680452.570    23680455.004    23680453.514
        43.000          27.0004
 103116997.596 9  80202110.861 8  19310496.936    19310495.822    19310498.255
        54.000          49.000
 124760261.192 6  97215782.64743  23741093.587    23741094.250    23741094.076
        41.000          20.0004
 114306574.702 8  89070056.79546  21751818.153    21751817.552    21751819.101
        51.000          40.0004
 124614999.818 7  96922804.631 5  23287275.705    23287276.192    23287276.247
        42.000          31.000
 111385184.223 8  86793594.98346  21195828.888    21195827.260    21195829.925
        48.000          39.0004
 124671736.608 7  97146809.20943  23724238.771    23724242.616    23724240.796
        42.000          23.0004
 111990678.559 8  87265564.55346  21311060.253    21311057.890    21311060.443
        51.000          41.0004
 117083702.520 7  91065106.254 7  21956875.084    21956875.356    21956875.325
        46.000          42.000
 111031340.095 8  86357791.071 7  20763370.965    20763370.535    20763372.416
        53.000          46.000
 118805326.728 7                  22287577.449                    22287576.674
        45.000
 128036351.562 7  99583839.521 5  23909872.722    23909871.092    23909872.361
        44.000          35.000
 117189764.566 8  91147685.234 7  21907358.181    21907357.852    21907359.579
        49.000          42.000
 111900627.730 8  87033859.261 7  20948008.321    20948011.086    20948009.677
        53.000          45.000
 126927896.586 6  98904829.21842  24153557.229    24153565.307    24153558.783
        38.000          17.0004
 127899562.626 6  99477441.906 5  23926258.556    23926265.725    23926259.569
        40.000          30.000
 124658545.670 6  97136528.31543  23721731.461    23721731.455    23721733.272
        39.000          19.0004
 11 10  1  0 20  0.0000000  0 19G04G20G07R13G26G08R17G28G02G17R03R24
                                R14R08R23R12G10R01G27
 109482101.947 8  85310779.20547  20833697.029    20833696.202    20833697.698
        52.000          43.0004
 128801190.920 6 100364535.07942  24510025.725    24510024.938    24510027.307
        37.000          16.0004
 124544420.950 7  97047622.74144  23699970.259    23699970.345    23699969.615
        42.000          26.0004
 103097732.858 9  80187127.182 8  19306889.095    19306888.142    19306890.582
        54.000          49.000
 124785413.716 6  97235381.96543  23745878.598    23745880.723    23745879.843
        40.000          20.0004
 114381165.361 8  89128179.36946  21766011.994    21766011.572    21766013.263
        48.000          40.0004
 124564702.719 6  96883685.074 5  23277875.010    23277876.994    23277876.213
        41.000          31.000
 111380949.570 8  86790295.25546  21195023.353    21195020.987    21195024.456
        51.000          39.0004
 124562358.583 7  97061579.98844  23703425.191    23703428.457    23703426.069
        42.000          24.0004
 112021521.903 8  87289598.33246  21316929.103    21316927.282    21316929.544
        50.000          41.0004
 116972385.623 7  90978526.456 7  21935999.713    21936000.210    21935999.393
        46.000          42.000
 111051239.870 9  86373268.695 7  20767092.816    20767092.075    20767094.353
        54.000          46.000
 118688679.870 7                  22265694.607                    22265693.925
        45.000
 127993070.900 7  99550176.925 5  23901789.861    23901787.859    23901789.286
        43.000          34.000
 117267145.324 8  91207870.268 7  21921823.580    21921822.953    21921824.874
        49.000          42.000
 111993697.864 8  87106247.115 7  20965431.492    20965433.712    20965432.635
        53.000          45.000
 126869274.661 6  98859150.10142  24142401.911    24142408.346    24142403.390
        39.000          16.0004
 127829918.493 6  99423274.394 5  23913230.031    23913236.362    23913231.110
        40.000          31.000
 124557557.003 6  97057835.86343  23702514.666    23702513.427    23702515.317
        39.000          19.0004
