     2.11           OBSERVATION DATA    M (MIXED)           RINEX VERSION / TYPE
teqc  2016Apr1                          20160930 07:51:16UTCPGM / RUN BY / DATE
Linux 2.4.20-8|Pentium IV|gcc|Linux|486/DX+                 COMMENT
teqc  2016Apr1                          20160816 03:35:44UTCCOMMENT
teqc  2010Mar17     gpsops              20111002 00:11:55UTCCOMMENT
Linux 2.4.21-27.ELsmp|Opteron|gcc -static|Linux x86_64|=+   COMMENT
BIT 2 OF LLI FLAGS DATA COLLECTED UNDER A/S CONDITION       COMMENT
                                                            COMMENT
This data is provided as a public service by NASA/JPL.      COMMENT
No warranty is expressed or implied regarding suitability   COMMENT
for use.  For further information, contact:                 COMMENT
Dave Stowers, NASA/JPL m/s 238-600                          COMMENT
4800 Oak Grove Drive, Pasadena CA 91109 USA                 COMMENT
                                                            COMMENT
Forced Modulo Decimation to 30 seconds                      COMMENT
 SNR is mapped to RINEX snr flag value [0-9]                COMMENT
  L1 & L2: min(max(int(snr_dBHz/6), 0), 9)                  COMMENT
pseudorange smoothing corrections not applied               COMMENT
SUTV                                                        MARKER NAME
30314M002                                                   MARKER NUMBER
GGN                 JPL                                     OBSERVER / AGENCY
2332                JPS EGGDT           2.7.0               REC # / TYPE / VERS
CR6200342011        ASH701945G_M    NONE                    ANT # / TYPE
  5041274.8417  1916054.1204 -3397075.9716                  APPROX POSITION XYZ
        0.0840        0.0000        0.0000                  ANTENNA: DELTA H/E/N
     1     1                                                WAVELENGTH FACT L1/2
     7    L1    L2    P1    P2    C1    S1    S2            # / TYPES OF OBSERV
    30.0000                                                 INTERVAL
teqc windowed: start @ 2011 Oct  1 00:10:00.000             COMMENT
teqc windowed:  end  @ 2011 Oct  1 00:20:00.000             COMMENT
  2011    10     1     0    10    0.0000000     GPS         TIME OF FIRST OBS
    15                                                      LEAP SECONDS
                                                            END OF HEADER
 11 10  1  0 10  0.0000000  0 18G28R12R22R07R03G11G27R23R14R08R13G04
                                G32G07R24G20G08G17
 105055149.184 8  81861187.20347  19991327.306    19991329.329    19991327.980
        52.000          45.0004
 116390143.043 7  90525685.052 7  21788476.289    21788484.257    21788476.844
        47.000          44.000
 117636828.455 7  91495348.184 7  22037321.809    22037327.290    22037322.391
        45.000          45.000
 117421905.862 7  91328177.558 6  21935393.077    21935395.286    21935394.429
        42.000          38.000
 118372434.568 7  92067478.715 7  22198555.287    22198562.127    22198554.627
        42.000          44.000
 121628274.301 7  94775319.58145  23145070.108    23145072.134    23145070.296
        45.000          32.0004
 127937538.114 6  99691609.89743  24345704.245    24345707.817    24345705.194
        37.000          19.0004
 109375952.177 8  85070217.408 7  20446674.559    20446680.693    20446675.294
        49.000          47.000
 119987103.313 6  93323317.584 3  22509273.710    22509278.624    22509273.924
        41.000          20.000
 118596850.413 7  92242011.621 6  22147120.651    22147123.498    22147120.998
        43.000          41.000
 107749703.979 8  83805351.468 8  20178059.595    20178065.171    20178060.628
        51.000          49.000
 122120783.667 7  95159046.48045  23238803.248    23238805.877    23238803.293
        45.000          31.0004
 121758215.670 7  94876562.84345  23169812.182    23169816.008    23169813.470
        46.000          32.0004
 128847470.931 7 100400662.36444  24518854.416    24518857.550    24518854.539
        42.000          26.0004
 119731541.873 7  93124559.423 7  22390400.392    22390406.299    22390400.092
        43.000          43.000
 116527031.113 8  90800303.00246  22174345.585    22174348.448    22174346.508
        48.000          37.0004
 120292946.482 8  93734779.74645  22890987.970    22890991.633    22890988.640
        48.000          35.0004
 112713899.041 8  87829030.36647  21448733.934    21448735.938    21448734.118
        51.000          43.0004
 11 10  1  0 10 30.0000000  0 18G28R12R22R07R03G11G27R23R14R08R13G04
                                G32G07R24G20G08G17
 105044245.494 8  81852690.82447  19989252.408    19989254.339    19989253.029
        51.000          45.0004
 116508901.546 7  90618052.750 7  21810708.101    21810715.833    21810708.931
        46.000          44.000
 117699844.263 7  91544360.472 7  22049126.627    22049131.788    22049127.854
        45.000          45.000
 117417029.979 7  91324385.207 6  21934483.039    21934484.007    21934484.983
        43.000          38.000
 118290216.015 7  92003530.940 7  22183136.735    22183143.357    22183136.690
        43.000          43.000
 121706085.754 7  94835951.87345  23159877.295    23159879.077    23159877.647
        46.000          31.0004
 127866176.518 6  99636003.44643  24332125.674    24332126.918    24332127.527
        38.000          19.0004
 109381955.932 8  85074887.000 7  20447796.893    20447802.944    20447797.163
        49.000          47.000
 119897374.005 6  93253528.045 3  22492441.269    22492445.268    22492440.568
        41.000          20.000
 118503873.134 7  92169695.968 6  22129757.670    22129760.511    22129758.289
        42.000          41.000
 107774074.036 8  83824305.944 8  20182623.267    20182629.022    20182624.407
        51.000          49.000
 122034859.317 7  95092092.44645  23222452.199    23222455.530    23222452.547
        45.000          31.0004
 121741971.726 7  94863905.23945  23166721.118    23166724.832    23166722.898
        47.000          32.0004
 128950648.888 6 100481060.72944  24538488.546    24538491.641    24538488.145
        41.000          25.0004
 119676945.947 7  93082095.938 7  22380190.987    22380196.584    22380190.559
        44.000          43.000
 116492256.028 8  90773205.54446  22167728.199    22167730.928    22167729.149
        49.000          38.0004
 120384941.821 7  93806464.39745  22908493.913    22908497.710    22908494.421
        47.000          35.0004
 112673933.693 8  87797888.54647  21441128.464    21441130.741    21441128.361
        51.000          42.0004
 11 10  1  0 11  0.0000000  0 18G28R12R22R07R03G11G27R23R14R08R13G04
                                G32G07R24G20G08G17
 105033842.204 8  81844584.35847  19987273.065    19987274.565    19987273.787
        52.000          46.0004
 116627944.316 7  90710641.544 7  21832993.315    21833000.987    21832993.815
        47.000          45.000
 117762866.628 7  91593377.851 7  22060933.223    22060938.463    22060934.065
        45.000          45.000
 117412883.445 7  91321160.150 6  21933708.528    21933709.499    21933709.375
        43.000          38.000
 118208596.074 7  91940048.750 7  22167829.719    22167837.222    22167829.100
        42.000          44.000
 121783978.641 7  94896647.63045  23174699.876    23174701.834    23174700.404
        46.000          31.0004
 127795325.017 6  99580794.48943  24318642.659    24318644.957    24318644.044
        37.000          20.0004
 109388111.980 8  85079675.037 7  20448947.697    20448953.652    20448948.592
        49.000          47.000
 119808206.468 6  93184175.463 3  22475713.363    22475718.976    22475714.276
        41.000          20.000
 118411246.837 7  92097653.320 6  22112460.609    22112463.360    22112461.253
        43.000          41.000
 107799250.200 8  83843887.393 8  20187338.171    20187343.661    20187339.503
        51.000          49.000
 121949170.150 7  95025321.68545  23206146.241    23206149.118    23206146.423
        45.000          31.0004
 121726237.755 7  94851645.01145  23163726.826    23163730.222    23163728.182
        45.000          32.0004
 129053761.854 6 100561408.44843  24558109.654    24558112.460    24558110.503
        41.000          23.0004
 119622489.141 7  93039740.659 7  22370006.984    22370013.097    22370006.398
        43.000          43.000
 116457937.250 8  90746463.64646  22161197.372    22161200.147    22161198.523
        49.000          38.0004
 120477126.666 7  93878296.71545  22926036.020    22926039.656    22926036.573
        47.000          34.0004
 112634126.870 8  87766870.25347  21433553.568    21433555.647    21433553.783
        51.000          43.0004
 11 10  1  0 11 30.0000000  0 18G28R12R22R07R03G11G27R23R14R08R13G04
                                G32G07R24G20G08G17
 105023940.961 8  81836869.10747  19985388.904    19985390.418    19985389.701
        51.000          45.0004
 116747267.278 7  90803448.268 7  21855330.506    21855338.400    21855330.677
        46.000          44.000
 117825895.584 7  91642400.368 7  22072741.223    22072745.558    22072741.679
        45.000          44.000
 117409467.214 7  91318503.087 6  21933069.478    21933071.303    21933070.188
        42.000          38.000
 118127578.020 7  91877034.705 7  22152636.603    22152643.893    22152636.494
        42.000          44.000
 121861951.979 7  94957406.07345  23189537.499    23189540.028    23189538.126
        44.000          31.0004
 127724986.426 6  99525985.18343  24305256.498    24305260.930    24305257.372
        37.000          20.0004
 109394419.750 8  85084581.085 7  20450126.893    20450133.027    20450127.395
        49.000          47.000
 119719604.847 6  93115263.292 3  22459092.106    22459096.128    22459091.428
        41.000          20.000
 118318976.656 7  92025887.655 6  22095229.451    22095232.207    22095229.257
        43.000          41.000
 107825231.227 8  83864094.855 8  20192203.476    20192208.882    20192204.475
        51.000          49.000
 121863717.637 7  94958735.32445  23189884.982    23189888.209    23189885.087
        45.000          31.0004
 121711015.408 7  94839783.46845  23160830.131    23160833.979    23160831.265
        45.000          32.0004
 129156807.160 6 100641703.47043  24577719.238    24577721.429    24577719.003
        39.000          22.0004
 119568171.105 7  92997493.312 7  22359849.679    22359855.223    22359850.051
        44.000          43.000
 116424077.050 8  90720079.08546  22154754.016    22154756.910    22154754.984
        48.000          38.0004
 120569497.990 7  93950274.35145  22943613.855    22943617.232    22943614.176
        47.000          34.0004
 112594478.928 8  87735975.76747  21426009.080    21426010.711    21426009.373
        51.000          43.0004
 11 10  1  0 12  0.0000000  0 18G28R12R22R07R03G11G27R23R14R08R13G04
                                G32G07R24G20G08G17
 105014546.414 8  81829548.67847  19983600.863    19983602.701    19983601.479
        52.000          45.0004
 116866869.512 7  90896472.204 7  21877720.540    21877728.039    21877721.055
        47.000          44.000
 117888934.068 7  91691430.299 7  22084549.211    22084554.855    22084550.055
        44.000          44.000
 117406787.377 7  91316418.785 6  21932569.516    21932570.911    21932570.982
        43.000          38.000
 118047169.205 7  91814494.510 7  22137557.028    22137564.894    22137556.535
        43.000          44.000
 121940007.856 7  95018228.81745  23204391.187    23204393.125    23204391.549
        43.000          31.0004
 127655166.381 6  99471579.97243  24291970.652    24291974.281    24291971.322
        36.000          21.0004
 109400881.845 8  85089607.158 7  20451334.753    20451341.077    20451335.194
        49.000          47.000
 119631576.018 7  93046796.303 3  22442578.201    22442583.412    22442578.712
        42.000          20.000
 118227070.929 7  91954405.447 7  22078066.875    22078069.912    22078067.435
        43.000          42.000
 107852019.075 8  83884929.838 8  20197220.032    20197225.457    20197221.139
        51.000          49.000
 121778506.202 7  94892336.82045  23173669.438    23173672.786    23173670.142
        45.000          31.0004
 121696309.502 7  94828324.32845  23158031.582    23158035.327    23158032.356
        46.000          32.0004
 129259785.988 6 100721946.66143  24597315.021    24597317.529    24597315.484
        38.000          22.0004
 119513994.652 7  92955356.071 7  22349718.375    22349723.642    22349718.460
        43.000          43.000
 116390680.736 8  90694055.99846  22148398.986    22148401.780    22148400.071
        48.000          38.0004
 120662056.311 7  94022397.69945  22961227.177    22961230.521    22961227.763
        47.000          34.0004
 112554993.024 8  87705207.53647  21418495.306    21418496.750    21418495.581
        52.000          43.0004
 11 10  1  0 12 30.0000000  0 18G28R12R22R07R03G11G27R23R14R08R13G04
                                G32G07R24G20G08G17
 105005649.375 8  81822615.93047  19981907.938    19981909.688    19981908.753
        51.000          45.0004
 116986736.832 7  90989702.320 7  21900160.539    21900167.613    21900161.239
        47.000          44.000
 117951971.887 7  91740459.700 7  22096359.191    22096364.408    22096359.701
        45.000          44.000
 117404833.640 7  91314899.212 6  21932204.435    21932205.546    21932205.457
        43.000          38.000
 117967362.892 7  91752422.927 7  22122590.990    22122599.103    22122590.578
        42.000          45.000
 122018134.752 7  95079106.91345  23219257.997    23219260.142    23219258.663
        45.000          31.0004
 127585857.253 6  99417572.85843  24278780.979    24278785.098    24278781.737
        37.000          21.0004
 109407487.054 8  85094744.545 7  20452569.520    20452575.708    20452570.064
        49.000          47.000
 119544113.796 7  92978770.152 3  22426171.165    22426175.527    22426170.827
        42.000          20.000
 118135523.724 7  91883202.094 7  22060971.066    22060973.986    22060971.178
        43.000          42.000
 107879602.264 8  83906383.417 8  20202385.481    20202390.956    20202386.518
        51.000          49.000
 121693527.521 7  94826119.67845  23157498.491    23157502.164    23157498.504
        45.000          31.0004
 121682111.381 7  94817260.85945  23155329.946    23155333.337    23155330.721
        46.000          32.0004
 129362685.894 6 100802128.37343  24616896.076    24616899.529    24616896.135
        39.000          22.0004
 119459948.710 7  92913320.353 7  22339611.814    22339616.749    22339612.185
        43.000          42.000
 116357740.062 8  90668387.95246  22142130.639    22142133.252    22142131.678
        49.000          38.0004
 120754789.006 7  94094656.92345  22978873.729    22978876.830    22978874.465
        47.000          34.0004
 112515659.133 8  87674557.76447  21411010.133    21411012.034    21411010.372
        51.000          43.0004
 11 10  1  0 13  0.0000000  0 18G28R12R22R07R03G11G27R23R14R08R13G04
                                G32G07R24G20G08G17
 104997268.288 8  81816085.20347  19980313.224    19980314.877    19980313.909
        51.000          45.0004
 117106882.075 7  91083148.580 7  21922652.183    21922659.060    21922652.981
        46.000          43.000
 118015026.209 7  91789501.935 7  22108171.456    22108176.135    22108172.387
        45.000          44.000
 117403624.816 7  91313959.012 6  21931978.658    21931979.973    21931980.398
        42.000          38.000
 117888179.967 7  91690836.209 7  22107741.452    22107749.608    22107741.047
        42.000          45.000
 122096348.410 7  95140052.60545  23234141.720    23234143.727    23234142.154
        45.000          31.0004
 127517078.368 6  99363978.92743  24265692.964    24265697.250    24265694.350
        38.000          22.0004
 109414251.622 8  85100005.869 7  20453834.420    20453840.187    20453834.772
        49.000          47.000
 119457239.030 7  92911200.923 3  22409873.572    22409937.907    22409874.250
        42.000          20.000
 118044356.647 7  91812294.402 7  22043946.017    22043949.003    22043947.359
        42.000          42.000
 107907996.484 8  83928467.791 8  20207702.719    20207708.134    20207704.078
        51.000          49.000
 121608799.425 7  94760097.79445  23141375.373    23141378.978    23141375.582
        46.000          31.0004
 121668439.239 7  94806607.24445  23152727.984    23152731.636    23152729.091
        46.000          32.0004
 129465521.192 6 100882259.70543  24636464.929    24636468.621    24636465.605
        40.000          23.0004
 119406049.743 7  92871398.951 7  22329532.307    22329537.112    22329532.247
        43.000          43.000
 116325273.720 8  90643089.50146  22135952.500    22135955.152    22135953.472
        49.000          38.0004
 120847710.042 7  94167062.91045  22996555.930    22996559.444    22996556.304
        47.000          34.0004
 112476494.159 8  87644039.60747  21403557.065    21403559.144    21403557.193
        51.000          43.0004
 11 10  1  0 13 30.0000000  0 18G28R12R22R07R03G11G27R23R14R08R13G04
                                G32G07R24G20G08G17
 104989386.554 8  81809943.58847  19978813.393    19978814.935    19978814.065
        51.000          45.0004
 117227282.707 7  91176793.506 7  21945191.090    21945198.437    21945191.580
        46.000          43.000
 118078078.829 7  91838542.867 7  22119982.969    22119987.855    22119983.522
        45.000          44.000
 117403143.253 7  91313584.473 6  21931888.793    21931890.349    21931891.113
        43.000          38.000
 117809604.954 7  91629722.303 7  22093006.471    22093014.374    22093005.667
        42.000          45.000
 122174629.655 7  95201050.97945  23249038.418    23249040.108    23249039.286
        45.000          31.0004
 127448814.056 6  99310785.95643  24252703.058    24252707.280    24252704.265
        39.000          23.0004
 109421156.380 8  85105376.245 7  20455124.724    20455131.096    20455125.512
        49.000          47.000
 119370937.075 7  92844077.217 3  22393683.146    22393688.335    22393683.635
        42.000          20.000
 117953556.361 7  91741671.994 7  22026989.549    22026992.908    22026989.918
        43.000          42.000
 107937181.582 8  83951167.311 8  20213168.218    20213173.610    20213169.137
        51.000          49.000
 121524305.661 7  94694258.52545  23125296.877    23125300.388    23125296.844
        44.000          32.0004
 121655276.635 7  94796350.68945  23150223.747    23150227.204    23150224.521
        45.000          32.0004
 129568271.245 6 100962324.64144  24656018.131    24656021.638    24656018.284
        41.000          25.0004
 119352278.734 7  92829577.077 7  22319476.667    22319481.496    22319476.690
        43.000          42.000
 116293265.593 8  90618148.11846  22129861.295    22129864.176    22129862.421
        49.000          38.0004
 120940798.584 7  94239599.41745  23014270.106    23014273.919    23014270.543
        47.000          34.0004
 112437480.200 8  87613639.13547  21396132.904    21396135.112    21396133.046
        50.000          43.0004
 11 10  1  0 14  0.0000000  0 18G28R12R22R07R03G11G27R23R14R08R13G04
                                G32G07R24G20G08G17
 104982014.435 8  81804199.07447  19977410.335    19977412.071    19977411.113
        51.000          45.0004
 117347943.684 7  91270640.906 7  21967779.006    21967786.619    21967779.583
        46.000          43.000
 118141138.809 7  91887589.505 7  22131796.753    22131801.315    22131797.594
        46.000          44.000
 117403398.647 7  91313783.116 6  21931936.302    21931937.751    21931937.613
        43.000          38.000
 117731650.458 7  91569091.014 7  22078387.627    22078395.167    22078386.591
        42.000          45.000
 122252986.164 7  95262107.98445  23263949.076    23263950.811    23263949.410
        45.000          31.0004
 127381075.616 6  99258002.75043  24239813.018    24239816.512    24239812.701
        40.000          23.0004
 109428209.700 8  85110862.155 8  20456443.566    20456449.889    20456444.064
        49.000          48.000
 119285220.810 6  92777408.999 3  22377602.835    22377608.447    22377603.747
        41.000          20.000
 117863136.735 7  91671345.625 6  22010104.711    22010107.486    22010105.020
        43.000          41.000
 107967165.339 8  83974487.991 8  20218783.296    20218788.626    20218784.527
        51.000          49.000
 121440056.069 7  94628609.49645  23109264.569    23109268.156    23109264.950
        46.000          31.0004
 121642633.684 7  94786499.03645  23147817.828    23147821.286    23147819.006
        47.000          32.0004
 129670942.797 7 101042328.38744  24675556.021    24675559.257    24675555.952
        42.000          27.0004
 119298644.231 7  92787861.353 7  22309446.942    22309451.660    22309445.979
        43.000          42.000
 116261726.842 8  90593572.46746  22123859.845    22123862.630    22123860.683
        48.000          38.0004
 121034060.752 7  94312271.21045  23032017.055    23032021.087    23032017.515
        47.000          34.0004
 112398625.841 8  87583363.01147  21388739.224    21388741.376    21388739.342
        50.000          43.0004
 11 10  1  0 14 30.0000000  0 18G28R12R22R07R03G11G27R23R14R08R13G04
                                G32G07R24G20G08G17
 104975155.455 8  81798854.41447  19976105.031    19976106.914    19976105.575
        51.000          45.0004
 117468862.995 7  91364689.241 7  21990415.544    21990423.061    21990415.733
        46.000          43.000
 118204208.169 7  91936643.440 7  22143611.165    22143616.695    22143612.191
        45.000          43.000
 117404394.023 7  91314557.300 6  21932122.573    21932123.512    21932124.295
        43.000          38.000
 117654322.639 7  91508947.153 7  22063886.219    22063893.706    22063885.660
        42.000          45.000
 122331418.606 7  95323224.17645  23278874.374    23278876.229    23278875.005
        46.000          31.0004
 127313867.797 6  99205633.00243  24227024.078    24227027.242    24227024.921
        41.000          23.0004
 109435412.890 8  85116464.640 8  20457790.056    20457796.261    20457791.057
        49.000          48.000
 119200096.228 6  92711201.553 3  22361633.274    22361704.198    22361633.567
        41.000          20.000
 117773104.202 7  91601320.329 6  21993291.851    21993294.505    21993292.878
        43.000          41.000
 107997948.105 8  83998430.133 8  20224548.044    20224553.468    20224549.476
        52.000          49.000
 121356054.524 7  94563153.76245  23093279.795    23093283.026    23093279.526
        45.000          31.0004
 121630514.033 7  94777055.14445  23145510.977    23145515.076    23145511.481
        45.000          31.0004
 129773535.498 7 101122270.69744  24695079.064    24695082.088    24695079.713
        43.000          28.0004
 119245147.711 7  92746252.966 7  22299442.341    22299447.711    22299442.648
        43.000          42.000
 116230661.327 8  90569365.57346  22117948.218    22117950.968    22117949.010
        48.000          37.0004
 121127495.715 7  94385077.65345  23049797.278    23049801.212    23049798.207
        46.000          35.0004
 112359933.629 8  87553213.24147  21381376.627    21381378.321    21381376.869
        51.000          43.0004
 11 10  1  0 15  0.0000000  0 18G28R12R22R07R03G11G27R23R14R08R13G04
                                G32G07R24G20G08G17
 104968801.977 8  81793903.65947  19974896.117    19974897.878    19974896.704
        52.000          45.0004
 117590027.534 7  91458928.317 7  22013097.396    22013105.111    22013098.019
        46.000          43.000
 118267277.916 7  91985697.686 7  22155426.667    22155430.898    22155427.928
        46.000          43.000
 117406121.646 7  91315901.009 6  21932444.694    21932446.350    21932446.799
        42.000          38.000
 117577616.053 7  91449286.469 7  22049501.558    22049508.477    22049501.512
        42.000          44.000
 122409917.039 7  95384391.78945  23293812.064    23293813.775    23293812.327
        45.000          31.0004
 127247184.045 6  99153671.64643  24214334.647    24214337.554    24214335.343
        40.000          23.0004
 109442756.358 8  85122176.230 7  20459162.979    20459168.976    20459163.584
        49.000          47.000
 119115557.892 6  92645449.038 3  22345773.991    22345779.448    22345774.748
        41.000          20.000
 117683454.716 7  91531592.976 6  21976549.838    21976552.778    21976549.920
        43.000          41.000
 108029519.398 8  84022985.580 8  20230460.417    20230465.627    20230461.323
        51.000          49.000
 121272293.184 7  94497885.20845  23077340.479    23077343.564    23077340.583
        45.000          31.0004
 121618910.220 7  94768013.23645  23143303.100    23143306.947    23143303.487
        45.000          32.0004
 129876038.038 7 101202142.75544  24714584.577    24714587.901    24714584.440
        43.000          29.0004
 119191779.502 7  92704744.390 7  22289461.773    22289467.306    22289461.226
        42.000          42.000
 116200062.152 8  90545522.06446  22112125.293    22112128.153    22112126.102
        49.000          38.0004
 121221091.850 7  94458009.68945  23067608.499    23067611.983    23067609.202
        46.000          34.0004
 112321394.727 8  87523182.94447  21374042.990    21374044.497    21374043.235
        52.000          43.0004
 11 10  1  0 15 30.0000000  0 18G28R12R22R07R03G11G27R23R14R08R13G04
                                G32G07R24G20G08G17
 104962963.854 8  81789354.46947  19973785.410    19973786.990    19973786.183
        51.000          45.0004
 117711442.060 7  91553361.822 7  22035826.495    22035834.488    22035827.095
        46.000          44.000
 118330357.127 7  92034759.306 7  22167243.691    22167247.878    22167244.890
        45.000          43.000
 117408591.620 7  91317822.102 6  21932906.897    21932907.784    21932908.242
        43.000          38.000
 117501542.345 7  91390118.021 7  22035235.740    22035242.508    22035234.972
        42.000          44.000
 122488489.019 7  95445616.70545  23308763.714    23308765.468    23308764.144
        45.000          30.0004
 127181035.437 6  99102127.26943  24201746.911    24201750.415    24201747.471
        40.000          23.0004
 109450248.241 8  85128003.254 7  20460563.430    20460569.468    20460564.079
        49.000          47.000
 119031618.854 6  92580163.217 3  22330026.861    22330032.372    22330027.672
        40.000          20.000
 117594201.704 7  91462173.978 6  21959883.172    21959885.598    21959883.269
        43.000          41.000
 108061886.337 8  84048159.860 8  20236521.846    20236526.906    20236522.890
        51.000          49.000
 121188782.398 7  94432811.87245  23061448.703    23061451.805    23061448.766
        45.000          31.0004
 121607832.350 7  94759381.12445  23141194.994    23141198.719    23141195.799
        45.000          32.0004
 129978456.707 7 101281949.43244  24734074.752    24734077.378    24734074.537
        42.000          29.0004
 119138547.777 7  92663341.940 6  22279507.081    22279512.391    22279506.624
        42.000          41.000
 116169939.964 8  90522050.23746  22106393.456    22106396.071    22106394.292
        49.000          38.0004
 121314855.368 7  94531072.14845  23085450.669    23085454.706    23085451.103
        46.000          34.0004
 112283017.995 8  87493279.00947  21366739.997    21366741.406    21366740.308
        52.000          43.0004
 11 10  1  0 16  0.0000000  0 18G28R12R22R07R03G11G27R23R14R08R13G04
                                G32G07R24G20G08G17
 104957637.985 8  81785204.43247  19972771.767    19972773.493    19972772.566
        52.000          45.0004
 117833097.754 7  91647982.887 7  22058600.653    22058608.823    22058600.780
        46.000          43.000
 118393441.233 7  92083824.703 7  22179060.797    22179066.444    22179062.448
        45.000          43.000
 117411799.827 7  91320317.377 6  21933505.525    21933507.189    21933507.286
        43.000          38.000
 117426100.943 7  91331441.365 7  22021088.446    22021094.833    22021087.666
        43.000          44.000
 122567128.838 7  95506894.46845  23323728.665    23323730.397    23323728.562
        46.000          30.0004
 127115419.758 7  99050998.13243  24189260.672    24189262.574    24189262.614
        42.000          22.0004
 109457883.148 8  85133941.514 7  20461990.585    20461996.665    20461990.608
        49.000          47.000
 118948277.783 6  92515342.753 3  22314393.236    22314473.764    22314393.198
        41.000          20.000
 117505345.183 7  91393063.352 6  21943289.578    21943292.113    21943289.916
        43.000          41.000
 108095043.133 8  84073948.463 8  20242730.698    20242736.249    20242731.598
        51.000          49.000
 121105518.970 7  94367931.28145  23045604.428    23045607.332    23045604.727
        46.000          32.0004
 121597277.213 7  94751156.34845  23139186.449    23139190.345    23139187.236
        46.000          32.0004
 130080784.941 6 101361685.64044  24753546.702    24753549.942    24753546.474
        41.000          28.0004
 119085447.598 7  92622041.811 6  22269577.404    22269582.241    22269577.154
        43.000          41.000
 116140292.137 8  90498948.03846  22100751.551    22100754.207    22100752.405
        48.000          38.0004
 121408778.813 7  94604259.22345  23103323.594    23103327.509    23103324.160
        45.000          34.0004
 112244799.050 8  87463498.00947  21359466.827    21359468.871    21359466.686
        51.000          43.0004
 11 10  1  0 16 30.0000000  0 18G28R12R22R07R03G11G27R23R14R08R13G04
                                G32G07R24G20G08G17
 104952824.340 8  81781453.53847  19971855.722    19971857.369    19971856.452
        51.000          45.0004
 117954989.287 7  91742787.383 7  22081418.686    22081427.087    22081419.148
        45.000          43.000
 118456528.819 7  92132892.814 7  22190879.687    22190884.115    22190881.443
        45.000          43.000
 117415745.374 7  91323386.130 6  21934242.485    21934244.416    21934244.055
        42.000          39.000
 117351293.494 7  91273257.787 7  22007059.413    22007066.363    22007058.465
        43.000          45.000
 122645833.735 7  95568222.96445  23338705.377    23338707.336    23338706.195
        46.000          30.0004
 127050337.783 6  99000284.87543  24176876.485    24176878.511    24176877.222
        39.000          21.0004
 109465659.088 8  85139989.475 7  20463444.253    20463450.624    20463444.717
        49.000          47.000
 118865537.026 7  92450988.513 3  22298871.943    22298875.770    22298871.070
        42.000          20.000
 117416888.576 7  91324263.783 6  21926770.837    21926773.871    21926771.500
        43.000          41.000
 108128986.081 8  84100348.526 8  20249086.988    20249092.781    20249087.868
        51.000          49.000
 121022502.784 7  94303243.34345  23029806.893    23029810.031    23029807.187
        46.000          32.0004
 121587244.599 7  94743338.72645  23137277.583    23137280.842    23137279.096
        46.000          32.0004
 130183018.692 7 101441348.23244  24773000.876    24773004.279    24773000.699
        42.000          27.0004
 119032476.446 7  92580842.031 7  22259671.722    22259676.650    22259671.880
        43.000          42.000
 116111119.055 8  90476215.77446  22095200.005    22095202.930    22095200.844
        49.000          38.0004
 121502858.016 7  94677567.66845  23121226.650    23121229.993    23121227.202
        47.000          33.0004
 112206736.436 8  87433838.82847  21352223.878    21352226.056    21352223.882
        51.000          43.0004
 11 10  1  0 17  0.0000000  0 18G28R12R22R07R03G11G27R23R14R08R13G04
                                G32G07R24G20G08G17
 104948524.666 8  81778103.15247  19971037.373    19971039.128    19971037.981
        49.000          45.0004
 118077112.895 7  91837772.376 7  22104280.798    22104288.804    22104281.252
        45.000          44.000
 118519620.586 7  92181964.204 7  22202699.151    22202703.035    22202700.749
        45.000          42.000
 117420429.762 7  91327029.564 6  21935117.952    21935119.341    21935119.638
        43.000          38.000
 117277123.740 7  91215570.202 7  21993149.869    21993157.665    21993150.009
        43.000          45.000
 122724603.301 7  95629601.85145  23353694.839    23353696.920    23353695.627
        45.000          30.0004
 126985792.548 6  98949989.87843  24164593.293    24164596.519    24164595.040
        41.000          21.0004
 109473575.537 8  85146146.716 7  20464924.348    20464930.366    20464925.137
        49.000          47.000
 118783400.637 7  92387104.587 3  22283463.659    22283469.319    22283464.619
        42.000          20.000
 117328837.045 7  91255779.271 6  21910328.254    21910330.582    21910328.257
        43.000          41.000
 108163714.428 8  84127359.454 8  20255590.233    20255596.246    20255590.965
        51.000          49.000
 120939735.720 7  94238749.53745  23014056.797    23014059.962    23014056.596
        46.000          32.0004
 121577736.386 7  94735929.74945  23135468.083    23135471.548    23135468.972
        44.000          32.0004
 130285155.989 6 101520935.67144  24792436.945    24792440.513    24792436.567
        38.000          25.0004
 118979634.678 7  92539742.888 7  22249790.248    22249795.001    22249790.154
        44.000          42.000
 116082423.144 8  90453855.32346  22089739.521    22089742.368    22089740.128
        49.000          38.0004
 121597090.664 7  94750995.67945  23139158.442    23139161.763    23139159.662
        46.000          33.0004
 112168830.618 8  87404301.83747  21345010.838    21345012.709    21345011.143
        50.000          43.0004
 11 10  1  0 17 30.0000000  0 18G28R12R22R07R03G11G27R23R14R08R13G04
                                G32G07R24G20G08G17
 104944744.842 8  81775157.82847  19970318.261    19970320.009    19970319.006
        51.000          45.0004
 118199469.208 7  91932938.368 7  22127186.293    22127194.097    22127186.599
        45.000          44.000
 118582721.568 7  92231042.749 7  22214519.886    22214524.521    22214521.673
        44.000          43.000
 117425858.395 7  91331251.837 6  21936131.857    21936132.948    21936133.001
        43.000          38.000
 117203600.023 7  91158385.091 7  21979362.177    21979369.417    21979361.652
        43.000          45.000
 122803441.050 7  95691033.84645  23368696.975    23368699.019    23368697.308
        44.000          30.0004
 126921790.889 6  98900118.44043  24152413.132    24152417.560    24152415.574
        41.000          21.0004
 109481637.034 8  85152416.769 7  20466430.983    20466437.099    20466431.639
        49.000          47.000
 118701877.252 7  92323697.533 3  22268170.056    22268174.274    22268169.574
        43.000          20.000
 117241200.245 7  91187617.332 6  21893961.971    21893964.762    21893962.545
        43.000          41.000
 108199230.484 8  84154983.040 8  20262241.173    20262247.014    20262242.227
        51.000          49.000
 120857223.854 7  94174454.58245  22998355.422    22998358.850    22998355.444
        46.000          32.0004
 121568758.481 7  94728933.98345  23133759.670    23133763.086    23133760.769
        46.000          31.0004
 130387199.617 6 101600450.11643  24811855.213    24811859.080    24811855.204
        36.000          22.0004
 118926926.036 7  92498747.290 7  22239933.416    22239938.514    22239933.573
        44.000          42.000
 116054210.671 8  90431871.57746  22084370.787    22084373.291    22084371.422
        50.000          38.0004
 121691478.666 7  94824544.75145  23157120.032    23157123.312    23157120.606
        46.000          33.0004
 112131086.703 8  87374890.99847  21337828.463    21337830.245    21337828.742
        52.000          43.0004
 11 10  1  0 18  0.0000000  0 18G28R12R22R07R03G11G27R23R14R08R13G04
                                G32G07R24G20G08G17
 104941480.993 8  81772614.55847  19969697.380    19969698.958    19969698.187
        50.000          46.0004
 118322049.037 7  92028278.192 7  22150133.661    22150141.179    22150133.985
        45.000          44.000
 118645826.646 7  92280124.448 7  22226340.810    22226346.722    22226342.199
        44.000          43.000
 117432028.205 7  91336050.567 6  21937284.742    21937285.684    21937286.635
        43.000          38.000
 117130720.361 7  91101700.898 7  21965695.019    21965702.294    21965694.862
        44.000          45.000
 122882340.733 7  95752514.10745  23383710.888    23383712.927    23383711.516
        43.000          30.0004
 126858329.988 6  98850668.35343  24140337.670    24140342.151    24140338.233
        38.000          19.0004
 109489837.486 8  85158794.895 7  20467964.251    20467970.193    20467964.660
        49.000          47.000
 118620965.274 7  92260766.049 3  22252990.858    22252996.021    22252991.321
        42.000          20.000
 117153977.215 7  91119777.215 7  21877674.017    21877677.056    21877674.891
        43.000          42.000
 108235527.485 8  84183214.024 8  20269038.421    20269044.312    20269039.325
        51.000          49.000
 120774963.339 7  94110355.48545  22982701.628    22982704.730    22982701.931
        46.000          32.0004
 121560307.189 7  94722348.55845  23132151.002    23132154.896    23132151.667
        46.000          31.0004
 130489142.116 5 101679885.70643  24831254.490    24831257.492    24831253.326
        33.000          18.0004
 118874344.851 7  92457850.809 7  22230100.547    22230105.740    22230100.764
        43.000          42.000
 116026478.434 8  90410262.03746  22079093.714    22079096.091    22079094.477
        48.000          38.0004
 121786014.366 7  94898208.92245  23175109.454    23175112.838    23175109.767
        46.000          33.0004
 112093499.567 8  87345602.32047  21330675.838    21330677.488    21330676.208
        51.000          43.0004
 11 10  1  0 18 30.0000000  0 18G28R12R22R07R03G11G27R23R14R08R13G04
                                G32G07R24G20G08G17
 104938738.588 8  81770477.61747  19969175.330    19969177.097    19969176.022
        51.000          45.0004
 118444852.569 7  92123792.022 7  22173122.808    22173130.413    22173123.204
        45.000          43.000
 118708940.118 7  92329212.706 7  22238165.032    22238170.022    22238166.110
        44.000          43.000
 117438941.480 7  91341427.570 6  21938575.746    21938577.311    21938578.476
        43.000          38.000
 117058492.818 7  91045523.918 7  21952149.438    21952157.226    21952149.029
        43.000          45.000
 122961305.368 7  95814044.98445  23398737.239    23398739.543    23398738.045
        44.000          30.0004
 126795416.422 6  98801644.76543  24128364.972    24128369.036    24128365.107
        38.000          18.0004
 109498180.685 8  85165284.058 7  20469523.912    20469530.024    20469524.428
        49.000          47.000
 118540672.859 7  92198316.385 3  22237928.125    22237933.013    22237928.313
        42.000          20.000
 117067177.432 7  91052266.306 7  21861464.418    21861467.596    21861465.272
        43.000          42.000
 108272608.126 8  84212054.509 8  20275982.530    20275988.275    20275983.297
        51.000          49.000
 120692959.975 7  94046456.77045  22967097.067    22967100.177    22967096.806
        46.000          32.0004
 121552387.997 7  94716177.77645  23130644.358    23130647.912    23130645.166
        44.000          32.0004
 130590985.323 6 101759243.92842  24850634.899    24850638.419    24850634.401
        36.000          15.0004
 118821895.050 7  92417056.525 7  22220291.764    22220297.249    22220291.971
        43.000          42.000
 115999232.704 8  90389031.61046  22073908.874    22073911.489    22073909.563
        49.000          38.0004
 121880698.890 7  94971989.05745  23193127.197    23193130.716    23193127.961
        46.000          33.0004
 112056073.707 8  87316439.31547  21323553.794    21323555.612    21323554.181
        51.000          43.0004
 11 10  1  0 19  0.0000000  0 18G28R12R22R07R03G11G27R23R14R08R13G04
                                G32G07R24G20G08G17
 104936511.059 8  81768741.87747  19968751.329    19968753.177    19968751.926
        51.000          45.0004
 118567867.662 7  92219470.399 7  22196151.431    22196159.146    22196152.387
        46.000          43.000
 118772054.233 7  92378301.449 7  22249987.843    22249992.411    22249989.025
        44.000          43.000
 117446592.421 7  91347378.309 6  21940005.366    21940006.710    21940007.524
        43.000          38.000
 116986912.797 7  90989850.566 7  21938726.397    21938733.260    21938725.897
        43.000          44.000
 123040326.079 7  95875619.55745  23413774.889    23413776.971    23413775.066
        44.000          30.0004
 126733044.457 6  98753043.21542  24116496.263    24116499.848    24116495.305
        36.000          17.0004
 109506657.791 8  85171877.361 7  20471108.549    20471114.708    20471109.267
        49.000          47.000
 118460995.406 7  92136345.072 3  22222980.588    22222985.765    22222981.065
        42.000          20.000
 116980797.514 7  90985081.947 7  21845333.763    21845336.792    21845334.846
        44.000          42.000
 108310462.413 8  84241496.719 8  20283071.556    20283077.206    20283072.368
        51.000          49.000
 120611206.871 7  93982753.05245  22951540.068    22951542.926    22951540.208
        47.000          32.0004
 121544994.320 7  94710416.46845  23129237.530    23129240.846    23129238.633
        45.000          32.0004
 130692718.654 6 101838516.63042  24869994.238    24869996.002    24869994.701
        39.000          16.0004
 118769567.779 7  92376357.555 7  22210506.318    22210511.697    22210506.345
        43.000          42.000
 115972467.415 8  90368175.54046  22068815.546    22068818.304    22068816.472
        48.000          38.0004
 121975521.858 7  95045877.07345  23211171.373    23211175.018    23211172.096
        46.000          32.0004
 112018801.388 8  87287395.95347  21316460.842    21316463.069    21316460.934
        51.000          43.0004
 11 10  1  0 19 30.0000000  0 18G28R12R22R07R03G11G27R23R14R08R13G04
                                G32G07R24G20G08G17
 104934804.706 8  81767412.24847  19968426.671    19968428.328    19968427.266
        51.000          45.0004
 118691095.677 7  92315314.386 7  22219219.877    22219227.340    22219220.970
        45.000          43.000
 118835174.662 7  92427395.102 7  22261812.356    22261817.815    22261814.070
        44.000          43.000
 117454987.774 7  91353908.037 6  21941573.694    21941574.974    21941575.714
        43.000          38.000
 116915988.431 7  90934687.169 7  21925425.990    21925432.507    21925425.802
        43.000          44.000
 123119407.074 7  95937241.10345  23428823.725    23428825.472    23428824.090
        45.000          30.0004
 126671221.637 6  98704869.59142  24104731.942    24104735.443    24104732.608
        38.000          16.0004
 109515273.871 8  85178578.755 7  20472719.201    20472725.100    20472720.188
        49.000          47.000
 118381941.678 6  92074858.883 3  22208149.831    22208153.121    22208148.421
        41.000          20.000
 116894846.964 7  90918231.534 7  21829283.052    21829286.055    21829283.457
        44.000          42.000
 108349093.417 8  84271543.047 8  20290306.099    20290311.565    20290307.127
        51.000          48.000
 120529710.970 7  93919249.74945  22936032.015    22936035.107    22936032.268
        47.000          33.0004
 121538132.500 7  94705069.61645  23127931.457    23127934.995    23127932.622
        45.000          32.0004
 130794345.931 6 101917706.67743  24889333.797    24889335.290    24889333.532
        41.000          18.0004
 118717368.145 7  92335757.848 7  22200744.229    22200750.337    22200743.917
        43.000          43.000
 115946189.610 8  90347699.33646  22063815.082    22063817.777    22063816.043
        49.000          38.0004
 122070485.710 7  95119874.86445  23229242.620    23229246.191    23229243.195
        46.000          33.0004
 111981688.155 8  87258476.54847  21309398.592    21309400.699    21309398.746
        51.000          44.0004
 11 10  1  0 20  0.0000000  0 18G28R12R22R07R03G11G27R23R14R08R13G04
                                G32G07R24G20G08G17
 104933617.818 8  81766487.39847  19968200.963    19968202.490    19968201.721
        51.000          45.0004
 118814529.481 7  92411318.438 7  22242326.908    22242334.409    22242327.605
        45.000          42.000
 118898298.262 7  92476491.223 7  22273637.850    22273643.475    22273639.059
        44.000          44.000
 117464123.306 7  91361013.453 6  21943280.408    21943281.785    21943281.608
        43.000          38.000
 116845719.794 7  90880033.786 7  21912248.017    21912255.305    21912247.935
        43.000          44.000
 123198543.978 7  95998906.20545  23443882.678    23443884.793    23443883.059
        45.000          30.0004
 126609947.254 6  98657123.30042  24093072.477    24093075.207    24093072.157
        37.000          17.0004
 109524024.754 8  85185384.997 7  20474355.205    20474360.922    20474356.009
        49.000          47.000
 118303512.481 7  92013858.355 3  22193436.624    22193442.509    22193437.809
        42.000          20.000
 116809327.704 7  90851716.584 7  21813312.595    21813316.221    21813312.772
        43.000          42.000
 108388496.331 8  84302189.746 8  20297684.775    20297690.409    20297685.856
        51.000          48.000
 120448470.140 7  93855945.21845  22920572.022    22920575.364    22920572.479
        46.000          33.0004
 121531800.590 7  94700135.65845  23126727.161    23126730.338    23126728.153
        46.000          32.0004
 130895861.116 6 101996809.38043  24908651.140    24908653.085    24908651.000
        41.000          20.0004
 118665292.060 7  92295254.225 7  22191006.151    22191011.643    22191005.985
        43.000          42.000
 115920397.518 8  90327601.61146  22058906.814    22058909.646    22058907.673
        49.000          38.0004
 122165584.436 7  95193977.75545  23247339.174    23247342.923    23247339.721
        46.000          32.0004
 111944730.687 8  87229678.52647  21302366.253    21302367.882    21302366.716
        52.000          43.0004
