     2.11           OBSERVATION DATA    G (GPS)             RINEX VERSION / TYPE
teqc  2016Apr1                          20160930 07:51:15UTCPGM / RUN BY / DATE
Linux 2.4.20-8|Pentium IV|gcc|Linux|486/DX+                 COMMENT
teqc  2016Apr1                          20160816 03:01:37UTCCOMMENT
teqc  2010Mar17     gpsops              20111002 00:07:09UTCCOMMENT
Linux 2.4.21-27.ELsmp|Opteron|gcc -static|Linux x86_64|=+   COMMENT
     2.10           OBSERVATION DATA    GPS                 COMMENT
soc2rnx ver 1.20    gpsops               2-Oct-2011 00:07:08COMMENT
S1, if present, is the SNR for the C/A data stream on L1.   COMMENT
 SNR is mapped to RINEX snr flag value [1,4-9]              COMMENT
    SNR:   >316  >100  >31.6  >10  >3.2    >0 bad=0         COMMENT
L1 & L2:      9     8     7     6     5     4     1         COMMENT
                                                            COMMENT
This data is provided as a public service by NASA/JPL.      COMMENT
No warranty is expressed or implied regarding suitability   COMMENT
for use.  For further information, contact:                 COMMENT
Dave Stowers, NASA/JPL m/s 238-600                          COMMENT
4800 Oak Grove Drive, Pasadena CA 91109 USA                 COMMENT
                                                            COMMENT
Forced Modulo Decimation to 30 seconds                      COMMENT
AMC2                                                        MARKER NAME
40472S004                                                   MARKER NUMBER
GGN                 USNO                                    OBSERVER / AGENCY
RT920013101         ASHTECH Z-XII3T     IL01-1D04-MCF-12MX  REC # / TYPE / VERS
KW-0201             AOAD/M_T        NONE                    ANT # / TYPE
 -1248596.2520 -4819428.2840  3976506.0340                  APPROX POSITION XYZ
        0.0000        0.0000        0.0000                  ANTENNA: DELTA H/E/N
     1     1                                                WAVELENGTH FACT L1/2
     7    L1    L2    P1    P2    C1    S1    S2            # / TYPES OF OBSERV
    30.0000                                                 INTERVAL
teqc windowed: start @ 2011 Oct  1 00:10:00.000             COMMENT
teqc windowed:  end  @ 2011 Oct  1 00:20:00.000             COMMENT
  2011    10     1     0    10    0.0000000     GPS         TIME OF FIRST OBS
                                                            END OF HEADER
 11 10  1  0 10  0.0000000  0  9G25G05G26G21G15G12G02G30G29
 116491785.34448  90772793.26648  22167672.0124   22167677.0504   22167672.4924
       234.000         182.000
 110033059.00848  85740038.39448  20938601.2924   20938601.7614   20938601.0814
       236.000         196.000
 121850057.46248  94948078.02948  23187309.9684   23187313.8574   23187309.3084
       210.000         148.000
 125960311.51348  98150870.95248  23969468.0454   23969470.6034   23969468.5224
       212.000         145.000
 126738634.80748  98757372.27448  24117561.4964   24117567.9144   24117561.2534
       203.000         143.000
 124260382.09248  96826257.40948  23645978.0124   23645981.5224   23645977.8754
       215.000         155.000
 118566794.19648  92389708.75848  22562511.9704   22562511.9044   22562512.0584
       220.000         163.000
 116457315.26248  90745950.39348  22161097.8884   22161100.7264   22161098.4994
       227.000         169.000
 108475434.77848  84526309.33048  20642191.8904   20642192.6444   20642191.7794
       239.000         199.000
 11 10  1  0 10 30.0000000  0  9G25G05G26G21G15G12G02G30G29
 116566130.47348  90830724.49948  22181819.4674   22181824.4804   22181819.8244
       234.000         183.000
 110083358.51048  85779232.81348  20948172.9234   20948173.3014   20948172.6284
       236.000         195.000
 121758250.63748  94876540.38648  23169839.2994   23169842.3794   23169839.1644
       211.000         147.000
 125891673.83248  98097387.14348  23956406.3074   23956409.3184   23956407.6694
       212.000         145.000
 126638721.65348  98679518.05848  24098549.4944   24098554.1854   24098548.5864
       206.000         149.000
 124365629.99648  96908268.64548  23666006.3134   23666009.7094   23666005.9164
       217.000         157.000
 118634862.66748  92442749.09748  22575464.3734   22575465.0214   22575464.7584
       219.000         163.000
 116483434.87348  90766303.34148  22166068.2004   22166071.3084   22166069.0594
       226.000         169.000
 108430716.31948  84491463.81348  20633682.1534   20633682.9444   20633682.0134
       239.000         200.000
 11 10  1  0 11  0.0000000  0 10G10G25G05G26G21G15G12G02G30G29
 142646889.24458  93361182.57758  25241886.5965   25241894.7385   25241889.4075
       194.000         125.000
 116640856.03948  90888952.16648  22196039.1394   22196044.1484   22196039.6914
       233.000         182.000
 110134110.50848  85818779.82348  20957830.7814   20957831.1924   20957830.5524
       236.000         196.000
 121666731.45948  94805226.87448  23152423.8534   23152427.1604   23152423.4784
       211.000         147.000
 125823092.83348  98043947.51848  23943356.4464   23943359.3214   23943357.2774
       212.000         145.000
 126538830.89748  98601681.30248  24079540.6184   24079545.6334   24079540.0514
       209.000         151.000
 124470967.07348  96990349.36148  23686051.0254   23686054.9304   23686050.9314
       216.000         157.000
 118703057.13448  92495887.61948  22588441.2974   22588442.2884   22588441.6504
       218.000         161.000
 116510139.52048  90787112.14948  22171149.9994   22171152.9984   22171150.7264
       227.000         169.000
 108386366.54648  84456905.58348  20625242.5834   20625243.4394   20625242.4284
       239.000         200.000
 11 10  1  0 11 30.0000000  0 10G10G25G05G26G21G15G12G02G30G29
 122759697.77858 113449097.33558  25263343.0695   25263345.5845   25263345.1055
       202.000         123.000
 116715959.23148  90947474.09148  22210330.7234   22210335.8294   22210331.0614
       233.000         181.000
 110185312.68448  85858677.62248  20967574.1164   20967574.7134   20967573.9054
       236.000         195.000
 121575503.96248  94734140.63948  23135063.3234   23135066.4154   23135063.4704
       210.000         147.000
 125754568.87548  97990552.32348  23930316.5404   23930319.1494   23930317.2324
       214.000         146.000
 126438965.69848  98523864.45048  24060536.2634   24060541.5724   24060536.2204
       211.000         151.000
 124576390.47748  97072497.33748  23706112.4984   23706116.2154   23706112.2554
       216.000         158.000
 118771377.71348  92549124.40348  22601442.2474   22601443.2484   22601442.5514
       219.000         161.000
 116537427.53048  90808375.53548  22176342.6554   22176345.7884   22176343.2844
       227.000         170.000
 108342387.32748  84422636.09448  20616873.6974   20616874.5084   20616873.5394
       238.000         200.000
 11 10  1  0 12  0.0000000  0  9G25G05G26G21G15G12G02G30G29
 116791437.16848  91006288.02348  22224693.7284   22224698.6534   22224694.0194
       232.000         180.000
 110236962.74148  85898924.41348  20977402.7914   20977403.5104   20977402.3634
       236.000         196.000
 121484571.62848  94663284.40548  23117759.6704   23117763.1564   23117759.9364
       211.000         148.000
 125686101.94148  97937201.56748  23917287.2504   23917290.5564   23917287.6434
       213.000         145.000
 126339129.03748  98446069.82248  24041538.2644   24041543.0734   24041537.9944
       211.000         152.000
 124681897.11848  97154710.16348  23726189.9364   23726194.0044   23726189.7204
       216.000         157.000
 118839823.76148  92602458.96248  22614467.2624   22614467.9074   22614467.7694
       218.000         160.000
 116565297.27848  90830092.22448  22181646.0474   22181649.3854   22181646.6654
       227.000         171.000
 108298780.45148  84388656.74148  20608575.5674   20608576.4184   20608575.4484
       238.000         200.000
 11 10  1  0 12 30.0000000  0  9G25G05G26G21G15G12G02G30G29
 116867286.95348  91065391.71548  22239127.7554   22239132.5234   22239127.9754
       233.000         180.000
 110289058.56048  85939518.55748  20987316.2774   20987316.9424   20987316.0584
       236.000         195.000
 121393938.16748  94592661.06748  23100512.8124   23100516.4154   23100513.2404
       213.000         149.000
 125617691.71648  97883894.98548  23904269.5644   23904272.0664   23904269.6614
       213.000         146.000
 126239323.83648  98368299.73848  24022545.7664   24022550.7224   24022545.8134
       214.000         154.000
 124787484.14048  97236985.64548  23746282.5054   23746286.8744   23746282.4544
       218.000         159.000
 118908394.93248  92655891.02248  22627516.0664   22627516.5304   22627516.4684
       218.000         161.000
 116593747.22948  90852261.03148  22187059.9504   22187063.2294   22187060.5974
       227.000         170.000
 108255547.79848  84354968.98948  20600348.5924   20600349.4244   20600348.4224
       239.000         201.000
 11 10  1  0 13  0.0000000  0  9G25G05G26G21G15G12G02G30G29
 116943505.69148  91124782.88948  22253631.7484   22253636.5704   22253632.2194
       233.000         180.000
 110341598.20548  85980458.53748  20997314.2214   20997314.8704   20997313.9454
       235.000         195.000
 121303607.58348  94522273.71448  23083323.6834   23083326.9284   23083323.9344
       213.000         150.000
 125549338.28448  97830632.67148  23891261.4484   23891264.7484   23891262.6064
       213.000         145.000
 126139552.83648  98290556.30348  24003560.5024   24003564.9574   24003560.1144
       216.000         154.000
 124893148.50648  97319321.38948  23766389.6224   23766394.1894   23766389.8484
       217.000         157.000
 118977090.97248  92709420.36048  22640588.4404   22640589.0194   22640588.8044
       218.000         160.000
 116622775.62348  90874880.56248  22192583.9844   22192587.0184   22192584.6294
       227.000         170.000
 108212691.23748  84321574.29248  20592193.2534   20592194.0594   20592193.0794
       239.000         201.000
 11 10  1  0 13 30.0000000  0  9G25G05G26G21G15G12G02G30G29
 117020090.49248  91184459.31348  22268205.4394   22268210.2354   22268205.8894
       233.000         180.000
 110394579.28648  86021742.49648  21007396.2394   21007396.8784   21007395.9224
       235.000         195.000
 121213583.26848  94452125.02048  23066192.6424   23066195.9004   23066192.5674
       214.000         149.000
 125481041.18748  97777414.22748  23878264.9544   23878267.7094   23878265.7894
       213.000         145.000
 126039819.24048  98212842.00348  23984581.7354   23984585.7514   23984581.6414
       215.000         153.000
 124998887.34848  97401715.16848  23786511.5614   23786515.8224   23786511.1204
       215.000         156.000
 119045911.68048  92763046.85848  22653684.6414   22653684.9284   22653684.7724
       217.000         161.000
 116652380.74648  90897949.50048  22198217.6864   22198220.3994   22198218.3844
       228.000         170.000
 108170212.97948  84288474.37648  20584109.9094   20584110.6864   20584109.8044
       239.000         201.000
 11 10  1  0 14  0.0000000  0  9G25G05G26G21G15G12G02G30G29
 117097038.42248  91244418.69448  22282848.0874   22282853.0724   22282848.3144
       233.000         179.000
 110447999.47548  86063368.61448  21017561.6804   21017562.3284   21017561.2974
       235.000         194.000
 121123869.10848  94382217.98448  23049120.1594   23049124.0644   23049120.4314
       214.000         150.000
 125412800.76948  97724239.95448  23865279.4714   23865282.7904   23865279.4584
       212.000         145.000
 125940125.90148  98135159.07748  23965610.3604   23965614.9114   23965610.5244
       217.000         154.000
 125104697.73748  97484164.70548  23806646.2714   23806651.1024   23806646.0784
       215.000         155.000
 119114856.60448  92816770.15548  22666804.1954   22666804.6834   22666804.5704
       218.000         160.000
 116682560.96548  90921466.56248  22203960.8444   22203963.3814   22203961.6064
       227.000         169.000
 108128114.54148  84255670.41848  20576098.8894   20576099.6134   20576098.7594
       240.000         201.000
 11 10  1  0 14 30.0000000  0  9G25G05G26G21G15G12G02G30G29
 117174346.57348  91304658.76348  22297559.3244   22297564.5484   22297559.6304
       232.000         179.000
 110501856.74048  86105335.31248  21027810.4124   21027811.0364   21027810.1334
       235.000         194.000
 121034468.79848  94312555.50748  23032107.6604   23032111.3164   23032107.8834
       214.000         151.000
 125344617.03848  97671109.86348  23852304.2674   23852307.1234   23852304.4264
       212.000         144.000
 125840476.02848  98057510.00248  23946647.1564   23946651.5554   23946647.2474
       214.000         153.000
 125210576.76848  97566667.72248  23826794.2814   23826799.0324   23826794.2684
       214.000         154.000
 119183925.53048  92870590.06648  22679947.9004   22679947.8584   22679948.1804
       218.000         161.000
 116713314.53448  90945430.38448  22209813.2104   22209815.6044   22209813.9604
       226.000         168.000
 108086397.77048  84223163.86348  20568160.4244   20568161.1644   20568160.2994
       240.000         201.000
 11 10  1  0 15  0.0000000  0  9G25G05G26G21G15G12G02G30G29
 117252012.00948  91365177.23748  22312338.3314   22312343.7074   22312338.6074
       232.000         179.000
 110556148.95748  86147640.92748  21038141.8474   21038142.5134   21038141.6244
       235.000         194.000
 120945385.94248  94243140.39248  23015155.9104   23015159.4534   23015156.0184
       213.000         151.000
 125276489.57748  97618023.62948  23839340.4274   23839342.7184   23839341.0084
       214.000         145.000
 125740872.41548  97979896.99048  23927693.3714   23927697.3294   23927692.9944
       214.000         151.000
 125316521.83648  97649222.19248  23846955.1294   23846959.8414   23846954.8414
       211.000         151.000
 119253118.14448  92924506.36348  22693114.7044   22693115.2274   22693114.9674
       218.000         161.000
 116744639.61748  90969839.54148  22215773.6564   22215776.5714   22215774.6924
       226.000         168.000
 108045065.01548  84190956.54548  20560294.9964   20560295.7374   20560294.9134
       240.000         201.000
 11 10  1  0 15 30.0000000  0  9G25G05G26G21G15G12G02G30G29
 117330031.77248  91425971.81748  22327185.0334   22327190.3614   22327185.3754
       232.000         178.000
 110610873.75848  86190283.62648  21048555.6724   21048556.2444   21048555.5204
       236.000         194.000
 120856624.50148  94173975.71748  22998264.6884   22998268.2134   22998264.9214
       214.000         151.000
 125208418.74848  97564981.50848  23826387.1074   23826389.2784   23826388.1124
       216.000         146.000
 125641318.04348  97902322.32548  23908748.9034   23908752.2864   23908748.4904
       215.000         152.000
 125422530.13848  97731825.94348  23867127.9864   23867132.7214   23867127.1104
       211.000         151.000
 119322434.16348  92978518.81448  22706305.1244   22706305.7384   22706305.4954
       219.000         162.000
 116776534.57948  90994692.77348  22221843.1424   22221846.0024   22221843.8954
       225.000         167.000
 108004117.78448  84159049.63648  20552502.9324   20552503.6754   20552502.8074
       239.000         202.000
 11 10  1  0 16  0.0000000  0  9G25G05G26G21G15G12G02G30G29
 117408402.97448  91487040.23748  22342098.7034   22342103.9534   22342099.0544
       232.000         179.000
 110666029.46348  86233262.09348  21059051.5214   21059052.0794   21059051.2414
       235.000         193.000
 120768188.08548  94105064.31548  22981435.7504   22981439.1314   22981435.8664
       216.000         152.000
 125140404.43448  97511983.42948  23813444.3534   23813446.8844   23813445.2374
       216.000         147.000
 125541815.93248  97824788.39348  23889814.3524   23889817.8714   23889814.1144
       214.000         149.000
 125528598.15648  97814476.21048  23887311.7474   23887316.6464   23887311.5524
       210.000         150.000
 119391873.21048  93032627.14248  22719519.1104   22719519.4444   22719519.5664
       220.000         162.000
 116808997.47048  91019988.53548  22228020.7594   22228023.9014   22228021.3514
       226.000         167.000
 107963557.90448  84127444.55348  20544784.6534   20544785.4404   20544784.4754
       239.000         202.000
 11 10  1  0 16 30.0000000  0  9G25G05G26G21G15G12G02G30G29
 117487122.58048  91548380.13848  22357079.0394   22357083.7124   22357079.3064
       233.000         179.000
 110721613.10948  86276574.01648  21069628.6164   21069629.2434   21069628.2094
       234.000         193.000
 120680080.38348  94036409.06348  22964669.3154   22964672.1314   22964669.3024
       213.000         151.000
 125072446.67448  97459029.41548  23800511.7614   23800513.8964   23800512.5664
       215.000         148.000
 125442369.23348  97747297.62348  23870889.8764   23870893.0074   23870889.9604
       214.000         149.000
 125634723.32448  97897171.00648  23907507.0464   23907511.8734   23907506.8214
       211.000         149.000
 119461435.18848  93086831.24648  22732756.4404   22732756.7834   22732756.7024
       218.000         162.000
 116842026.46548  91045725.40848  22234306.1264   22234308.9644   22234306.6594
       224.000         168.000
 107923387.35148  84096142.84348  20537140.5374   20537141.1044   20537140.3574
       240.000         202.000
 11 10  1  0 17  0.0000000  0  9G25G05G26G21G15G12G02G30G29
 117566187.68348  91609989.26148  22372124.6714   22372129.3164   22372124.9924
       233.000         179.000
 110777622.73948  86320217.88548  21080286.8954   21080287.5464   21080286.5544
       234.000         192.000
 120592305.18348  93968012.89948  22947965.5114   22947969.3054   22947965.9004
       213.000         152.000
 125004545.34548  97406119.35148  23787590.5984   23787592.9284   23787590.9354
       215.000         148.000
 125342980.97548  97669852.39848  23851977.2034   23851980.9824   23851976.7764
       212.000         148.000
 125740902.66648  97979908.01248  23927712.5594   23927717.2784   23927712.4264
       211.000         151.000
 119531119.40748  93141130.61148  22746016.7894   22746017.1774   22746017.2124
       218.000         161.000
 116875619.72848  91071901.97848  22240698.3324   22240701.6894   22240699.0724
       224.000         168.000
 107883607.94548  84065145.92048  20529570.8404   20529571.3274   20529570.7124
       241.000         202.000
 11 10  1  0 17 30.0000000  0  9G25G05G26G21G15G12G02G30G29
 117645595.31948  91671865.29148  22387235.3384   22387240.1194   22387235.8644
       233.000         178.000
 110834056.22748  86364192.02348  21091025.7234   21091026.5464   21091025.4384
       234.000         192.000
 120504866.00748  93899878.57948  22931326.5834   22931330.1734   22931326.5204
       214.000         152.000
 124936700.37948  97353253.23248  23774680.2814   23774682.1624   23774680.4714
       216.000         148.000
 125243654.01948  97592454.95148  23833074.6114   23833078.4104   23833074.7394
       211.000         147.000
 125847133.56548  98062685.22348  23947928.0224   23947932.4024   23947927.7634
       212.000         151.000
 119600925.76348  93195525.14648  22759300.3944   22759300.9194   22759300.4984
       219.000         162.000
 116909775.39748  91098516.77948  22247197.8114   22247201.2514   22247198.5464
       224.000         168.000
 107844221.75148  84034455.39548  20522075.9124   20522076.3244   20522075.8394
       240.000         203.000
 11 10  1  0 18  0.0000000  0  9G25G05G26G21G15G12G02G30G29
 117725342.49248  91734005.88948  22402410.8794   22402415.5864   22402411.0914
       232.000         177.000
 110890910.99148  86408494.43648  21101844.8534   21101845.5394   21101844.5564
       234.000         192.000
 120417766.78048  93832009.14148  22914752.0924   22914755.5744   22914752.1574
       213.000         153.000
 124868911.70148  97300430.98048  23761779.6424   23761782.8044   23761781.3034
       215.000         149.000
 125144391.36648  97515107.58548  23814185.9284   23814189.9434   23814185.6144
       211.000         147.000
 125953412.83848  98145500.09448  23968152.0584   23968157.0594   23968152.5254
       213.000         152.000
 119670854.14548  93250014.76548  22772607.5364   22772608.2734   22772607.7684
       219.000         162.000
 116944491.58248  91125568.34448  22253804.4004   22253807.4484   22253805.0154
       226.000         170.000
 107805230.36748  84004072.51748  20514656.0944   20514656.5374   20514655.9704
       241.000         203.000
 11 10  1  0 18 30.0000000  0  9G25G05G26G21G15G12G02G30G29
 117805426.20448  91796408.74148  22417650.0534   22417655.0364   22417650.2494
       231.000         175.000
 110948184.88748  86453123.44848  21112743.8774   21112744.4784   21112743.5674
       234.000         191.000
 120331011.18648  93764407.47848  22898243.6894   22898246.4554   22898243.3234
       214.000         153.000
 124801179.48248  97247652.74248  23748891.2694   23748893.7724   23748891.7454
       216.000         148.000
 125045196.04848  97437812.71648  23795309.1964   23795313.0094   23795309.2744
       210.000         149.000
 126059738.11848  98228350.83848  23988385.4654   23988390.1144   23988385.8204
       215.000         153.000
 119740904.20148  93304599.19648  22785937.5974   22785938.4094   22785938.0304
       220.000         161.000
 116979766.36348  91153055.17848  22260517.1664   22260520.0744   22260517.6924
       225.000         170.000
 107766635.54248  83973998.65348  20507311.6934   20507312.1564   20507311.6164
       241.000         203.000
 11 10  1  0 19  0.0000000  0  9G25G05G26G21G15G12G02G30G29
 117885843.48048  91859071.51848  22432952.5474   22432957.9624   22432952.8494
       230.000         174.000
 111005875.97048  86498077.53848  21123722.1234   21123722.6924   21123721.8034
       233.000         191.000
 120244602.72748  93697076.31448  22881800.8604   22881803.4434   22881800.8234
       216.000         154.000
 124733503.77248  97194918.53548  23736013.0044   23736015.6854   23736013.1894
       216.000         149.000
 124946071.37948  97360572.89648  23776447.1574   23776450.2094   23776446.5984
       213.000         150.000
 126166105.75948  98311234.59048  24008627.2804   24008631.4954   24008626.9554
       214.000         153.000
 119811075.23148  93359277.88848  22799290.9334   22799291.8614   22799291.3364
       218.000         161.000
 117015597.77048  91180975.74648  22267335.3664   22267338.6724   22267336.1964
       226.000         169.000
 107728439.35248  83944235.40948  20500043.1644   20500043.5804   20500043.0654
       241.000         203.000
 11 10  1  0 19 30.0000000  0  9G25G05G26G21G15G12G02G30G29
 117966591.29848  91921991.87148  22448318.3984   22448323.7694   22448318.6994
       229.000         174.000
 111063981.49248  86543354.56548  21134779.2494   21134779.7224   21134778.9404
       234.000         191.000
 120158545.22448  93630018.62448  22865424.2604   22865427.1924   22865424.4704
       216.000         154.000
 124665884.33348  97142228.19248  23723146.0364   23723147.9754   23723146.4664
       218.000         152.000
 124847020.25848  97283390.38748  23757597.9714   23757600.6724   23757598.1144
       214.000         152.000
 126272513.38648  98394149.47348  24028875.6774   24028880.5244   24028875.4474
       215.000         154.000
 119881367.39148  93414050.97648  22812666.8874   22812667.8814   22812667.3444
       216.000         161.000
 117051983.78448  91209328.48048  22274259.6184   22274262.7114   22274260.1964
       225.000         169.000
 107690643.42148  83914784.05848  20492850.7044   20492851.2714   20492850.5634
       241.000         203.000
 11 10  1  0 20  0.0000000  0  9G25G05G26G21G15G12G02G30G29
 118047666.69448  91985167.46948  22463746.7684   22463752.1414   22463747.2044
       230.000         174.000
 111122499.43848  86588952.95948  21145914.7644   21145915.2924   21145914.5014
       234.000         190.000
 120072842.45948  93563237.35948  22849115.4434   22849118.2534   22849115.6394
       216.000         154.000
 124598320.94648  97089581.53548  23710289.0274   23710290.8504   23710290.1024
       218.000         150.000
 124748046.10348  97206267.86148  23738763.9374   23738767.0414   23738763.7904
       214.000         154.000
 126378958.19648  98477093.36848  24049131.5224   24049136.2164   24049131.3404
       214.000         154.000
 119951780.38848  93468918.19848  22826065.9104   22826066.9574   22826066.2544
       217.000         159.000
 117088922.50548  91238111.90248  22281288.7384   22281292.1114   22281289.5764
       226.000         170.000
 107653249.79348  83885646.18348  20485734.9214   20485735.4814   20485734.8144
       240.000         203.000
