     2.11           OBSERVATION DATA    M (MIXED)           RINEX VERSION / TYPE
teqc  2016Apr1                          20160930 07:51:17UTCPGM / RUN BY / DATE
Linux 2.4.20-8|Pentium IV|gcc|Linux|486/DX+                 COMMENT
teqc  2016Apr1                          20160816 03:39:39UTCCOMMENT
teqc  2009Mar23                         20111001 01:05:05UTCCOMMENT
Linux 2.4.20-8|Pentium IV|gcc -static|Linux|486/DX+         COMMENT
BIT 2 OF LLI FLAGS DATA COLLECTED UNDER A/S CONDITION       COMMENT
RINEXED from Topcon TPS-binary: ken.macleod@nrcan.gc.ca     COMMENT
Forced Modulo Decimation to 30 seconds                      COMMENT
 SNR is mapped to RINEX snr flag value [0-9]                COMMENT
  L1 & L2: min(max(int(snr_dBHz/6), 0), 9)                  COMMENT
pseudorange smoothing corrections not applied               COMMENT
WHIT CACS-GSD 7787017 WHITEHORSE YT CANADA                  MARKER NAME
40136M001                                                   MARKER NUMBER
OPERATOR            NRCan/GEODETIC SURVEY OF CANADA         OBSERVER / AGENCY
618-00846           TPS NET-G3A         3.5 Mar,16,2011 p1  REC # / TYPE / VERS
289                 AOAD/M_T        NONE                    ANT # / TYPE
 -2218337.8500 -2201205.0600  5543057.5700                  APPROX POSITION XYZ
        0.1000        0.0000        0.0000                  ANTENNA: DELTA H/E/N
     1     1                                                WAVELENGTH FACT L1/2
     8    L1    L2    C1    C2    P1    P2    S1    S2      # / TYPES OF OBSERV
    30.0000                                                 INTERVAL
teqc windowed: start @ 2011 Oct  1 00:10:00.000             COMMENT
teqc windowed:  end  @ 2011 Oct  1 00:20:00.000             COMMENT
  2011    10     1     0    10    0.0000000     GPS         TIME OF FIRST OBS
    15                                                      LEAP SECONDS
                                                            END OF HEADER
 11 10  1  0 10  0.0000000  0 18G05G30G13R09R19G16G31G21R02R10R18G29
                                R11G10G02G25R20R17
 114358637.09248  89110645.82348  21761710.440    21761708.882    21761709.861
  21761708.553          50.000          48.000
 113006072.36448  88056682.83146  21504336.341                    21504335.079
  21504334.519          49.000          40.000
 128664516.73546 100258062.76142  24484041.005                    24484039.826
  24484041.797          38.000          14.000
 117291178.384 8  91226464.358 7  21964868.139    21964867.138    21964867.689
  21964869.576          49.000          46.000
 105430854.200 9  82001792.428 8  19709171.577    19709167.181    19709171.007
  19709166.320          55.000          51.000
 127296219.38646  99191862.23843  24223665.866                    24223663.864
  24223665.391          41.000          20.000
 128243268.98547  99929808.64046  24403890.229    24403890.921    24403888.972
  24403889.611          42.000          39.000
 119868916.83448  93404362.12245  22810284.468                    22810283.179
  22810282.111          49.000          34.000
 113958741.027 8  88634588.645 8  21355804.421    21355802.756    21355802.740
  21355802.553          51.000          48.000
 113113935.086 8  87977527.668 6  21219889.509    21219890.962    21219888.807
  21219890.461          50.000          41.000
 106497858.479 9  82831686.975 8  19950626.718    19950624.745    19950625.288
  19950625.134          55.000          50.000
 106807577.87549  83226706.07749  20324794.516    20324792.569    20324794.005
  20324791.991          54.000          54.000
 126148133.483 6  98115217.935 5  23606902.988    23606904.152    23606902.118
  23606903.880          41.000          33.000
 129311231.71546 100762012.10743  24607096.328                    24607094.653
  24607096.371          39.000          18.000
 124667254.12847  97143330.16644  23723379.306                    23723377.971
  23723376.742          42.000          26.000
 123137892.97247  95951603.52847  23432363.324    23432366.247    23432362.200
  23432365.512          47.000          43.000
 126574841.290 6  98447098.429 6  23670131.510    23670134.593    23670130.601
  23670133.193          38.000          38.000
 129218568.117 6 100503336.312 5  24147577.015    24147578.289    24147576.189
  24147578.323          37.000          32.000
 11 10  1  0 10 30.0000000  0 18G05G30G13R09R19G16G31G21R02R10R18G29
                                R11G10G02G25R20R17
 114367914.16848  89117874.69248  21763475.758    21763474.097    21763475.500
  21763473.692          50.000          48.000
 113082065.16148  88115897.96646  21518797.365                    21518795.942
  21518795.108          50.000          40.000
 128713922.45746 100296560.66942  24493442.694                    24493441.050
  24493443.290          38.000          15.000
 117393583.845 8  91306112.957 7  21984046.370    21984044.007    21984045.645
  21984045.835          49.000          45.000
 105376511.230 9  81959525.725 8  19699013.005    19699008.258    19699011.933
  19699008.065          55.000          51.000
 127196771.62946  99114370.53743  24204741.678                    24204740.161
  24204740.834          40.000          21.000
 128333376.16847 100000021.94046  24421037.476    24421036.264    24421036.723
  24421036.694          42.000          39.000
 119784601.40248  93338661.83745  22794239.450                    22794238.243
  22794236.794          48.000          34.000
 114022990.497 8  88684560.426 8  21367844.757    21367843.253    21367843.137
  21367843.502          51.000          48.000
 113106842.324 8  87972011.058 6  21218558.382    21218559.558    21218557.902
  21218560.402          50.000          41.000
 106562701.192 9  82882120.217 8  19962774.267    19962771.809    19962773.179
  19962772.180          56.000          50.000
 106830348.99649  83244449.81049  20329127.722    20329125.792    20329127.037
  20329125.275          54.000          54.000
 126040197.350 6  98031267.633 5  23586704.345    23586705.882    23586703.991
  23586704.943          41.000          34.000
 129412914.46846 100841245.25942  24626445.379                    24626443.759
  24626444.660          37.000          16.000
 124767787.93347  97221668.36944  23742510.311                    23742509.645
  23742507.752          43.000          26.000
 123249220.45447  96038352.12747  23453547.505    23453550.481    23453546.973
  23453549.008          45.000          42.000
 126454611.940 6  98353586.675 6  23647648.760    23647650.496    23647647.835
  23647649.077          38.000          39.000
 129339420.680 6 100597332.727 5  24170160.389    24170163.135    24170159.501
  24170162.237          38.000          33.000
 11 10  1  0 11  0.0000000  0 18G05G30G13R09R19G16G31G21R02R10R18G29
                                R11G10G02G25R20R17
 114377820.67448  89125593.98948  21765361.134    21765359.807    21765360.561
  21765359.192          50.000          48.000
 113158568.56248  88175510.98246  21533355.199                    21533353.562
  21533353.703          50.000          39.000
 128763881.92946 100335490.01242  24502949.833                    24502948.542
  24502949.637          38.000          15.000
 117496510.313 8  91386166.795 7  22003321.187    22003319.363    22003320.607
  22003322.287          50.000          45.000
 105322664.535 9  81917645.017 8  19688946.702    19688942.247    19688946.148
  19688941.421          55.000          51.000
 127097591.23846  99037087.22143  24185868.025                    24185866.569
  24185867.659          40.000          21.000
 128423733.37946 100070430.03846  24438231.490    24438232.121    24438230.828
  24438232.361          41.000          39.000
 119700518.29348  93273142.57745  22778239.393                    22778237.914
  22778236.143          49.000          35.000
 114087959.219 8  88735091.608 8  21380020.118    21380018.144    21380018.139
  21380018.060          51.000          48.000
 113100626.457 8  87967176.495 6  21217392.664    21217393.667    21217391.807
  21217393.408          51.000          41.000
 106628007.942 9  82932914.334 8  19975008.227    19975005.980    19975007.057
  19975006.359          55.000          50.000
 106853596.70949  83262564.93048  20333551.579    20333549.687    20333550.994
  20333549.169          55.000          53.000
 125932722.471 6  97947676.330 5  23566590.577    23566593.328    23566589.876
  23566593.338          40.000          34.000
 129514890.53946 100920706.99142  24645850.849                    24645849.182
  24645850.241          37.000          16.000
 124868489.89147  97300137.59644  23761672.891                    23761671.689
  23761670.564          42.000          25.000
 123360749.22847  96125257.55047  23474771.967    23474773.189    23474771.269
  23474772.798          46.000          42.000
 126334447.491 6  98260125.438 6  23625177.921    23625179.371    23625175.690
  23625178.866          37.000          40.000
 129460329.051 6 100691372.544 5  24192756.046    24192755.886    24192754.804
  24192755.771          37.000          32.000
 11 10  1  0 11 30.0000000  0 18G05G30G13R09R19G16G31G21R02R10R18G29
                                R11G10G02G25R20R17
 114388355.83748  89133803.12948  21767365.933    21767364.560    21767365.415
  21767363.998          51.000          48.000
 113235579.81748  88235519.72746  21548009.973                    21548008.222
  21548008.504          49.000          39.000
 128814392.82046 100374849.01542  24512561.644                    24512561.077
  24512562.183          39.000          14.000
 117599952.969 8  91466622.090 7  22022691.881    22022690.221    22022691.774
  22022692.243          49.000          44.000
 105269315.505 9  81876151.377 8  19678973.567    19678968.919    19678972.784
  19678968.397          55.000          51.000
 126998680.68446  98960014.17543  24167046.119                    24167044.074
  24167044.892          40.000          21.000
 128514337.59947 100141030.62146  24455472.253    24455473.099    24455472.383
  24455472.480          42.000          39.000
 119616668.91848  93207805.45645  22762282.790                    22762281.351
  22762281.027          48.000          35.000
 114153643.869 8  88786179.555 8  21392329.280    21392327.193    21392327.079
  21392327.404          51.000          48.000
 113095287.701 8  87963024.122 6  21216391.133    21216392.132    21216390.811
  21216391.316          50.000          41.000
 106693777.346 9  82984068.267 8  19987329.065    19987326.833    19987327.256
  19987326.876          55.000          50.000
 106877320.44549  83281050.97848  20338066.049    20338063.807    20338065.521
  20338063.578          54.000          53.000
 125825711.602 6  97864445.686 5  23546565.971    23546567.753    23546564.902
  23546565.883          41.000          34.000
 129617156.25546 101000394.34542  24665312.327                    24665310.342
  24665310.662          37.000          15.000
 124969358.58247  97378736.77644  23780867.197                    23780866.443
  23780865.280          42.000          25.000
 123472476.53247  96212317.71047  23496032.253    23496035.395    23496031.455
  23496034.463          46.000          42.000
 126214348.668 6  98166715.243 6  23602718.799    23602720.705    23602717.072
  23602718.648          38.000          40.000
 129581291.822 6 100785454.679 5  24215360.320    24215361.674    24215361.412
  24215360.338          38.000          31.000
 11 10  1  0 12  0.0000000  0 18G05G30G13R09R19G16G31G21R02R10R18G29
                                R11G10G02G25R20R17
 114399519.50548  89142502.07448  21769490.378    21769488.931    21769489.842
  21769488.567          49.000          48.000
 113313096.76948  88295922.51946  21562760.981                    21562759.403
  21562759.376          50.000          39.000
 128865454.19146 100414637.20142  24522277.734                    24522277.904
  24522278.594          39.000          15.000
 117703907.907 8  91547475.825 7  22042160.161    22042158.493    22042160.206
  22042160.854          49.000          44.000
 105216465.771 9  81835046.066 8  19669094.090    19669089.407    19669093.404
  19669088.685          55.000          51.000
 126900042.82346  98883153.58643  24148275.297                    24148274.214
  24148274.884          40.000          21.000
 128605186.23947 100211821.64846  24472761.758    24472761.512    24472759.984
  24472761.081          42.000          39.000
 119533054.92248  93142651.73345  22746371.929                    22746370.460
  22746369.095          49.000          35.000
 114220042.219 8  88837822.667 8  21404772.279    21404770.955    21404770.386
  21404771.110          51.000          48.000
 113090827.018 8  87959554.698 6  21215554.647    21215555.174    21215553.908
  21215555.412          52.000          41.000
 106760007.862 9  83035580.873 8  19999735.911    19999733.928    19999734.627
  19999734.176          56.000          50.000
 106901520.04948  83299907.81149  20342671.307    20342669.068    20342670.743
  20342668.666          53.000          54.000
 125719170.154 6  97781580.206 5  23526627.532    23526629.740    23526627.163
  23526628.527          41.000          34.000
 129719709.19846 101080305.60442  24684827.275                    24684826.253
  24684826.451          38.000          16.000
 125070391.88047  97457464.16544  23800093.705                    23800092.083
  23800089.949          42.000          25.000
 123584400.29947  96299530.93147  23517330.481    23517333.613    23517329.419
  23517332.231          45.000          42.000
 126094317.618 6  98073357.753 6  23580272.103    23580274.236    23580270.830
  23580272.753          38.000          40.000
 129702307.539 6 100879577.963 5  24237974.934    24237976.313    24237975.811
  24237975.245          38.000          32.000
 11 10  1  0 12 30.0000000  0 18G05G30G13R09R19G16G31G21R02R10R18G29
                                R11G10G02G25R20R17
 114411310.85448  89151690.10448  21771734.266    21771732.698    21771733.567
  21771732.063          51.000          48.000
 113391116.84848  88356717.35746  21577607.726                    21577606.142
  21577606.398          49.000          39.000
 128917062.62946 100454851.69342  24532098.309                    24532097.369
  24532099.904          38.000          15.000
 117808370.721 8  91628724.589 7  22061722.049    22061721.246    22061720.610
  22061722.630          48.000          44.000
 105164116.987 9  81794330.371 8  19659307.827    19659303.418    19659307.345
  19659303.123          55.000          51.000
 126801680.21946  98806507.46143  24129557.914                    24129556.597
  24129557.513          40.000          22.000
 128696276.20746 100282800.72546  24490094.131    24490094.888    24490094.660
  24490094.315          41.000          39.000
 119449677.03548  93077681.99145  22730505.603                    22730504.286
  22730502.627          48.000          35.000
 114287150.394 8  88890017.811 8  21417348.267    21417346.869    21417346.784
  21417346.648          51.000          48.000
 113087244.183 8  87956768.047 6  21214881.801    21214883.626    21214881.288
  21214882.753          50.000          41.000
 106826698.204 9  83087451.101 8  20012229.731    20012227.440    20012228.091
  20012228.034          55.000          50.000
 106926195.00249  83319135.04349  20347366.834    20347364.590    20347366.296
  20347364.080          55.000          54.000
 125613102.049 6  97699083.030 5  23506778.591    23506780.430    23506777.347
  23506777.705          41.000          34.000
 129822545.82546 101160437.72342  24704397.596                    24704394.710
  24704396.449          39.000          16.000
 125171588.18347  97536318.65144  23819350.241                    23819349.139
  23819348.665          42.000          25.000
 123696517.67147  96386895.00847  23538666.109    23538668.568    23538664.847
  23538667.480          44.000          42.000
 125974356.067 6  97980054.328 6  23557838.565    23557841.035    23557837.477
  23557839.181          38.000          40.000
 129823374.334 6 100973740.989 5  24260600.074    24260600.812    24260599.518
  24260599.468          38.000          32.000
 11 10  1  0 13  0.0000000  0 17G05G30G13R09R19G16G31G21R02R10R18G29
                                R11G10G02G25R20
 114423729.64448  89161367.05848  21774097.092    21774096.316    21774096.673
  21774095.516          51.000          48.000
 113469637.45548  88417902.21346  21592550.195                    21592548.765
  21592547.522          49.000          39.000
 128969216.53746 100495491.04242  24542024.274                    24542022.040
  24542023.578          39.000          14.000
 117913337.101 8  91710365.014 7  22081379.014    22081377.140    22081378.514
  22081379.177          48.000          44.000
 105112270.874 9  81754005.631 8  19649615.746    19649611.178    19649614.905
  19649610.580          55.000          51.000
 126703595.38946  98730077.76743  24110893.061                    24110890.298
  24110892.259          40.000          22.000
 128787604.41946 100353965.44246  24507473.962    24507474.988    24507472.576
  24507474.591          41.000          39.000
 119366536.68548  93012897.34445  22714684.731                    22714683.644
  22714682.296          49.000          35.000
 114354965.543 8  88942762.859 7  21430057.198    21430055.299    21430055.300
  21430054.856          51.000          47.000
 113084539.070 8  87954664.058 6  21214374.704    21214376.223    21214374.644
  21214375.031          50.000          41.000
 106893847.503 9  83139678.316 8  20024808.754    20024806.607    20024806.740
  20024806.887          54.000          49.000
 106951344.97948  83338732.43449  20352152.736    20352150.614    20352152.085
  20352149.963          53.000          54.000
 125507510.859 6  97616956.540 5  23487018.799    23487020.636    23487017.716
  23487020.184          41.000          34.000
 129925663.84846 101240789.14442  24724020.420                    24724017.527
  24724019.602          39.000          16.000
 125272945.61847  97615298.71244  23838637.696                    23838637.149
  23838635.269          42.000          25.000
 123808826.17847  96474408.02447  23560038.302    23560040.186    23560036.491
  23560039.760          45.000          42.000
 125854465.472 6  97886806.132 6  23535418.515    23535421.058    23535416.972
  23535420.564          37.000          40.000
 11 10  1  0 13 30.0000000  0 17G05G30G13R09R19G16G31G21R02R10R18G29
                                R11G10G02G25R20
 114436775.13448  89171532.33048  21776579.668    21776578.019    21776579.317
  21776577.886          51.000          48.000
 113548656.10048  88479475.13746  21607586.615                    21607585.274
  21607584.900          50.000          39.000
 129021913.68146 100536553.69942  24552052.359                    24552051.280
  24552051.747          41.000          14.000
 118018802.972 8  91792393.927 7  22101129.341    22101128.166    22101127.933
  22101129.577          48.000          44.000
 105060928.844 9  81714072.950 8  19640017.763    19640013.231    19640016.987
  19640012.705          55.000          51.000
 126605791.03646  98653866.61543  24092281.360                    24092280.204
  24092279.678          41.000          22.000
 128879167.99946 100425313.57846  24524897.996    24524897.750    24524898.290
  24524896.858          41.000          38.000
 119283634.74248  92948298.45745  22698908.886                    22698907.502
  22698905.286          48.000          35.000
 114423484.537 8  88996055.312 8  21442897.567    21442896.094    21442895.897
  21442896.341          50.000          48.000
 113082712.256 8  87953243.206 6  21214032.062    21214033.403    21214031.545
  21214033.500          51.000          41.000
 106961453.393 9  83192260.655 8  20037473.655    20037471.621    20037471.986
  20037472.465          55.000          50.000
 106976969.99149  83358699.99048  20357028.798    20357026.457    20357028.166
  20357026.192          54.000          53.000
 125402401.648 6  97535205.115 5  23467348.885    23467349.763    23467347.774
  23467349.922          41.000          34.000
 130029060.89346 101321358.18342  24743695.634                    24743694.984
  24743695.288          38.000          16.000
 125374462.46947  97694402.98644  23857955.123                    23857955.411
  23857952.546          42.000          25.000
 123921323.40547  96562068.10747  23581444.872    23581448.469    23581443.841
  23581447.740          45.000          42.000
 125734647.634 6  97793614.525 6  23513012.144    23513013.759    23513010.049
  23513012.119          38.000          40.000
 11 10  1  0 14  0.0000000  0 17G05G30G13R09R19G16G31G21R02R10R18G29
                                R11G10G02G25R20
 114450446.78948  89182185.55348  21779181.313    21779180.006    21779181.055
  21779179.577          51.000          48.000
 113628170.40548  88541434.30546  21622717.682                    21622716.080
  21622715.785          49.000          39.000
 129075152.55946 100578038.39042  24562183.327                    24562182.692
  24562184.189          40.000          16.000
 118124763.808 8  91874807.815 7  22120973.346    22120971.620    22120972.264
  22120973.302          49.000          44.000
 105010092.760 9  81674533.772 8  19630514.892    19630510.302    19630513.939
  19630509.817          55.000          51.000
 126508269.66346  98577875.99943  24073722.989                    24073722.250
  24073723.584          41.000          22.000
 128970964.40946 100496843.13746  24542365.924    24542367.840    24542365.818
  24542366.972          41.000          40.000
 119200972.88848  92883886.66945  22683178.392                    22683177.083
  22683176.225          48.000          35.000
 114492704.737 8  89049893.235 8  21455868.916    21455867.494    21455867.386
  21455867.057          50.000          48.000
 113081764.010 8  87952505.698 6  21213853.853    21213855.148    21213853.604
  21213855.150          51.000          41.000
 107029515.179 9  83245197.581 8  20050224.136    20050221.955    20050222.810
  20050222.480          55.000          50.000
 107003069.40349  83379037.21848  20361995.498    20361993.146    20361994.879
  20361992.779          54.000          53.000
 125297777.625 6  97453830.782 5  23447770.309    23447771.382    23447770.476
  23447769.549          41.000          34.000
 130132733.53546 101402141.92742  24763423.430                    24763422.432
  24763424.362          38.000          15.000
 125476136.94146  97773630.04044  23877303.475                    23877301.948
  23877301.192          41.000          25.000
 124034006.88047  96649873.31347  23602888.295    23602891.831    23602887.224
  23602891.454          45.000          43.000
 125614904.822 6  97700481.291 6  23490618.205    23490621.679    23490617.290
  23490620.269          38.000          40.000
 11 10  1  0 14 30.0000000  0 17G05G30G13R09R19G16G31G21R02R10R18G29
                                R11G10G02G25R20
 114464743.91048  89193326.15948  21781902.198    21781900.759    21781901.690
  21781900.068          49.000          48.000
 113708177.63748  88603777.56346  21637942.484                    21637940.900
  21637940.698          50.000          39.000
 129128931.24946 100619943.86442  24572416.137                    24572415.751
  24572416.511          40.000          16.000
 118231215.176 8  91957603.194 7  22140906.993    22140906.254    22140905.838
  22140908.065          48.000          45.000
 104959763.914 9  81635389.100 8  19621106.264    19621101.489    19621105.430
  19621101.111          56.000          51.000
 126411033.81946  98502107.83943  24055219.791                    24055218.456
  24055219.622          41.000          22.000
 129062990.14846 100568551.37946  24559878.939    24559878.988    24559878.791
  24559878.247          40.000          39.000
 119118552.22548  92819662.80746  22667494.483                    22667493.043
  22667491.925          50.000          36.000
 114562622.433 8  89104273.570 7  21468971.725    21468970.245    21468970.440
  21468970.683          50.000          47.000
 113081693.928 8  87952451.220 6  21213840.891    21213843.085    21213840.306
  21213842.117          50.000          41.000
 107098031.137 9  83298487.751 8  20063059.483    20063057.198    20063058.150
  20063057.825          55.000          49.000
 107029642.58048  83399743.61449  20367052.041    20367049.904    20367051.485
  20367049.420          53.000          54.000
 125193643.838 6  97372837.865 5  23428282.998    23428284.804    23428280.855
  23428283.140          41.000          34.000
 130236679.08146 101483138.44142  24783204.641                    24783202.713
  24783203.990          39.000          15.000
 125577967.11847  97852978.42944  23896681.779                    23896680.490
  23896677.968          43.000          24.000
 124146873.83547  96737821.46447  23624366.159    23624369.423    23624365.743
  23624368.208          45.000          43.000
 125495237.832 6  97607407.030 6  23468240.839    23468242.893    23468240.642
  23468240.742          37.000          40.000
 11 10  1  0 15  0.0000000  0 17G05G30G13R09R19G16G31G21R02R10R18G29
                                R11G10G02G25R20
 114479666.00648  89204953.73248  21784741.802    21784740.356    21784741.194
  21784739.657          49.000          48.000
 113788675.30548  88666502.98846  21653261.076                    21653259.685
  21653258.893          49.000          39.000
 129183247.66446 100662268.59242  24582752.635                    24582751.012
  24582753.471          39.000          16.000
 118338152.934 7  92040776.909 7  22160933.592    22160932.530    22160931.942
  22160933.833          47.000          44.000
 104909944.077 9  81596640.336 8  19611792.771    19611788.036    19611792.538
  19611788.108          55.000          52.000
 126314086.38946  98426564.43543  24036771.589                    24036770.201
  24036770.932          41.000          22.000
 129155242.51047 100640436.19346  24577433.041    24577434.871    24577432.540
  24577434.688          42.000          40.000
 119036373.66748  92755627.60646  22651856.685                    22651855.008
  22651853.725          49.000          36.000
 114633234.457 8  89159193.978 7  21482204.987    21482203.333    21482203.332
  21482203.787          50.000          47.000
 113082502.014 8  87953079.752 6  21213991.884    21213994.189    21213991.530
  21213993.560          50.000          41.000
 107167000.288 9  83352130.367 8  20075979.521    20075977.503    20075978.275
  20075978.339          55.000          50.000
 107056689.70549  83420819.31749  20372199.121    20372196.735    20372198.489
  20372196.361          54.000          54.000
 125090004.763 6  97292229.964 5  23408887.563    23408889.640    23408886.954
  23408888.738          41.000          35.000
 130340894.45546 101564345.15142  24803035.426                    24803033.396
  24803035.256          38.000          15.000
 125679951.50647  97932447.01144  23916088.359                    23916087.089
  23916085.080          42.000          25.000
 124259921.89047  96825910.75947  23645878.410    23645882.769    23645878.398
  23645881.591          45.000          43.000
 125375648.932 6  97514393.539 6  23445876.126    23445878.972    23445875.375
  23445878.150          38.000          40.000
 11 10  1  0 15 30.0000000  0 17G05G30G13R09R19G16G31G21R02R10R18G29
                                R11G10G02G25R20
 114495212.34048  89217067.75948  21787700.006    21787698.513    21787699.591
  21787698.240          50.000          48.000
 113869660.87548  88729608.58846  21668671.895                    21668670.646
  21668670.211          50.000          39.000
 129238098.20346 100705009.37142  24593189.814                    24593189.744
  24593191.556          39.000          15.000
 118445572.545 8  92124325.366 7  22181050.418    22181049.295    22181049.365
  22181051.421          48.000          45.000
 104860634.584 9  81558288.524 8  19602574.986    19602570.392    19602574.174
  19602569.834          55.000          51.000
 126217430.00146  98351247.82343  24018378.269                    24018377.274
  24018377.345          41.000          22.000
 129247718.24547 100712495.08546  24595031.383    24595032.394    24595030.388
  24595031.948          42.000          39.000
 118954438.82148  92691782.31646  22636265.028                    22636263.794
  22636261.948          49.000          36.000
 114704537.885 8  89214652.130 7  21495566.991    21495565.559    21495565.771
  21495565.678          50.000          47.000
 113084188.201 8  87954391.248 6  21214308.622    21214310.649    21214308.521
  21214309.520          51.000          41.000
 107236420.301 9  83406123.628 8  20088984.566    20088982.245    20088982.967
  20088982.741          56.000          49.000
 107084209.96649  83442263.70248  20377435.952    20377433.626    20377435.256
  20377433.050          54.000          53.000
 124986863.567 6  97212009.178 5  23389585.989    23389587.334    23389585.107
  23389588.068          40.000          35.000
 130445376.47546 101645759.74742  24822917.106                    24822915.899
  24822917.684          38.000          15.000
 125782088.22847  98012034.34044  23935523.332                    23935521.026
  23935520.958          42.000          25.000
 124373148.47847  96914139.13547  23667425.210    23667428.688    23667423.724
  23667427.468          44.000          43.000
 125256138.852 6  97421441.343 6  23423527.588    23423530.423    23423525.873
  23423529.901          38.000          40.000
 11 10  1  0 16  0.0000000  0 17G05G30G13R09R19G16G31G21R02R10R18G29
                                R11G10G02G25R20
 114511382.50948  89229667.85447  21790777.319    21790775.471    21790776.554
  21790775.216          52.000          47.000
 113951131.48348  88793092.12946  21684175.064                    21684173.908
  21684173.005          50.000          39.000
 129293481.85546 100748165.47942  24603729.831                    24603727.874
  24603730.482          39.000          15.000
 118553469.486 8  92208245.092 7  22201256.429    22201255.599    22201255.258
  22201256.987          48.000          45.000
 104811836.838 9  81520334.723 8  19593452.974    19593448.267    19593452.110
  19593448.028          54.000          52.000
 126121066.94246  98276159.76443  24000040.786                    24000040.021
  24000040.230          41.000          22.000
 129340414.76146 100784726.00646  24612671.349    24612672.011    24612670.988
  24612671.975          40.000          38.000
 118872748.66748  92628127.70246  22620719.582                    22620718.402
  22620716.777          50.000          36.000
 114776529.224 8  89270645.331 7  21509058.435    21509056.883    21509056.819
  21509056.285          51.000          47.000
 113086752.555 8  87956385.768 6  21214790.029    21214791.524    21214789.625
  21214791.365          50.000          41.000
 107306289.730 9  83460466.443 8  20102073.422    20102071.351    20102072.120
  20102071.726          55.000          50.000
 107112202.77549  83464076.29648  20382762.759    20382760.399    20382762.170
  20382759.963          55.000          53.000
 124884224.623 6  97132178.981 5  23370377.719    23370379.548    23370377.885
  23370378.816          41.000          35.000
 130550122.61546 101727380.14542  24842850.094                    24842848.618
  24842850.632          38.000          15.000
 125884375.36147  98091738.90243  23954987.748                    23954986.594
  23954983.920          42.000          23.000
 124486550.87747  97002504.53447  23689005.375    23689007.890    23689003.850
  23689006.707          45.000          42.000
 125136709.745 6  97328552.097 6  23401194.873    23401196.055    23401193.840
  23401194.578          39.000          40.000
 11 10  1  0 16 30.0000000  0 17G05G30G13R09R19G16G31G21R02R10R18G29
                                R11G10G02G25R20
 114528175.16348  89242752.99748  21793972.829    21793971.256    21793972.388
  21793970.832          50.000          48.000
 114033084.63248  88856951.67546  21699770.574                    21699769.148
  21699768.860          49.000          39.000
 129349396.60446 100791735.47842  24614369.235                    24614367.895
  24614369.916          39.000          15.000
 118661839.542 8  92292532.780 7  22221550.711    22221549.924    22221549.141
  22221550.566          49.000          45.000
 104763552.814 9  81482780.484 8  19584426.445    19584422.070    19584425.810
  19584421.699          56.000          51.000
 126024999.62746  98201302.15143  23981759.814                    23981758.132
  23981759.162          39.000          22.000
 129433328.86346 100857126.48046  24630351.863    24630352.136    24630349.950
  24630351.993          40.000          38.000
 118791304.51348  92564664.76446  22605221.089                    22605220.018
  22605218.344          50.000          36.000
 114849205.263 8  89327171.137 7  21522677.630    21522675.869    21522675.950
  21522676.365          50.000          47.000
 113090194.775 8  87959063.073 6  21215435.290    21215437.438    21215434.581
  21215436.328          50.000          41.000
 107376607.953 9  83515158.354 8  20115246.431    20115244.235    20115244.939
  20115244.492          55.000          50.000
 107140667.84348  83486256.86448  20388179.460    20388177.191    20388178.922
  20388176.751          53.000          53.000
 124782092.138 6  97052742.748 5  23351265.637    23351267.219    23351264.478
  23351266.551          41.000          35.000
 130655129.93346 101809204.13342  24862831.109                    24862830.526
  24862831.923          37.000          15.000
 125986810.97647  98171559.07344  23974480.749                    23974479.031
  23974477.364          42.000          24.000
 124600126.60647  97091004.99947  23710618.243    23710621.473    23710617.229
  23710620.568          45.000          43.000
 125017363.255 6  97235727.134 6  23378875.333    23378877.754    23378874.930
  23378876.183          39.000          40.000
 11 10  1  0 17  0.0000000  0 17G05G30G13R09R19G16G31G21R02R10R18G29
                                R11G10G02G25R20
 114545590.13648  89256323.05548  21797286.743    21797285.273    21797286.464
  21797284.976          49.000          48.000
 114115517.99948  88921185.43146  21715457.092                    21715455.543
  21715455.203          49.000          38.000
 129405840.64446 100835718.02842  24625110.162                    24625108.616
  24625110.082          39.000          15.000
 118770678.600 8  92377185.249 7  22241932.488    22241932.004    22241932.098
  22241933.509          48.000          46.000
 104715783.937 9  81445626.926 8  19575496.571    19575492.038    19575495.851
  19575491.486          54.000          51.000
 125929231.60546  98126677.76843  23963536.080                    23963534.644
  23963534.789          40.000          22.000
 129526457.98846 100929694.48046  24648073.870    24648075.633    24648073.096
  24648074.647          41.000          39.000
 118710107.81548  92501394.66246  22589769.713                    22589768.246
  22589767.687          49.000          36.000
 114922562.816 8  89384226.931 7  21536424.438    21536423.110    21536422.933
  21536423.034          50.000          47.000
 113094514.635 8  87962422.974 6  21216245.879    21216247.335    21216245.455
  21216246.830          51.000          41.000
 107447373.617 9  83570198.277 8  20128503.274    20128501.021    20128501.687
  20128501.572          54.000          49.000
 107169605.03748  83508805.32148  20393686.159    20393683.757    20393685.544
  20393683.244          53.000          53.000
 124680470.314 6  96973703.611 5  23332248.169    23332249.611    23332247.018
  23332248.662          41.000          35.000
 130760395.83346 101891229.53142  24882863.598                    24882862.466
  24882864.061          37.000          15.000
 126089393.52746  98251493.69744  23994000.819                    23993999.856
  23993998.665          41.000          24.000
 124713873.49647  97179638.81547  23732263.488    23732266.040    23732262.063
  23732265.638          45.000          42.000
 124898101.604 6  97142968.164 6  23356572.725    23356574.459    23356572.139
  23356572.490          39.000          40.000
 11 10  1  0 17 30.0000000  0 17G05G30G13R09R19G16G31G21R02R10R18G29
                                R11G10G02G25R20
 114563626.54848  89270377.40948  21800718.936    21800717.760    21800718.382
  21800717.048          51.000          48.000
 114198428.64148  88985791.07846  21731234.756                    21731233.576
  21731233.090          49.000          39.000
 129462810.83846 100880110.63542  24635950.634                    24635950.347
  24635953.538          40.000          13.000
 118879981.888 8  92462198.816 7  22262401.855    22262400.659    22262400.738
  22262402.532          48.000          45.000
 104668531.483 9  81408875.020 8  19566663.509    19566658.773    19566662.874
  19566658.079          55.000          52.000
 125833764.40446  98052287.79643  23945368.812                    23945367.455
  23945368.600          41.000          22.000
 129619798.78946 101002427.43946  24665836.526    24665836.805    24665836.139
  24665836.021          41.000          39.000
 118629159.27448  92438317.92046  22574366.108                    22574364.793
  22574363.380          49.000          36.000
 114996598.594 8  89441810.285 7  21550299.074    21550297.253    21550297.521
  21550297.055          50.000          47.000
 113099711.750 8  87966465.173 6  21217220.775    21217221.964    21217219.855
  21217221.806          50.000          41.000
 107518584.416 9  83625584.377 8  20141843.528    20141841.382    20141842.020
  20141842.185          54.000          50.000
 107199013.72149  83531721.17348  20399282.518    20399279.974    20399281.789
  20399279.550          55.000          53.000
 124579363.106 6  96895064.817 5  23313327.191    23313328.615    23313327.054
  23313327.283          41.000          34.000
 130865916.44346 101973453.20442  24902944.864                    24902942.844
  24902943.002          38.000          15.000
 126192121.07746  98331541.31444  24013549.624                    24013548.597
  24013546.130          41.000          25.000
 124827788.54347  97268403.65447  23753940.511    23753944.368    23753938.939
  23753942.828          44.000          42.000
 124778926.229 6  97050276.258 6  23334286.325    23334287.974    23334285.690
  23334287.678          39.000          40.000
 11 10  1  0 18  0.0000000  0 17G05G30G13R09R19G16G31G21R02R10R18G29
                                R11G10G02G25R20
 114582283.13248  89284914.94348  21804269.189    21804267.864    21804268.931
  21804267.395          50.000          48.000
 114281813.92648  89050766.56646  21747102.115                    21747100.445
  21747100.504          49.000          38.000
 129520305.24446                  24646890.973
                        38.000
 118989745.093 7  92547570.042 7  22282956.341    22282955.643    22282955.571
  22282958.504          47.000          45.000
 104621797.093 9  81372526.061 8  19557926.702    19557922.393    19557925.888
  19557921.866          54.000          51.000
 125738600.86247  97978134.42643  23927260.420                    23927258.695
  23927259.995          42.000          22.000
 129713348.22846 101075322.98446  24683637.681    24683640.012    24683636.780
  24683639.828          40.000          39.000
 118548460.17948  92375435.54846  22559009.118                    22559008.133
  22559006.719          50.000          36.000
 115071308.888 8  89499918.232 7  21564299.705    21564298.087    21564298.089
  21564297.466          50.000          47.000
 113105786.073 8  87971189.646 6  21218360.271    21218361.671    21218359.096
  21218361.309          50.000          41.000
 107590238.902 9  83681315.587 8  20155266.760    20155264.738    20155265.085
  20155265.146          54.000          50.000
 107228893.31548  83555003.97948  20404968.149    20404965.861    20404967.589
  20404965.568          52.000          53.000
 124478774.877 6  96816829.691 5  23294503.330    23294504.765    23294502.860
  23294504.185          41.000          34.000
 130971690.45946 102055874.51342  24923071.930                    24923070.339
  24923072.655          38.000          15.000
 126294992.01046  98411700.66344  24033124.341                    24033123.040
  24033121.966          41.000          24.000
 124941869.36647  97357297.68247  23775650.432    23775653.250    23775648.118
  23775651.456          45.000          42.000
 124659839.027 6  96957652.960 6  23312016.058    23312018.931    23312015.969
  23312016.818          39.000          40.000
 11 10  1  0 18 30.0000000  0 17G05G30G13R09R19G16G31G21R02R10R18G29
                                R11G10G02G25R20
 114601559.37848  89299935.32248  21807937.560    21807935.940    21807937.047
  21807935.820          50.000          48.000
 114365671.33948  89116109.95346  21763059.713                    21763058.365
  21763058.093          49.000          38.000
 129578321.37946                  24657931.526
                        39.000
 119099963.962 7  92633295.686 7  22303597.234    22303596.623    22303596.185
  22303597.893          47.000          45.000
 104575582.338 9  81336581.249 8  19549287.343    19549283.101    19549286.529
  19549282.558          55.000          51.000
 125643743.84346  97904219.92743  23909209.156                    23909207.886
  23909208.986          40.000          22.000
 129807103.28246 101148378.74646  24701479.651    24701479.946    24701479.074
  24701480.489          41.000          38.000
 118468012.00048  92312748.70046  22543700.786                    22543699.418
  22543697.842          50.000          36.000
 115146690.538 8  89558548.352 7  21578426.315    21578424.872    21578424.556
  21578424.749          50.000          47.000
 113112737.006 8  87976595.917 6  21219664.860    21219666.275    21219663.872
  21219664.688          51.000          41.000
 107662336.322 9  83737391.278 8  20168773.069    20168770.991    20168771.380
  20168771.799          54.000          49.000
 107259243.25949  83578653.26949  20410743.657    20410741.395    20410743.020
  20410740.886          55.000          54.000
 124378709.289 6  96739000.905 5  23275777.982    23275778.625    23275777.807
  23275778.978          41.000          34.000
 131077714.32946 102138490.76742  24943247.638                    24943247.059
  24943248.410          38.000          13.000
 126398005.02246  98491970.87143  24052727.120                    24052725.544
  24052724.863          41.000          23.000
 125056113.46947  97446318.93446  23797389.418    23797392.986    23797388.155
  23797391.586          44.000          41.000
 124540841.246 6  96865099.200 6  23289763.150    23289764.952    23289762.297
  23289763.128          39.000          39.000
 11 10  1  0 19  0.0000000  0 17G05G30G13R09R19G16G31G21R02R10R18G29
                                R11G10G02G25R20
 114621454.91148  89315438.29848  21811723.276    21811721.909    21811722.912
  21811721.857          48.000          48.000
 114449998.23248  89181819.18446  21779106.579                    21779105.151
  21779105.503          48.000          38.000
 129636857.31846                  24669070.358
                        39.000
 119210633.876 7  92719372.158 7  22324321.695    22324321.437    22324321.232
  22324323.198          47.000          45.000
 104529888.683 9  81301041.718 8  19540745.549    19540740.901    19540744.854
  19540740.242          54.000          51.000
 125549196.00446  97830546.34143  23891217.599                    23891216.607
  23891216.961          41.000          22.000
 129901061.47146 101221592.82446  24719358.783    24719359.982    24719359.283
  24719360.046          41.000          38.000
 118387815.93448  92250258.29746  22528440.027                    22528438.962
  22528437.312          50.000          37.000
 115222740.391 8  89617698.184 7  21592678.369    21592676.629    21592676.989
  21592676.717          50.000          47.000
 113120564.642 8  87982684.070 6  21221132.920    21221133.674    21221132.390
  21221133.528          51.000          41.000
 107734874.552 9  83793809.843 8  20182361.924    20182359.993    20182360.343
  20182360.268          55.000          49.000
 107290063.39848  83602668.95349  20416608.485    20416606.394    20416607.855
  20416605.750          53.000          54.000
 124279170.742 6  96661582.087 5  23257150.860    23257152.467    23257149.135
  23257150.120          41.000          34.000
 131183984.26946 102221298.48342  24963470.636                    24963467.931
  24963468.795          37.000          13.000
 126501157.29746  98572349.43844  24072356.830                    24072355.781
  24072354.123          41.000          24.000
 125170518.27847  97535465.41546  23819160.510    23819162.386    23819159.727
  23819161.762          45.000          40.000
 124421935.225 6  96772616.751 6  23267527.466    23267529.325    23267526.695
  23267528.532          40.000          39.000
 11 10  1  0 19 30.0000000  0 17G05G30G13R09R19G16G31G21R02R10R18G29
                                R11G10G02G25R20
 114641968.25948  89331422.68748  21815627.007    21815625.845    21815626.347
  21815625.180          50.000          48.000
 114534791.77048  89247892.01446  21795242.606                    21795241.262
  21795240.416          49.000          38.000
 129695910.48746                  24680307.556
                        39.000
 119321750.564 7  92805796.093 7  22345130.487    22345130.088    22345129.429
  22345131.656          47.000          45.000
 104484717.475 9  81265908.540 8  19532300.884    19532296.628    19532300.399
  19532296.209          55.000          51.000
 125454960.00746  97757115.76043  23873284.938                    23873283.606
  23873284.434          41.000          22.000
 129995219.67146 101294962.76546  24737276.528    24737277.650    24737276.554
  24737277.293          41.000          38.000
 118307872.98748  92187965.13446  22513227.562                    22513226.278
  22513224.173          50.000          37.000
 115299454.972 8  89677365.039 7  21607054.763    21607052.939    21607053.544
  21607052.677          50.000          47.000
 113129268.069 8  87989453.404 6  21222766.363    21222767.184    21222765.308
  21222766.246          51.000          41.000
 107807852.075 9  83850570.073 8  20196032.943    20196031.204    20196031.591
  20196031.620          55.000          50.000
 107321352.97149  83627050.43048  20422562.804    20422560.610    20422562.119
  20422560.062          54.000          53.000
 124180163.168 6  96584576.161 5  23238622.902    23238623.571    23238621.068
  23238623.256          41.000          34.000
 131290498.36246 102304296.38842  24983738.907                    24983736.904
  24983739.522          37.000          13.000
 126604447.84546  98652835.82444  24092011.781                    24092010.538
  24092008.562          40.000          24.000
 125285081.25647  97624735.14646  23840960.830    23840964.862    23840959.974
  23840963.527          44.000          41.000
 124303121.844 6  96680206.386 6  23245309.194    23245310.920    23245307.412
  23245310.205          39.000          40.000
 11 10  1  0 20  0.0000000  0 17G05G30G13R09R19G16G31G21R02R10R18G29
                                R11G10G02G25R20
 114663098.93648  89347888.09348  21819648.041    21819646.957    21819647.653
  21819646.315          51.000          48.000
 114620049.54648  89314326.58746  21811466.489                    21811465.033
  21811464.643          49.000          38.000
 129755479.18146                  24691642.829
                        38.000
 119433309.799 7  92892564.264 7  22366022.201    22366021.601    22366021.434
  22366024.692          47.000          44.000
 104440070.726 9  81231183.284 8  19523955.068    19523950.638    19523954.485
  19523950.242          55.000          51.000
 125361037.98146  97683929.82543  23855412.537                    23855411.535
  23855410.961          40.000          22.000
 130089574.92746 101368486.24746  24755232.069    24755233.192    24755231.156
  24755233.279          40.000          40.000
 118228184.29448  92125870.10146  22498063.122                    22498062.038
  22498059.642          51.000          37.000
 115376831.000 8  89737546.354 7  21621555.314    21621553.762    21621553.560
  21621553.954          50.000          47.000
 113138847.024 8  87996903.697 6  21224562.451    21224563.952    21224561.916
  21224563.567          51.000          41.000
 107881268.319 9  83907671.507 8  20209786.601    20209784.867    20209785.231
  20209785.199          55.000          49.000
 107353111.84948  83651797.59048  20428606.190    20428604.041    20428605.721
  20428603.501          53.000          53.000
 124081691.066 6  96507986.809 5  23220195.056    23220195.720    23220194.224
  23220194.228          41.000          34.000
 131397253.59146 102387482.21342  25004053.349                    25004051.462
  25004053.619          36.000          14.000
 126707875.14246  98733428.80543  24111692.956                    24111691.439
  24111690.293          41.000          23.000
 125399800.09547  97714126.29947  23862790.875    23862794.883    23862789.660
  23862793.550          43.000          42.000
 124184403.514 6  96587869.975 6  23223108.129    23223110.329    23223106.967
  23223108.801          39.000          39.000
