     2.11           OBSERVATION DATA    M (MIXED)           RINEX VERSION / TYPE
teqc  2016Apr1                          20160930 07:51:16UTCPGM / RUN BY / DATE
Linux 2.4.20-8|Pentium IV|gcc|Linux|486/DX+                 COMMENT
teqc  2016Apr1                          20160816 03:34:34UTCCOMMENT
GN-RINEX 1.3                            01-OCT-11 00:00     COMMENT
RXO2RXO 1.7u        Geo++ RX Converter  2011-10-02 03:12    COMMENT
RAMO Mizpe Ramon                                            MARKER NAME
20703S001                                                   MARKER NUMBER
S. Grossman         Survey of Israel                        OBSERVER / AGENCY
00686               JAVAD TRE_G3T DELTA 3.2.5               REC # / TYPE / VERS
CR20014604          ASH701945B_M    SNOW                    ANT # / TYPE
  4514721.8650  3133507.8420  3228024.6930                  APPROX POSITION XYZ
        0.0030        0.0000        0.0000                  ANTENNA: DELTA H/E/N
     1     1                                                WAVELENGTH FACT L1/2
     9    C1    L1    D1    P2    L2    D2    P1    S1    S2# / TYPES OF OBSERV
    30.0000                                                 INTERVAL
teqc windowed: start @ 2011 Oct  1 00:10:00.000             COMMENT
teqc windowed:  end  @ 2011 Oct  1 00:20:00.000             COMMENT
  2011    10     1     0    10    0.0000000     GPS         TIME OF FIRST OBS
    15                                                      LEAP SECONDS
                                                            END OF HEADER
 11 10  1  0 10  0.0000000  0 18G07G13G10G23G08G04G20G16G02G28G32R01
                                R11R12R08R02R10R13
  20593189.620 6   -833895.933 6       353.486    20593189.596 6    439716.688 6
       275.441    20593189.210          54.000          37.750
  20954716.262 6   1066196.803 6      -452.469    20954715.986 5   1920142.663 5
      -352.582    20954715.719          53.500          36.750
  21288830.163 6  15404660.671 6      1850.332    21288831.143 5   3288139.302 5
      1441.800    21288828.975          51.250          36.000
  21766001.316 6   9523810.542 6     -1329.619    21765999.913 5   9436671.493 5
     -1036.062    21766001.085          50.250          34.750
  21933596.476 6 -23150038.574 6      1819.174    21933597.334 5 -19237329.029 5
      1417.527    21933595.376          51.750          35.750
  23120789.321 6  20837235.279 6     -1779.512    23120790.673 5  14983983.986 5
     -1386.638    23120788.829          45.750          28.750
  23192293.536 6  25407563.544 6     -3420.623    23192294.553 5  23665637.154 5
     -2665.496    23192292.940          44.000          26.500
  23374266.095 6  17975135.987 6     -2107.198    23374266.716 5  16022100.315 5
     -1641.982    23374265.214          43.500          28.000
  24084359.632 6 -16041798.738 6       640.258    24084358.169 5 -18819091.364 5
       498.913    24084357.830          40.000          20.500
  25099733.120 5  18653783.09315      3332.821
                                        32.250
  25481861.059 5  33245105.444 5     -3314.461    25481866.497 5  24652187.356 5
     -2582.490    25481860.636          34.750          10.000
  19378025.228 6  -9659540.676 6       798.122    19378034.819 6  -7512966.943 6
       620.762    19378024.779          49.250          37.250
  19879872.677 6 -15402541.438 6     -2292.442    19879883.664 5  -9649549.967 5
     -1783.004    19879872.668          47.750          36.000
  20252719.805 6 -17642577.307 6      1734.209    20252731.859 6 -12323879.129 6
      1348.821    20252719.748          50.750          39.000
  21068747.989 6  28936113.803 6     -2843.449    21068756.374 5  33224646.012 5
     -2211.576    21068748.706          43.250          36.500
  22364371.985 6 -10682816.054 6      3656.500    22364382.946 5  -7842839.793 5
      2843.939    22364371.626          45.000          36.250
  23757795.231 6    813455.100 6     -3996.657    23757808.128 5   2030862.150 5
     -3108.519    23757796.412          39.750          30.750
  24343305.283 5   4162774.82515      3634.162    24343324.089 5   4635821.550 5
      2826.602    24343306.114          36.250          33.500
 11 10  1  0 10 30.0000000  0 18G07G13G10G23G08G04G20G16G02G28G32R01
                                R11R12R08R02R10R13
  20591210.687 6   -844294.303 6       340.077    20591211.068 6    431614.080 6
       264.982    20591210.280          54.000          37.250
  20957315.636 6   1079857.815 6      -457.972    20957315.702 5   1930787.607 5
      -356.855    20957315.235          53.500          36.000
  21278307.822 6  15349364.566 6      1836.395    21278308.784 5   3245051.427 5
      1430.953    21278306.716          51.250          36.000
  21773610.264 6   9563792.785 6     -1335.558    21773608.513 5   9467826.478 5
     -1040.730    21773609.938          51.250          34.000
  21923244.661 6 -23204436.502 6      1807.649    21923245.650 5 -19279716.974 5
      1408.552    21923243.794          51.750          35.500
  23130982.003 6  20890796.557 6     -1790.919    23130983.703 5  15025720.026 5
     -1395.517    23130981.083          46.250          28.250
  23211842.439 6  25510294.922 6     -3427.754    23211844.885 5  23745687.456 5
     -2670.956    23211841.165          43.250          26.000
  23386344.769 6  18038607.698 6     -2123.951    23386344.278 5  16071558.800 5
     -1655.059    23386343.765          44.500          27.750
  24080754.711 6 -16060745.379 6       623.253    24080753.057 5 -18833854.960 5
       485.627    24080753.506          40.250          21.500
  25080700.865 5  18553771.74515      3334.875
                                        31.750
  25500793.921 5  33344602.690 5     -3318.164    25500800.246 5  24729718.031 5
     -2585.424    25500792.284          35.750          14.000
  19373604.267 6  -9683170.598 6       777.468    19373613.905 6  -7531345.774 6
       604.708    19373604.354          49.250          37.000
  19892786.929 6 -15333534.457 6     -2307.653    19892797.002 6  -9595877.873 6
     -1794.846    19892786.593          47.750          37.250
  20243035.588 6 -17694309.202 6      1714.878    20243047.598 6 -12364115.018 6
      1333.794    20243035.504          50.750          40.000
  21084725.084 6  29021669.736 6     -2860.094    21084733.601 6  33291189.491 6
     -2224.520    21084725.197          43.250          37.250
  22343827.703 6 -10792444.314 6      3652.478    22343837.917 5  -7928106.202 5
      2840.777    22343827.460          44.750          36.000
  23780285.733 6    933335.403 6     -3995.106    23780297.479 5   2124102.332 5
     -3107.296    23780285.817          38.250          31.750
  24322911.695 5   4053865.764 5      3626.457    24322928.273 5   4551114.780 5
      2820.577    24322910.927          33.000          30.000
 11 10  1  0 11  0.0000000  0 18G07G13G10G23G08G04G20G16G02G28G32R01
                                R11R12R08R02R10R13
  20589309.368 6   -854285.581 6       326.213    20589309.620 6    423828.683 6
       254.196    20589309.401          54.000          37.250
  20959947.835 6   1093690.099 6      -463.987    20959947.622 5   1941566.016 5
      -361.566    20959947.143          53.000          35.250
  21267866.473 6  15294495.159 6      1821.807    21267867.379 5   3202296.033 5
      1419.618    21267865.421          51.500          34.500
  21781253.281 6   9603959.376 6     -1342.022    21781252.109 5   9499125.104 5
     -1045.738    21781253.137          50.500          34.750
  21912959.882 6 -23258483.997 6      1795.702    21912960.364 5 -19321831.864 5
      1399.246    21912959.273          52.250          34.500
  23141239.696 6  20944705.019 6     -1802.720    23141242.289 5  15067726.586 5
     -1404.694    23141239.300          46.000          28.750
  23231434.071 6  25613247.035 6     -3435.409    23231435.444 5  23825909.808 5
     -2676.917    23231432.431          42.250          26.250
  23398518.358 6  18102583.691 6     -2141.005    23398518.460 5  16121410.224 5
     -1668.369    23398517.929          44.000          28.000
  24077246.636 6 -16079176.353 6       605.815    24077246.492 5 -18848216.743 5
       472.021    24077245.191          39.750          21.500
  25061659.022 5  18453693.385 5      3337.222
                                        33.500
  25519749.231 5  33444211.740 5     -3322.251    25519754.798 5  24807335.897 5
     -2588.730    25519748.895          35.250          13.250
  19369301.208 6  -9706175.991 6       756.365    19369310.513 5  -7549238.863 5
       588.311    19369300.602          49.250          36.500
  19905786.728 6 -15264065.957 6     -2323.325    19905797.559 5  -9541846.813 5
     -1807.033    19905786.785          47.250          35.750
  20233461.164 6 -17745456.049 6      1695.125    20233473.045 6 -12403895.863 6
      1318.436    20233460.742          51.000          39.500
  21100796.433 6  29107730.376 6     -2877.226    21100804.701 5  33358125.513 5
     -2237.845    21100796.681          43.500          36.750
  22323307.449 6 -10901943.076 6      3647.662    22323317.423 5  -8013271.895 5
      2837.063    22323307.335          45.000          35.500
  23802766.743 6   1053172.092 6     -3993.927    23802780.105 5   2217308.648 5
     -3106.396    23802766.216          41.250          30.750
  24302560.257 5   3945187.157 5      3618.610    24302575.222 5   4466587.521 5
      2814.476    24302558.254          30.250          27.500
 11 10  1  0 11 30.0000000  0 19G07G13G10G23G08G04G20G16G02G28G03G32
                                R01R11R12R08R02R10R13
  20587483.173 6   -863882.342 6       313.302    20587483.161 6    416350.697 6
       244.123    20587483.050          53.750          37.000
  20962610.343 6   1107682.839 6      -469.112    20962610.936 5   1952469.445 5
      -365.544    20962610.244          53.250          35.750
  21257504.711 6  15240042.845 6      1808.057    21257505.136 5   3159865.666 5
      1408.884    21257503.380          51.750          35.000
  21788930.049 6   9644299.763 6     -1347.599    21788928.748 5   9530559.163 5
     -1050.099    21788929.749          51.000          33.750
  21902739.288 6 -23312192.479 6      1784.620    21902740.739 5 -19363682.584 5
      1390.633    21902738.689          51.750          34.500
  23151562.438 6  20998946.656 6     -1813.677    23151563.943 5  15109992.762 5
     -1413.249    23151561.532          45.500          27.250
  23251063.348 6  25716406.576 6     -3442.124    23251066.442 5  23906293.762 5
     -2682.116    23251063.165          42.500          26.250
  23410786.708 6  18167050.832 6     -2157.054    23410786.357 5  16171644.328 5
     -1680.742    23410785.970          44.500          26.750
  24073835.597 6 -16097102.551 6       589.168    24073833.847 5 -18862185.254 5
       459.051    24073834.398          39.250          22.000
  25042602.226 5  18353537.858 5      3339.832
                                        35.000
  25167085.807 6  19007747.49716      1441.271
                                        38.250
  25538720.632 5  33543919.590 5     -3325.092    25538729.814 5  24885030.691 5
     -2591.156    25538721.060          32.250          10.250
  19365112.595 6  -9728565.799 6       736.045    19365121.756 5  -7566653.152 5
       572.482    19365112.052          49.250          36.750
  19918870.057 6 -15194151.277 6     -2337.944    19918880.808 5  -9487468.721 5
     -1818.392    19918870.060          47.250          36.500
  20223992.924 6 -17796028.992 6      1676.193    20224005.605 6 -12443230.346 6
      1303.714    20223993.107          50.750          40.000
  21116960.064 6  29194282.783 6     -2893.245    21116967.771 5  33425444.012 5
     -2250.288    21116959.701          43.250          36.750
  22302810.036 6 -11011320.577 6      3643.821    22302819.362 5  -8098343.258 5
      2834.081    22302809.214          45.500          35.750
  23825237.954 6   1172951.250 6     -3991.676    23825250.299 5   2310470.242 5
     -3104.684    23825236.071          40.000          32.000
  24282249.542 5   3836728.104 5      3611.605    24282263.396 5   4382230.620 5
      2809.044    24282246.065          31.750          29.250
 11 10  1  0 12  0.0000000  0 19G07G13G10G23G08G04G20G16G02G28G03G32
                                R01R11R12R08R02R10R13
  20585734.867 6   -873070.683 6       299.807    20585734.903 6    409190.960 6
       233.616    20585734.657          54.250          38.000
  20965306.625 6   1121850.735 6      -474.909    20965306.607 5   1963509.363 5
      -370.052    20965306.250          53.750          36.500
  21247225.358 6  15186024.424 6      1793.670    21247225.580 5   3117773.396 5
      1397.679    21247224.024          51.750          36.250
  21796642.809 6   9684828.887 6     -1353.810    21796640.570 5   9562140.284 5
     -1054.914    21796642.350          51.250          34.500
  21892586.121 6 -23365547.113 6      1772.906    21892587.281 5 -19405257.573 5
      1381.472    21892585.512          52.250          35.500
  23161949.209 6  21053532.992 6     -1824.943    23161950.741 5  15152527.581 5
     -1422.088    23161948.745          45.750          28.500
  23270736.098 6  25819786.048 6     -3449.376    23270738.478 5  23986849.125 5
     -2687.792    23270735.093          42.000          26.500
  23423150.283 6  18232021.665 6     -2173.789    23423149.924 5  16222270.967 5
     -1693.836    23423149.960          44.250          27.750
  24070522.192 6 -16114509.861 6       571.876    24070521.683 5 -18875749.389 5
       445.516    24070521.731          40.250          21.500
  25023531.154 5  18253322.987 5      3341.630    25023539.314 5  10192488.89815
      2603.342    25023529.487          35.000           7.500
  25158883.201 5  18964653.457 5      1432.162
                                        36.250
  25557716.441 5  33643739.406 5     -3329.075    25557723.900 5  24962812.82915
     -2594.012    25557716.768          34.500           8.750
  19361042.633 6  -9750322.615 6       715.008    19361051.927 6  -7583575.120 6
       556.125    19361042.165          49.000          37.250
  19932039.127 6 -15123779.432 6     -2353.033    19932050.025 5  -9432735.062 5
     -1830.142    19932039.334          47.500          36.750
  20214636.932 6 -17846012.995 6      1656.632    20214648.681 6 -12482106.761 6
      1288.493    20214636.210          50.750          39.750
  21133216.957 6  29281340.421 6     -2909.945    21133225.537 6  33493155.479 6
     -2263.306    21133216.646          42.750          37.500
  22282338.501 6 -11120558.529 6      3639.156    22282348.136 5  -8183306.077 5
      2830.441    22282337.919          44.500          36.500
  23847697.341 6   1292685.409 6     -3990.015    23847710.508 5   2403596.785 5
     -3103.411    23847698.228          38.500          32.750
  24261979.396 5   3728506.172 5      3604.011    24261996.595 5   4298058.074 5
      2803.158    24261979.624          34.250          30.750
 11 10  1  0 12 30.0000000  0 19G07G13G10G23G08G04G20G16G02G28G03G32
                                R01R11R12R08R02R10R13
  20584061.884 6   -881861.824 6       286.041    20584061.908 6    402340.728 6
       222.891    20584061.723          54.000          37.000
  20968034.101 6   1136184.026 6      -480.940    20968033.930 5   1974678.158 5
      -374.740    20968033.519          53.250          36.000
  21237027.324 6  15132431.500 6      1778.907    21237027.336 5   3076012.693 5
      1386.161    21237025.819          52.000          35.500
  21804388.961 6   9725536.765 6     -1360.328    21804387.399 5   9593860.693 5
     -1059.987    21804388.295          51.000          33.500
  21882498.596 6 -23418557.865 6      1760.863    21882499.364 5 -19446564.614 5
      1372.125    21882497.574          51.750          35.000
  23172400.211 6  21108451.373 6     -1836.509    23172401.440 5  15195321.073 5
     -1431.006    23172399.519          45.500          27.000
  23290448.699 6  25923372.842 6     -3456.675    23290450.785 5  24067566.020 5
     -2693.513    23290447.734          43.000          26.000
  23435606.855 6  18297483.975 6     -2190.611    23435606.135 5  16273280.549 5
     -1706.901    23435607.299          43.750          27.250
  24067306.849 6 -16131408.790 6       554.405    24067306.492 5 -18888917.412 5
       432.011    24067307.176          41.000          21.500
  25004449.127 5  18153040.216 5      3343.363    25004455.204 5  10114345.417 5
      2605.442    25004447.029          36.250          11.000
  25150734.110 5  18921824.449 5      1422.839
                                        34.500
  25576730.691 5  33743659.006 5     -3332.772    25576737.535 5  25040672.79815
     -2596.924    25576731.179          33.750           9.250
  19357089.210 6  -9771454.909 6       693.566    19357098.354 6  -7600011.355 6
       539.441    19357088.817          49.500          37.500
  19945291.711 6 -15052964.397 6     -2368.218    19945302.611 6  -9377656.709 6
     -1841.944    19945291.480          47.750          37.000
  20205388.518 6 -17895418.017 6      1636.808    20205399.910 6 -12520532.861 6
      1273.075    20205387.540          50.500          39.750
  21149566.580 6  29368890.729 6     -2926.990    21149574.491 6  33561250.125 6
     -2276.552    21149566.109          42.500          37.500
  22261892.263 6 -11229664.407 6      3634.242    22261902.764 6  -8268166.209 6
      2826.639    22261891.879          43.500          37.000
  23870150.366 6   1412361.346 6     -3988.609    23870163.212 5   2496678.008 5
     -3102.266    23870149.397          40.750          32.250
  24241759.210 5   3620513.324 5      3595.330    24241775.033 5   4214063.591 5
      2796.436    24241757.037          32.750          30.750
 11 10  1  0 13  0.0000000  0 19G07G13G10G23G08G04G20G16G02G28G03G32
                                R01R11R12R08R02R10R13
  20582466.284 6   -890246.659 6       272.709    20582466.269 6    395807.106 6
       212.495    20582466.005          53.500          38.500
  20970794.791 6   1150693.040 6      -486.627    20970794.611 5   1985983.887 5
      -379.185    20970794.866          53.750          36.750
  21226912.060 6  15079276.659 6      1764.478    21226912.518 5   3034593.345 5
      1374.909    21226910.468          51.500          36.500
  21812172.011 6   9766434.318 6     -1366.469    21812169.846 5   9625728.916 5
     -1064.797    21812170.916          51.000          34.750
  21872478.195 6 -23471214.413 6      1749.278    21872479.365 5 -19487595.658 5
      1363.093    21872477.569          51.750          36.000
  23182914.946 6  21163708.902 6     -1847.561    23182917.179 5  15238378.867 5
     -1439.660    23182915.048          46.250          28.500
  23310202.336 6  26027174.997 6     -3463.656    23310204.009 5  24148450.751 5
     -2698.995    23310201.307          43.500          26.250
  23448159.378 6  18363445.683 6     -2207.004    23448158.928 5  16324679.311 5
     -1719.792    23448159.045          44.000          27.500
  24064189.763 6 -16147789.315 6       537.399    24064190.135 5 -18901681.464 5
       418.722    24064189.092          40.250          21.250
  24985356.074 5  18052702.577 5      3345.383    24985361.875 5  10036159.627 5
      2606.537    24985354.398          35.750           9.500
  25142636.548 5  18879273.578 5      1413.717
                                        34.250
  25595766.885 5  33843686.909 5     -3335.928
                                        31.500
  19353255.191 6  -9791949.696 6       672.486    19353264.257 6  -7615951.747 6
       523.056    19353255.107          49.000          37.500
  19958627.583 6 -14981699.883 6     -2382.940    19958637.928 6  -9322228.754 6
     -1853.409    19958627.772          47.250          37.250
  20196249.147 6 -17944233.540 6      1617.364    20196261.240 6 -12558500.462 6
      1257.959    20196248.925          50.250          40.000
  21166009.812 6  29456942.147 6     -2943.328    21166017.559 6  33629734.528 6
     -2289.250    21166008.991          42.500          37.750
  22241474.649 6 -11338624.655 6      3629.483    22241483.486 6  -8352913.063 6
      2822.924    22241473.515          45.750          37.750
  23892591.111 6   1531986.233 6     -3986.556    23892604.860 5   2589719.540 5
     -3100.684    23892591.435          41.500          32.250
  24221580.012 6   3512762.003 6      3587.728    24221596.225 5   4130257.002 5
      2790.481    24221579.293          37.500          35.000
 11 10  1  0 13 30.0000000  0 19G07G13G10G23G08G04G20G16G02G28G03G32
                                R01R11R12R08R02R10R13
  20580947.104 6   -898230.413 6       259.557    20580947.110 6    389586.013 6
       202.258    20580946.849          53.750          37.000
  20973589.195 6   1165374.370 6      -492.151    20973589.096 5   1997423.888 5
      -383.488    20973588.752          54.250          35.500
  21216879.829 6  15026557.850 6      1750.115    21216880.455 5   2993513.748 5
      1363.718    21216878.399          51.750          35.250
  21819989.615 6   9807517.827 6     -1372.448    21819987.936 5   9657742.033 5
     -1069.452    21819988.940          50.750          34.250
  21862524.423 6 -23523520.670 6      1737.808    21862525.545 5 -19528353.740 5
      1354.129    21862523.572          51.750          34.500
  23193493.857 6  21219299.179 6     -1858.432    23193495.842 5  15281695.919 5
     -1448.046    23193493.096          46.250          27.500
  23329994.337 6  26131186.313 6     -3470.487    23329996.100 5  24229498.431 5
     -2704.312    23329993.138          43.500          25.250
  23460805.023 6  18429900.821 6     -2223.290    23460804.546 5  16376462.532 5
     -1732.444    23460804.777          44.500          27.000
  24061171.348 6 -16163655.383 6       520.434    24061169.780 5 -18914044.659 5
       405.500    24061169.525          40.000          20.500
  24966250.933 5  17952308.452 5      3347.502    24966256.974 5   9957930.02115
      2608.162    24966250.013          35.000           9.500
  25134589.831 5  18836999.202 5      1404.416
                                        30.750
  25614819.709 5  33943817.738 5     -3339.251
                                        35.000
  19349540.706 6  -9811808.746 6       651.462    19349549.915 5  -7631397.674 5
       506.703    19349539.947          49.250          36.500
  19972046.137 6 -14909993.425 6     -2397.420    19972057.247 5  -9266457.059 5
     -1864.662    19972046.404          47.000          36.750
  20187220.435 6 -17992463.423 6      1598.007    20187232.526 6 -12596012.559 6
      1242.892    20187220.084          50.250          39.250
  21182544.368 6  29545489.127 6     -2959.701    21182553.101 5  33698604.366 5
     -2301.989    21182544.997          42.750          36.750
  22221081.926 6 -11447439.948 6      3624.818    22221091.867 5  -8437547.158 5
      2819.285    22221081.533          46.000          36.500
  23915024.020 6   1651554.062 6     -3984.472    23915034.303 5   2682716.715 5
     -3099.043    23915023.151          43.000          30.500
  24201444.278 6   3405249.804 6      3579.767    24201462.466 5   4046636.460 5
      2784.314    24201445.072          37.250          33.750
 11 10  1  0 14  0.0000000  0 19G07G13G10G23G08G04G20G16G02G28G03G32
                                R01R11R12R08R02R10R13
  20579502.944 6   -905818.160 6       246.174    20579503.090 6    383673.493 6
       191.823    20579502.749          53.500          37.500
  20976414.859 6   1180224.247 6      -497.990    20976414.889 5   2008995.218 5
      -388.037    20976414.559          53.750          36.500
  21206930.245 6  14974272.891 6      1735.407    21206931.240 5   2952772.213 5
      1352.259    21206929.073          52.000          35.750
  21827842.435 6   9848783.738 6     -1378.751    21827840.888 5   9689897.270 5
     -1074.327    21827841.710          50.500          34.250
  21852636.740 6 -23575480.752 6      1726.068    21852638.236 5 -19568842.066 5
      1344.987    21852635.979          51.500          35.500
  23204133.618 6  21275214.753 6     -1869.426    23204135.662 5  15325266.472 5
     -1456.701    23204133.639          45.750          28.500
  23349825.524 6  26235400.697 6     -3477.399    23349827.152 5  24310704.343 5
     -2709.615    23349823.923          42.750          25.750
  23473543.174 6  18496842.626 6     -2239.662    23473544.424 5  16428624.947 5
     -1745.139    23473542.293          43.500          26.750
  24058247.766 6 -16179011.755 6       503.174    24058246.836 5 -18926010.626 5
       392.115    24058246.833          40.250          20.500
  24947136.847 5  17851855.826 5      3349.246    24947141.745 5   9879654.833 5
      2609.597    24947135.360          36.750          11.000
  25126598.494 5  18794999.825 5      1395.102
                                        30.750
  25633892.272 5  34044044.856 5     -3342.723
                                        31.500
  19345943.655 6  -9831033.983 6       630.057    19345953.326 6  -7646350.634 6
       490.038    19345943.544          49.000          37.250
  19985546.577 6 -14837853.543 6     -2412.019    19985556.845 5  -9210348.247 5
     -1876.026    19985546.307          47.000          36.750
  20178301.049 6 -18040111.753 6      1578.433    20178312.435 6 -12633072.345 6
      1227.676    20178300.236          50.250          39.750
  21199171.805 6  29634525.671 6     -2976.274    21199180.256 6  33767854.985 6
     -2314.892    21199172.036          42.750          37.000
  22200715.768 6 -11556111.045 6      3619.710    22200727.289 5  -8522069.106 5
      2815.332    22200716.086          45.750          36.750
  23937441.982 6   1771057.855 6     -3982.532    23937452.807 5   2775664.101 5
     -3097.552    23937441.769          42.750          31.750
  24181356.333 5   3297974.276 5      3571.644    24181372.975 5   3963199.840 5
      2778.010    24181355.344          34.500          29.500
 11 10  1  0 14 30.0000000  0 19G07G13G10G23G08G04G20G16G02G28G03G32
                                R01R11R12R08R02R10R13
  20578134.421 6   -913009.445 6       233.325    20578134.625 6    378069.901 6
       181.808    20578134.328          54.250          37.250
  20979272.943 6   1195244.563 6      -503.327    20979272.982 5   2020699.352 5
      -392.200    20979272.379          53.000          36.000
  21197064.249 6  14922425.629 6      1721.125    21197064.423 5   2912371.750 5
      1341.150    21197063.119          52.500          35.250
  21835730.017 6   9890234.117 6     -1384.546    21835728.521 5   9722196.260 5
     -1078.876    21835729.069          50.000          33.250
  21842814.811 6 -23627093.130 6      1714.836    21842816.523 5 -19609059.466 5
      1336.254    21842814.295          51.750          35.000
  23214836.211 6  21331454.817 6     -1879.866    23214837.971 5  15369089.868 5
     -1464.845    23214835.992          46.750          28.250
  23369695.855 6  26339817.418 6     -3483.664    23369697.768 5  24392067.927 5
     -2714.623    23369695.403          43.750          25.750
  23486374.660 6  18564271.009 6     -2255.687    23486374.912 5  16481166.561 5
     -1757.674    23486374.034          44.000          26.000
  24055424.038 6 -16193856.886 6       486.564    24055422.803 5 -18937578.273 5
       379.139    24055422.021          41.250          21.000
  24928010.247 5  17751348.603 5      3351.325    24928015.253 5   9801337.16715
      2611.684    24928008.451          36.000           7.000
  25118657.396 5  18753279.781 5      1386.188
                                        30.750
  25652982.663 5  34144368.622 5     -3345.689
                                        31.250
  19342466.551 6  -9849621.411 6       609.125    19342475.926 5  -7660807.529 5
       473.774    19342466.356          49.000          36.250
  19999127.223 6 -14765281.930 6     -2426.018    19999137.956 5  -9153903.654 5
     -1886.913    19999127.268          47.750          36.500
  20169489.690 6 -18087176.765 6      1559.298    20169501.780 6 -12669678.438 6
      1212.790    20169489.618          50.250          39.750
  21215889.773 6  29724051.153 6     -2992.171    21215898.551 6  33837485.884 6
     -2327.252    21215890.028          43.250          37.250
  22180378.855 6 -11664633.052 6      3615.135    22180389.597 6  -8606475.114 6
      2811.776    22180378.996          45.250          37.000
  23959847.064 6   1890496.540 6     -3979.956    23959859.365 5   2868560.830 5
     -3095.538    23959847.298          41.500          33.000
  24161312.611 6   3190939.744 6      3564.104    24161330.071 5   3879951.037 5
      2772.132    24161311.430          39.500          33.250
 11 10  1  0 15  0.0000000  0 19G07G13G10G08G23G04G20G16G02G28G03G32
                                R01R11R12R08R02R10R13
  20576842.175 6   -919801.194 6       219.965    20576842.184 6    372777.633 6
       171.399    20576841.953          53.250          37.250
  20982164.396 6   1210439.858 6      -509.246    20982164.402 5   2032539.832 5
      -396.836    20982163.982          53.000          35.500
  21187282.836 6  14871022.014 6      1706.231    21187282.866 5   2872317.004 5
      1329.541    21187281.442          52.000          35.750
  21833060.497 6 -23678353.516 6      1703.003    21833061.864 5 -19649002.577 5
      1326.997    21833059.777          52.000          35.250
  21843653.507 6   9931873.397 6     -1390.935    21843651.781 5   9754642.435 5
     -1083.830    21843653.181          49.500          33.750
  23225600.550 6  21388020.403 6     -1890.721    23225601.839 5  15413166.903 5
     -1473.245    23225600.023          47.250          29.250
  23389604.871 6  26444438.550 6     -3490.589    23389607.159 5  24473590.785 5
     -2719.942    23389604.278          42.750          26.250
  23499298.986 6  18632187.842 6     -2271.841    23499299.106 5  16534088.768 5
     -1770.277    23499298.323          43.500          26.500
  24052697.015 6 -16208186.985 6       469.284    24052695.927 5 -18948744.579 5
       365.676    24052696.608          40.250          21.000
  24908873.034 5  17650793.396 5      3352.864
                                        35.500
  25110775.604 5  18711845.505 5      1376.653
                                        31.250
  25672088.754 5  34244791.551 5     -3348.891
                                        28.250
  19339109.814 6  -9867564.758 6       587.576    19339119.593 6  -7674763.464 6
       456.993    19339109.442          48.750          37.500
  20012789.875 6 -14692278.254 6     -2440.403    20012799.555 5  -9097123.025 5
     -1898.086    20012789.038          47.750          36.750
  20160788.702 6 -18133654.034 6      1539.743    20160801.363 6 -12705827.392 6
      1197.578    20160788.870          50.250          40.250
  21232700.033 6  29814068.273 6     -3008.544    21232708.712 6  33907499.171 6
     -2339.971    21232700.707          42.500          38.000
  22160072.509 6 -11772998.728 6      3609.721    22160080.888 6  -8690759.504 6
      2807.552    22160072.062          45.750          37.000
  23982242.550 6   2009871.703 6     -3977.785    23982252.836 5   2961408.158 5
     -3093.847    23982241.708          42.000          34.000
  24141312.260 5   3084151.082 5      3555.859    24141330.716 5   3796893.155 5
      2765.697    24141312.098          33.500          29.750
 11 10  1  0 15 30.0000000  0 19G07G13G10G08G23G04G20G16G02G28G03G32
                                R01R11R12R08R02R10R13
  20575625.299 6   -926195.501 6       206.456    20575625.317 6    367795.064 6
       160.875    20575625.053          53.750          37.000
  20985089.414 6   1225809.177 6      -515.299    20985089.258 5   2044515.918 5
      -401.535    20985088.772          53.500          35.750
  21177585.195 6  14820063.006 6      1691.123    21177585.728 5   2832608.690 5
      1317.761    21177583.852          51.750          35.750
  21823372.820 6 -23729262.480 6      1691.037    21823374.625 5 -19688671.861 5
      1317.666    21823372.200          51.750          35.250
  21851613.348 6   9973701.229 6     -1397.489    21851611.240 5   9787235.536 5
     -1088.955    21851612.901          50.000          33.000
  23236425.624 6  21444908.078 6     -1901.701    23236426.704 5  15457494.925 5
     -1481.774    23236425.043          46.750          28.000
  23409551.605 6  26549261.029 6     -3497.535    23409553.379 5  24555270.572 5
     -2725.445    23409550.861          42.750          25.500
  23512315.699 6  18700590.404 6     -2288.225    23512314.784 5  16587389.452 5
     -1783.100    23512315.648          44.500          27.000
  24050066.594 6 -16222003.034 6       451.794    24050066.933 5 -18959510.360 5
       352.049    24050065.827          39.750          20.750
  24889732.215 5  17550191.405 5      3354.178    24889737.863 5   9644590.95615
      2613.763    24889730.779          36.250           8.000
  25102945.963 5  18670698.938 5      1366.561
                                        35.000
  25691218.771 5  34345310.793 5     -3351.974
                                        28.250
  19335873.860 6  -9884862.683 6       565.757    19335883.945 5  -7688217.409 5
       440.024    19335873.593          49.000          36.250
  20026531.210 6 -14618847.226 6     -2454.893    20026540.429 5  -9040010.007 5
     -1909.357    20026530.715          47.250          35.750
  20152198.680 6 -18179544.292 6      1519.831    20152210.585 6 -12741519.789 6
      1182.094    20152198.105          50.500          39.500
  21249601.696 6  29904574.161 6     -3025.103    21249610.087 5  33977892.613 5
     -2352.869    21249601.858          42.500          36.750
  22139794.289 6 -11881205.135 6      3604.099    22139803.481 5  -8774920.016 5
      2803.180    22139794.364          46.500          36.500
  24004622.731 6   2129180.093 6     -3975.788    24004633.566 5   3054203.515 5
     -3092.256    24004622.501          40.750          31.000
  24121359.480 6   2977609.777 6      3547.130    24121379.021 5   3714027.366 5
      2758.892    24121361.228          38.500          34.500
 11 10  1  0 16  0.0000000  0 19G07G13G10G08G23G04G20G16G02G28G03G32
                                R01R11R12R08R02R10R13
  20574483.704 6   -932194.365 6       193.869    20574483.866 6    363120.632 6
       151.066    20574483.581          53.750          38.500
  20988046.905 6   1241352.478 6      -520.545    20988046.941 6   2056627.572 6
      -405.606    20988046.354          53.000          37.000
  21167972.835 6  14769549.640 6      1676.820    21167973.687 6   2793247.630 6
      1306.590    21167971.531          51.500          37.000
  21813751.800 6 -23779821.355 6      1679.928    21813752.834 5 -19728068.354 5
      1309.036    21813751.143          51.750          36.500
  21859608.603 6  10015716.984 6     -1403.203    21859606.855 5   9819975.085 5
     -1093.425    21859607.871          49.500          34.750
  23247312.072 6  21502113.770 6     -1911.686    23247313.523 5  15502070.771 5
     -1489.657    23247311.838          47.000          29.250
  23429536.900 6  26654281.476 6     -3503.471    23429538.858 5  24637104.577 5
     -2729.962    23429535.221          41.500          25.750
  23525424.148 6  18769475.060 6     -2303.652    23525424.966 5  16641065.802 5
     -1795.102    23525423.632          44.250          27.000
  24047536.766 6 -16235306.815 6       435.525    24047534.985 5 -18969876.977 5
       339.400    24047535.761          43.000          22.250
  24870578.844 6  17449544.043 6      3356.087    24870583.982 5   9566164.25715
      2614.993    24870578.951          37.250           9.750
  25095170.840 5  18629841.607 5      1357.580
                                        34.250
  25710363.116 5  34445923.15215     -3354.906
                                        28.750
  19332758.615 6  -9901513.988 6       544.735    19332768.511 6  -7701168.424 6
       423.674    19332758.852          49.250          38.250
  20040350.764 6 -14544993.809 6     -2468.295    20040361.646 6  -8982568.467 6
     -1919.781    20040351.271          47.500          37.250
  20143717.414 6 -18224848.847 6      1500.876    20143729.375 6 -12776756.636 6
      1167.349    20143717.057          50.750          40.500
  21266594.166 6  29995565.550 6     -3040.619    21266602.030 6  34048663.655 6
     -2364.922    21266593.827          42.750          38.750
  22119546.882 6 -11989250.296 6      3599.271    22119556.868 6  -8858955.134 6
      2799.429    22119546.436          46.750          38.000
  24026990.780 6   2248418.277 6     -3972.936    24027003.126 5   3146944.259 5
     -3090.037    24026991.323          40.750          32.000
  24101456.847 6   2871317.258 6      3539.313    24101474.166 5   3631355.053 5
      2752.773    24101456.859          38.000          33.750
 11 10  1  0 16 30.0000000  0 19G07G13G10G08G23G04G20G16G02G28G03G32
                                R01R11R12R08R02R10R13
  20573415.868 6   -937806.092 6       180.036    20573416.092 5    358747.867 5
       140.281    20573415.796          53.000          36.250
  20991036.838 6   1257062.934 6      -527.096    20991036.586 5   2068869.475 5
      -410.741    20991036.607          53.500          35.000
  21158444.535 6  14719477.064 6      1661.115    21158444.918 5   2754230.030 5
      1294.392    21158443.138          51.500          35.000
  21804196.314 6 -23830036.985 6      1667.555    21804197.411 5 -19767197.387 5
      1299.411    21804195.274          51.750          34.750
  21867638.319 6  10057914.065 6     -1410.173    21867636.676 5   9852855.922 5
     -1098.842    21867637.384          49.750          33.000
  23258256.223 6  21559627.700 6     -1922.787    23258258.412 5  15546886.770 5
     -1498.247    23258255.315          47.500          28.250
  23449556.948 6  26759490.779 6     -3510.709    23449560.473 5  24719085.763 5
     -2735.629    23449556.369          42.500          26.000
  23538621.491 6  18838832.291 6     -2320.320    23538621.956 5  16695110.395 5
     -1807.995    23538622.052          42.750          25.500
  24045100.967 6 -16248105.459 6       417.667    24045099.396 5 -18979849.934 5
       325.475    24045100.343          41.750          21.750
  24851418.658 6  17348846.731 6      3356.756    24851422.867 5   9487698.784 5
      2615.733    24851416.946          38.500          14.000
  25087450.641 5  18589269.080 5      1347.077
                                        36.000
  25729526.632 5  34546621.34715     -3358.496
                                        30.000
  19329763.946 6  -9917523.927 6       522.367    19329773.569 5  -7713620.600 5
       406.285    19329763.634          49.000          36.000
  20054248.767 6 -14470729.047 6     -2482.911    20054259.155 5  -8924806.984 5
     -1931.142    20054248.812          47.250          35.000
  20135345.287 6 -18269574.403 6      1480.660    20135356.433 6 -12811543.159 6
      1151.626    20135344.168          50.750          38.000
  21283674.707 6  30087033.735 6     -3057.486    21283683.664 5  34119805.547 5
     -2378.039    21283674.728          42.250          36.000
  22099328.990 6 -12097138.129 6      3592.977    22099339.168 5  -8942867.896 5
      2794.543    22099327.923          46.250          36.500
  24049347.533 6   2367576.330 6     -3971.213    24049356.635 5   3239622.731 5
     -3088.713    24049346.316          42.250          32.250
  24081596.975 5   2765268.531 5      3530.306    24081614.486 5   3548872.615 5
      2745.805    24081597.857          36.750          32.750
 11 10  1  0 17  0.0000000  0 19G07G13G10G08G23G04G20G16G02G28G03G32
                                R01R11R12R08R02R13R10
  20572423.489 6   -943021.449 6       167.115    20572423.614 6    354683.960 6
       130.225    20572423.282          52.250          38.500
  20994060.541 6   1272951.614 6      -532.717    20994059.918 6   2081250.258 6
      -415.098    20994060.164          53.750          37.500
  21149002.256 6  14669857.739 6      1646.285    21149002.793 5   2715565.630 5
      1282.824    21149000.784          51.750          36.750
  21794707.883 6 -23879898.980 6      1656.010    21794709.064 5 -19806050.851 5
      1290.408    21794706.896          51.500          36.250
  21875704.640 6  10100303.445 6     -1416.317    21875703.525 5   9885886.596 5
     -1103.643    21875704.745          49.750          34.250
  23269260.678 6  21617457.575 6     -1933.033    23269262.663 5  15591948.977 5
     -1506.210    23269260.522          46.250          29.250
  23469616.589 6  26864897.312 6     -3516.860    23469618.013 5  24801220.633 5
     -2740.440    23469615.380          42.750          26.250
  23551911.876 6  18908671.072 6     -2336.083    23551911.510 5  16749530.268 5
     -1820.416    23551911.516          43.000          26.000
  24042763.341 6 -16260389.177 6       400.776    24042762.133 5 -18989421.656 5
       312.391    24042763.236          41.000          21.500
  24832247.389 5  17248112.345 5      3358.310    24832255.282 5   9409204.493 5
      2616.794    24832247.293          35.750          14.000
  25079785.245 5  18548994.631 5      1337.349
                                        35.250
  25748705.840 5  34647413.72015     -3361.430
                                        28.750
  19326890.555 6  -9932879.354 6       500.783    19326901.012 6  -7725563.723 6
       389.509    19326891.254          49.000          38.500
  20068225.560 6 -14396045.966 6     -2496.522    20068235.351 6  -8866720.151 6
     -1941.741    20068224.954          47.500          37.750
  20127081.426 6 -18313710.448 6      1461.217    20127093.952 6 -12845871.176 6
      1136.505    20127081.717          50.750          40.750
  21300846.300 6  30178987.436 6     -3073.390    21300854.862 6  34191325.062 6
     -2390.411    21300846.633          42.500          38.000
  22079142.375 6 -12204854.437 6      3587.511    22079152.589 6  -9026647.240 6
      2790.293    22079142.129          46.000          38.250
  24061786.063 5   2659475.993 5      3521.976    24061801.838 5   3466589.337 5
      2739.430    24061785.377          36.750          32.500
  24071686.643 6   2486662.178 6     -3968.396    24071697.924 5   3332245.049 5
     -3086.513    24071686.157          41.500          33.250
 11 10  1  0 17 30.0000000  0 19G07G13G10G08G23G04G20G16G02G28G03G32
                                R01R11R12R08R02R13R10
  20571505.773 6   -947844.848 6       154.384    20571505.473 6    350925.479 6
       120.308    20571505.338          52.750          38.000
  20997117.144 6   1289015.108 6      -538.297    20997116.470 5   2093767.276 5
      -419.458    20997116.862          53.500          35.750
  21139645.725 6  14620689.923 6      1631.474    21139646.417 5   2677253.051 5
      1271.284    21139644.385          51.500          36.250
  21785285.906 6 -23929410.915 6      1644.641    21785287.369 5 -19844631.543 5
      1281.521    21785285.235          51.500          36.000
  21883807.397 6  10142881.956 6     -1422.341    21883805.185 5   9919064.633 5
     -1108.329    21883806.492          49.250          33.500
  23280324.726 6  21675596.925 6     -1942.992    23280326.971 5  15637252.334 5
     -1514.077    23280324.015          47.000          29.250
  23489711.176 6  26970494.927 6     -3522.925    23489712.651 5  24883504.390 5
     -2745.104    23489708.364          43.000          26.250
  23565293.040 6  18978984.924 6     -2351.657    23565291.952 5  16804320.258 5
     -1832.585    23565292.956          43.500          25.750
  24040522.558 6 -16272161.781 6       384.005    24040522.354 5 -18998595.155 5
       299.263    24040521.952          40.000          20.500
  24813071.122 5  17147339.413 5      3359.873    24813078.386 5   9330680.184 5
      2618.158    24813070.271          36.250          13.000
  25072177.052 5  18509016.963 5      1327.691
                                        33.250
  25767901.698 5  34748294.82415     -3363.770
                                        28.250
  19324140.457 6  -9947581.807 6       479.289    19324150.551 5  -7736998.966 5
       372.788    19324140.886          49.250          36.750
  20082278.214 6 -14320952.137 6     -2509.869    20082288.275 5  -8808313.830 5
     -1952.134    20082277.456          47.500          36.500
  20118929.941 6 -18357260.730 6      1442.005    20118941.375 6 -12879743.596 6
      1121.568    20118929.197          50.750          39.500
  21318108.503 6  30271421.095 6     -3089.018    21318116.237 5  34263217.878 5
     -2402.559    21318107.924          42.250          36.750
  22058988.446 6 -12312399.419 6      3582.093    22058998.402 6  -9110293.324 6
      2786.057    22058987.963          46.000          37.500
  24042022.014 6   2553937.193 6      3513.890    24042037.127 5   3384503.422 5
      2733.048    24042021.904          37.250          33.500
  24094011.687 6   2605670.049 6     -3965.468    24094023.589 5   3424806.688 5
     -3084.266    24094011.603          41.000          33.000
 11 10  1  0 18  0.0000000  0 19G07G13G10G08G23G04G20G16G02G28G03G32
                                R01R11R12R08R02R13R10
  20570661.773 6   -952280.074 6       141.456    20570661.716 6    347469.468 6
       110.223    20570661.323          53.000          37.500
  21000206.098 6   1305250.817 6      -544.043    21000206.557 5   2106418.482 5
      -423.937    21000205.987          52.500          36.500
  21130374.979 6  14571972.964 6      1616.435    21130375.851 5   2639291.785 5
      1259.577    21130373.666          51.250          36.000
  21775930.376 6 -23978575.208 6      1633.094    21775931.278 5 -19882941.346 5
      1272.538    21775929.711          52.250          35.750
  21891945.393 6  10185647.516 6     -1428.593    21891943.051 5   9952388.422 5
     -1113.187    21891944.322          49.000          33.500
  23291445.431 6  21734040.248 6     -1953.016    23291448.435 5  15682792.531 5
     -1521.864    23291445.443          45.750          29.000
  23509839.176 6  27076278.980 6     -3529.171    23509842.300 5  24965933.429 5
     -2749.981    23509838.477          42.500          26.250
  23578761.792 6  19049769.013 6     -2367.260    23578762.466 5  16859476.658 5
     -1844.643    23578761.495          43.500          26.000
  24038379.725 6 -16283426.217 6       367.129    24038378.883 5 -19007372.652 5
       286.166    24038378.613          41.750          21.500
  24793885.829 5  17046527.855 5      3361.152    24793895.090 5   9252125.813 5
      2619.198    24793885.919          35.500          13.250
  25064627.271 5  18469335.966 5      1317.960
                                        35.750
  25787115.750 5  34849257.85215     -3366.925
                                        29.750
  19321512.344 6  -9961632.090 6       457.529    19321521.842 6  -7747926.957 6
       355.846    19321512.305          49.250          37.000
  20096406.428 6 -14245453.830 6     -2523.243    20096416.744 5  -8749592.927 5
     -1962.519    20096405.964          47.250          36.000
  20110886.230 6 -18400227.776 6      1422.523    20110897.727 6 -12913162.383 6
      1106.401    20110885.601          50.250          40.000
  21335457.888 6  30364329.779 6     -3104.882    21335466.141 6  34335480.166 6
     -2414.918    21335457.924          42.250          37.500
  22038867.671 6 -12419772.601 6      3576.273    22038876.986 6  -9193805.792 6
      2781.571    22038866.757          46.750          37.500
  24022307.126 6   2448651.742 6      3505.219    24022323.890 5   3302614.511 5
      2726.288    24022305.831          38.250          34.750
  24116322.859 6   2724594.868 6     -3962.744    24116334.713 5   3517303.770 5
     -3082.132    24116322.709          42.250          32.750
 11 10  1  0 18 30.0000000  0 20G07G13G10G08G23G04G20G16G02G28G03G05
                                G32R01R12R11R08R02R13R10
  20569890.044 6   -956336.041 6       128.838    20569889.733 6    344308.982 6
       100.404    20569889.349          52.250          37.000
  21003327.327 6   1321652.280 6      -549.545    21003327.564 5   2119198.828 5
      -428.209    21003326.970          52.500          35.250
  21121189.407 6  14523701.478 6      1601.549    21121190.150 5   2601677.641 5
      1247.967    21121188.235          51.250          35.250
  21766639.163 6 -24027399.887 6      1621.773    21766640.258 5 -19920986.517 5
      1263.724    21766638.267          51.750          35.500
  21900117.546 6  10228592.940 6     -1434.551    21900115.028 5   9985852.373 5
     -1117.818    21900117.219          49.000          32.000
  23302623.600 6  21792777.238 6     -1962.789    23302625.168 5  15728561.565 5
     -1529.443    23302622.125          45.500          28.250
  23530004.308 6  27182239.787 6     -3535.051    23530006.359 5  25048500.192 5
     -2754.639    23530002.860          42.000          25.250
  23592319.282 6  19121013.752 6     -2382.611    23592319.384 5  16914992.037 5
     -1856.589    23592319.411          42.500          25.750
  24036330.149 6 -16294190.571 6       350.385    24036329.615 5 -19015760.453 5
       273.011    24036330.485          42.000          22.000
  24774696.093 6  16945672.399 6      3362.500    24774703.153 5   9173537.278 5
      2620.032    24774695.406          38.750          16.500
  25057131.908 5  18429946.635 5      1308.100    25057139.426 5  18718681.94015
      1019.438    25057130.451          35.250           6.750
  25800902.591 6  13949834.732 6      3404.095
                                        39.000
  25806343.056 5  34950296.09715     -3369.112
                                        29.250
  19319005.558 6  -9975035.813 6       435.939    19319014.477 6  -7758352.081 6
       339.076    19319005.000          49.000          37.000
  20102950.184 6 -18442619.530 6      1403.464    20102961.744 6 -12946133.721 6
      1091.585    20102949.800          50.500          39.750
  20110608.850 6 -14169562.580 6     -2536.294    20110619.049 5  -8690566.397 5
     -1972.686    20110608.068          47.250          36.000
  21352894.783 6  30457704.099 6     -3120.249    21352903.120 6  34408104.591 6
     -2426.848    21352895.049          41.750          37.000
  22018776.117 6 -12526978.176 6      3570.671    22018786.253 5  -9277187.894 5
      2777.187    22018776.159          46.250          36.750
  24002635.527 5   2343614.228 5      3496.979    24002655.886 5   3220918.584 5
      2719.853    24002634.553          36.000          34.750
  24138614.626 6   2843426.323 6     -3959.471    24138627.988 5   3609728.154 5
     -3079.607    24138614.413          43.000          32.750
 11 10  1  0 19  0.0000000  0 20G07G13G10G08G23G04G20G16G02G28G03G05
                                G32R01R12R11R08R02R13R10
  20569191.204 6   -960007.107 6       115.559    20569191.051 6    341448.426 6
        90.030    20569190.967          52.500          37.000
  21006481.782 6   1338226.741 6      -555.803    21006481.479 5   2132113.989 5
      -433.114    21006481.372          53.250          35.750
  21112090.067 6  14475884.085 6      1585.931    21112090.580 5   2564417.337 5
      1235.802    21112088.769          51.500          35.250
  21757414.438 6 -24075877.635 6      1609.738    21757415.371 5 -19958761.351 5
      1254.342    21757413.515          51.500          35.000
  21908325.723 6  10271725.810 6     -1441.256    21908323.477 5  10019462.393 5
     -1123.056    21908325.105          49.500          33.750
  23313856.710 6  21851811.852 6     -1973.156    23313859.711 5  15774562.525 5
     -1537.608    23313856.950          45.500          28.250
  23550201.134 6  27288382.293 6     -3541.365    23550205.064 5  25131208.538 5
     -2759.614    23550200.558          41.250          25.000
  23605965.625 6  19192723.925 6     -2398.489    23605966.560 5  16970870.104 5
     -1868.904    23605965.190          41.500          26.750
  24034379.378 6 -16304448.566 6       333.103    24034376.965 5 -19023753.721 5
       259.547    24034377.828          42.250          19.750
  24755497.045 6  16844782.521 6      3363.169    24755503.491 5   9094921.881 5
      2620.791    24755496.931          38.750          13.500
  25049691.140 5  18390858.652 5      1297.503
                                        32.500
  25781472.496 6  13847711.16716      3402.485    25781473.347 5   4907521.95715
      2651.407    25781473.356          39.500          21.500
  25825579.908 5  35051416.55915     -3371.939
                                        26.500
  19316620.937 6  -9987783.624 6       413.582    19316630.329 6  -7768267.048 6
       321.657    19316620.079          48.750          37.000
  20095123.380 6 -18484428.774 6      1383.578    20095135.140 6 -12978651.996 6
      1076.110    20095123.161          51.000          39.750
  20124884.814 6 -14093275.164 6     -2549.882    20124894.812 5  -8631231.753 5
     -1983.225    20124884.107          46.500          36.000
  21370420.068 6  30551549.323 6     -3136.393    21370428.031 5  34481095.290 5
     -2439.433    21370419.609          42.500          36.500
  21998719.555 6 -12634005.381 6      3564.203    21998729.206 6  -9360431.266 6
      2772.151    21998719.052          46.000          37.500
  23983012.684 5   2238834.130 5      3488.000    23983033.187 5   3139423.065 5
      2712.920    23983012.678          36.250          34.750
  24160889.409 6   2962169.596 6     -3956.980    24160904.606 5   3702084.000 5
     -3077.622    24160890.204          40.000          33.750
 11 10  1  0 19 30.0000000  0 20G07G13G10G08G23G04G20G16G02G28G03G05
                                G32R01R12R11R08R02R13R10
  20568566.530 6   -963289.718 6       103.197    20568566.491 5    338890.549 5
        80.423    20568566.191          52.500          36.000
  21009669.649 6   1354978.460 6      -561.128    21009669.089 5   2145167.271 5
      -437.234    21009668.807          52.750          34.750
  21103078.186 6  14428526.967 6      1571.109    21103078.899 5   2527515.691 5
      1224.248    21103077.164          51.000          34.500
  21748255.929 6 -24124004.620 6      1598.639    21748257.239 5 -19996262.859 5
      1245.692    21748255.593          51.250          34.750
  21916570.117 6  10315050.722 6     -1447.083    21916568.333 5  10053222.067 5
     -1127.585    21916569.488          49.500          32.750
  23325148.453 6  21911145.464 6     -1982.488    23325150.168 5  15820796.426 5
     -1544.774    23325147.904          45.500          27.750
  23570435.383 6  27394708.342 6     -3547.104    23570437.964 5  25214059.908 5
     -2764.101    23570434.538          41.250          24.500
  23619701.336 6  19264901.415 6     -2413.373    23619700.443 5  17027112.322 5
     -1880.580    23619699.525          43.250          25.500
  24032525.468 6 -16314196.332 6       316.626    24032523.303 5 -19031349.362 5
       246.749    24032524.499          43.250          21.750
  24736292.613 6  16743864.556 6      3364.662    24736300.444 5   9016284.604 5
      2621.997    24736292.979          37.750          15.250
  25042311.278 5  18352078.947 5      1287.773
                                        34.000
  25762051.146 6  13745646.866 6      3401.931    25762051.389 5   4827995.31915
      2650.838    25762051.407          38.250          18.000
  25844840.704 5  35152617.329 5     -3374.386
                                        30.750
  19314358.874 6  -9999869.455 6       392.076    19314369.357 5  -7777667.151 5
       304.945    19314359.269          49.000          36.000
  20087406.638 6 -18525651.576 6      1364.602    20087418.081 6 -13010714.164 6
      1061.356    20087406.146          50.750          39.250
  20139234.113 6 -14016591.001 6     -2562.433    20139245.194 5  -8571588.515 5
     -1993.005    20139234.506          47.000          35.500
  21388034.281 6  30645866.963 6     -3151.618    21388041.419 5  34554453.408 5
     -2451.237    21388033.570          42.500          36.000
  21978697.304 6 -12740846.656 6      3558.502    21978707.950 6  -9443530.041 6
      2767.729    21978697.562          46.500          37.000
  23963440.433 6   2134316.290 6      3479.685    23963458.178 5   3058131.508 5
      2706.428    23963440.502          39.000          33.750
  24183149.086 6   3080825.956 6     -3953.466    24183162.706 5   3794372.231 5
     -3074.953    24183149.347          41.500          30.750
 11 10  1  0 20  0.0000000  0 20G07G13G10G08G23G04G20G16G02G28G03G05
                                G32R01R12R11R08R02R13R10
  20568014.261 6   -966190.503 6        90.329    20568014.483 6    336630.207 6
        70.387    20568014.150          53.250          38.250
  21012890.014 6   1371902.884 6      -567.035    21012889.837 5   2158355.131 5
      -441.831    21012889.642          52.750          36.750
  21094153.577 6  14381626.931 6      1555.689    21094154.192 5   2490970.222 5
      1212.208    21094152.288          50.750          36.500
  21739163.457 6 -24171785.805 6      1586.939    21739164.183 5 -20033494.923 5
      1236.571    21739162.978          51.750          36.500
  21924850.376 6  10358562.923 6     -1453.592    21924848.235 5  10087127.664 5
     -1132.645    21924849.686          49.000          34.250
  23336493.727 6  21970770.139 6     -1992.324    23336495.570 5  15867257.177 5
     -1552.433    23336493.805          46.250          28.500
  23590702.720 6  27501210.411 6     -3553.000    23590704.384 5  25297048.431 5
     -2768.557    23590702.163          41.250          25.250
  23633522.965 6  19337538.417 6     -2428.881    23633522.791 5  17083712.572 5
     -1892.673    23633521.780          43.000          25.000
  24030764.442 6 -16323439.262 6       299.662    24030765.287 5 -19038551.658 5
       233.538    24030764.886          41.750          21.250
  24717083.216 6  16642916.271 6      3365.350    24717088.673 5   8937623.779 5
      2622.473    24717081.924          38.250          14.500
  25034992.390 5  18313604.574 5      1277.494
                                        34.000
  25742636.239 5  13643618.382 5      3400.282    25742637.177 5   4748492.690 5
      2649.569    25742637.477          35.750          15.750
  25864111.912 5  35253830.46615     -3377.280
                                        26.000
  19312221.995 6 -10011296.199 6       369.837    19312231.124 6  -7786554.628 6
       287.642    19312221.650          48.750          37.000
  20079798.517 6 -18566292.823 6      1345.040    20079810.499 6 -13042323.989 6
      1046.142    20079797.764          50.750          40.500
  20153657.914 6 -13939519.095 6     -2575.546    20153668.164 5  -8511643.701 5
     -2003.201    20153657.335          47.250          36.750
  21405733.755 6  30740650.499 6     -3167.225    21405741.693 6  34628173.899 6
     -2463.383    21405733.500          42.750          37.250
  21958709.800 6 -12847503.622 6      3552.101    21958719.486 6  -9526485.449 6
      2762.740    21958709.928          47.000          37.250
  23943917.484 6   2030057.928 6      3470.963    23943934.596 5   2977041.760 5
      2699.635    23943916.668          39.250          33.750
  24205392.365 6   3199388.206 6     -3950.506    24205404.992 5   3886587.291 5
     -3072.622    24205391.204          41.750          33.250
