     2.11           OBSERVATION DATA    G (GPS)             RINEX VERSION / TYPE
teqc  2016Apr1                          20160930 07:51:15UTCPGM / RUN BY / DATE
Linux 2.4.20-8|Pentium IV|gcc|Linux|486/DX+                 COMMENT
teqc  2016Apr1                          20160816 03:09:23UTCCOMMENT
teqc  2010Mar17     gpsops              20111002 00:05:49UTCCOMMENT
Linux 2.4.21-27.ELsmp|Opteron|gcc -static|Linux x86_64|=+   COMMENT
     2.10           OBSERVATION DATA    GPS                 COMMENT
soc2rnx ver 1.20    gpsops               2-Oct-2011 00:05:47COMMENT
S1, if present, is the SNR for the C/A data stream on L1.   COMMENT
 SNR is mapped to RINEX snr flag value [1,4-9]              COMMENT
    SNR:   >316  >100  >31.6  >10  >3.2    >0 bad=0         COMMENT
L1 & L2:      9     8     7     6     5     4     1         COMMENT
                                                            COMMENT
This data is provided as a public service by NASA/JPL.      COMMENT
No warranty is expressed or implied regarding suitability   COMMENT
for use.  For further information, contact:                 COMMENT
Dave Stowers, NASA/JPL m/s 238-600                          COMMENT
4800 Oak Grove Drive, Pasadena CA 91109 USA                 COMMENT
                                                            COMMENT
Forced Modulo Decimation to 30 seconds                      COMMENT
CRO1                                                        MARKER NAME
43201M001                                                   MARKER NUMBER
GGN                 NATIONAL RADIO ASTRONOMY OBSERVATORY    OBSERVER / AGENCY
IR2200722005        ASHTECH UZ-12       CQ00                REC # / TYPE / VERS
CR5200404026        ASH701945G_M    JPLA                    ANT # / TYPE
  2607771.2183 -5488076.6919  1932767.7873                  APPROX POSITION XYZ
        0.0814        0.0000        0.0000                  ANTENNA: DELTA H/E/N
     1     1                                                WAVELENGTH FACT L1/2
     7    L1    L2    P1    P2    C1    S1    S2            # / TYPES OF OBSERV
    30.0000                                                 INTERVAL
teqc windowed: start @ 2011 Oct  1 00:10:00.000             COMMENT
teqc windowed:  end  @ 2011 Oct  1 00:20:00.000             COMMENT
  2011    10     1     0    10    0.0000000     GPS         TIME OF FIRST OBS
                                                            END OF HEADER
 11 10  1  0 10  0.0000000  0  7G26G05G15G02G04G10G29
 107830972.16347  84024114.27947  20519565.2994   20519570.1144   20519565.1274
        56.000          51.000
 113633294.33347  88545411.61547  21623706.0124   21623710.0054   21623705.5794
        55.000          49.000
 117314276.17047  91413696.79747  22324182.7784   22324189.2394   22324182.6224
        50.000          45.000
 110632766.39747  86207331.75447  21052732.5084   21052734.9094   21052732.6984
        56.000          50.000
 122445366.50747  95411947.81747  23300596.5894   23300603.1134   23300596.3524
        50.000          43.000
 127301740.66047  99196153.49447  24224722.4134   24224726.5334   24224723.4624
        45.000          39.000
 126064542.74047  98232090.42347  23989298.9784   23989304.6804   23989299.2664
        46.000          43.000
 11 10  1  0 10 30.0000000  0  7G26G05G15G02G04G10G29
 107775049.17147  83980537.95947  20508923.7984   20508928.3284   20508923.9584
        56.000          51.000
 113663515.89847  88568960.88347  21629456.9804   21629460.8604   21629456.6524
        55.000          49.000
 117223740.71147  91343149.79747  22306954.6864   22306960.6664   22306954.4544
        50.000          45.000
 110614200.96347  86192865.17147  21049199.6924   21049202.0064   21049199.8764
        56.000          50.000
 122491233.27247  95447688.03647  23309324.8554   23309331.9504   23309324.7874
        50.000          43.000
 127376343.11747  99254285.27447  24238917.8824   24238921.9464   24238918.5874
        45.000          38.000
 125972283.51147  98160200.20847  23971742.6514   23971748.2484   23971741.5374
        47.000          43.000
 11 10  1  0 11  0.0000000  0  7G26G05G15G02G04G10G29
 107719703.59047  83937411.56247  20498391.9514   20498396.3844   20498391.9604
        57.000          51.000
 113693832.34847  88592584.08947  21635226.0074   21635229.7634   21635225.5574
        54.000          49.000
 117133521.72447  91272849.40947  22289786.6434   22289792.3554   22289786.1614
        51.000          45.000
 110595869.17347  86178580.64547  21045711.2954   21045713.3464   21045711.5474
        56.000          50.000
 122537310.92447  95483592.59147  23318092.9994   23318099.7494   23318093.2274
        49.000          42.000
 127450830.83347  99312327.67947  24253092.1644   24253096.8264   24253093.1934
        45.000          38.000
 125880265.39147  98088497.87947  23954232.3764   23954237.6744   23954232.7264
        47.000          43.000
 11 10  1  0 11 30.0000000  0  7G26G05G15G02G04G10G29
 107664937.92547  83894737.05847  20487970.2114   20487974.8674   20487970.2324
        56.000          51.000
 113724241.93847  88616279.86947  21641012.8574   21641016.6914   21641012.4774
        54.000          49.000
 117043621.96747  91202797.76847  22272679.0824   22272684.5584   22272678.8404
        50.000          45.000
 110577773.45947  86164480.07047  21042267.9704   21042269.9864   21042268.2464
        56.000          50.000
 122583599.97647  95519661.89147  23326901.3704   23326909.1884   23326900.9664
        49.000          42.000
 127525202.76247  99370279.84447  24267244.6854   24267249.1184   24267245.3454
        45.000          39.000
 125788490.94947  98016985.41847  23936768.4434   23936773.2014   23936768.0174
        48.000          43.000
 11 10  1  0 12  0.0000000  0  7G26G05G15G02G04G10G29
 107610754.20147  83852516.01247  20477659.3344   20477664.1304   20477659.2614
        56.000          51.000
 113754742.97847  88640046.90247  21646816.8554   21646820.7624   21646816.3964
        54.000          49.000
 116954043.92047  91132996.79547  22255632.5334   22255638.3614   22255632.0734
        50.000          45.000
 110559915.52547  86150564.77747  21038869.7144   21038872.0554   21038869.9224
        56.000          50.000
 122630100.85247  95555896.21847  23335750.4704   23335758.0884   23335750.1114
        50.000          43.000
 127599458.55347  99428141.52147  24281376.0984   24281380.3884   24281376.7754
        47.000          39.000
 125696962.75647  97945664.83947  23919351.1214   23919355.9644   23919351.3284
        48.000          43.000
 11 10  1  0 12 30.0000000  0  7G26G05G15G02G04G10G29
 107557154.39947  83810749.97947  20467459.5004   20467464.2824   20467459.3794
        56.000          51.000
 113785333.85647  88663883.94347  21652638.1314   21652642.1594   21652637.5964
        55.000          49.000
 116864789.90747  91063448.31847  22238647.9134   22238653.7234   22238647.6164
        51.000          45.000
 110542297.20247  86136836.20647  21035516.8934   21035519.3744   21035517.2094
        56.000          50.000
 122676814.30547  95592296.20247  23344640.4474   23344647.4224   23344640.2204
        49.000          43.000
 127673597.20547  99485911.90047  24295485.1714   24295489.3604   24295486.0004
        47.000          39.000
 125605683.21547  97874538.00747  23901981.0134   23901985.7644   23901981.0254
        47.000          42.000
 11 10  1  0 13  0.0000000  0  7G26G05G15G02G04G10G29
 107504140.96947  83769440.85147  20457371.3594   20457376.0784   20457371.4784
        56.000          51.000
 113816013.29047  88687789.98747  21658476.5204   21658480.3394   21658476.1854
        55.000          50.000
 116775862.17247  90994154.09047  22221725.8214   22221731.3734   22221725.4824
        51.000          46.000
 110524920.56447  86123295.95647  21032210.2734   21032212.5174   21032210.4374
        56.000          50.000
 122723740.69547  95628862.13247  23353570.6114   23353577.0884   23353570.5984
        50.000          43.000
 127747618.52647  99543590.87547  24309570.3924   24309574.9914   24309571.2514
        46.000          39.000
 125514654.96747  97803606.98947  23884658.6294   23884663.5684   23884657.9974
        47.000          42.000
 11 10  1  0 13 30.0000000  0  7G26G05G15G02G04G10G29
 107451715.64547  83728589.98847  20447394.9344   20447399.7004   20447394.7834
        56.000          51.000
 113846779.45247  88711763.61647  21664331.3494   21664335.0524   21664330.8844
        55.000          50.000
 116687263.37347  90925116.17547  22204865.8814   22204871.8534   22204865.9214
        51.000          46.000
 110507787.64747  86109945.61947  21028950.0404   21028952.2964   21028950.3134
        56.000          50.000
 122770880.84547  95665594.59247  23362540.4244   23362547.6704   23362540.2834
        49.000          42.000
 127821521.73647  99601177.81447  24323633.6904   24323637.8944   24323634.5244
        45.000          39.000
 125423880.85647  97732873.99347  23867384.7584   23867389.6194   23867384.3644
        47.000          42.000
 11 10  1  0 14  0.0000000  0  7G26G05G15G02G04G10G29
 107399880.71247  83688199.16947  20437531.3534   20437535.8874   20437531.4204
        56.000          51.000
 113877630.69647  88735803.54047  21670202.3104   21670205.7344   21670201.9644
        55.000          50.000
 116598995.81247  90856336.36547  22188068.9104   22188074.9424   22188068.5234
        52.000          46.000
 110490900.31147  86096786.64147  21025736.7124   21025738.8394   21025737.0384
        56.000          50.000
 122818234.98047  95702493.80247  23371551.8924   23371558.0484   23371551.4294
        50.000          42.000
 127895306.31447  99658672.30747  24337674.2874   24337677.8164   24337675.5014
        44.000          38.000
 125333363.08547  97662340.76247  23850159.7574   23850164.3034   23850159.7624
        48.000          42.000
 11 10  1  0 14 30.0000000  0  7G26G05G15G02G04G10G29
 107348638.13447  83648269.92747  20427780.3114   20427784.8674   20427780.1964
        57.000          51.000
 113908565.60647  88759908.66047  21676088.8274   21676092.4814   21676088.3954
        55.000          50.000
 116511062.10547  90787816.69447  22171335.8764   22171341.2734   22171335.3134
        52.000          46.000
 110474260.55947  86083820.58947  21022569.9114   21022572.1144   21022570.1964
        56.000          50.000
 122865803.89547  95739560.36747  23380604.6434   23380610.5964   23380604.5734
        50.000          42.000
 127968971.85347  99716074.03347  24351691.2804   24351696.0444   24351692.2004
        44.000          38.000
 125243104.22647  97592009.25047  23832984.5354   23832988.7544   23832984.2404
        48.000          42.000
 11 10  1  0 15  0.0000000  0  7G26G05G15G02G04G10G29
 107297989.75247  83608803.69247  20418142.1074   20418146.7804   20418142.0964
        57.000          51.000
 113939582.66147  88784077.79547  21681990.9214   21681994.8604   21681990.3494
        55.000          49.000
 116423464.40847  90719558.84547  22154666.3144   22154671.6994   22154666.1574
        52.000          46.000
 110457870.29147  86071048.93347  21019450.8364   21019452.9744   21019451.0224
        56.000          50.000
 122913587.79647  95776794.48047  23389697.6384   23389703.2614   23389697.4434
        50.000          42.000
 128042517.48247  99773382.34447  24365685.3864   24365691.3334   24365686.5304
        43.000          37.000
 125153107.18347  97521881.75247  23815858.1874   23815862.8304   23815858.0124
        47.000          42.000
 11 10  1  0 15 30.0000000  0  7G26G05G15G02G04G10G29
 107247937.89247  83569802.28247  20408617.4604   20408622.2304   20408617.4534
        57.000          51.000
 113970680.25147  88808309.67947  21687908.6324   21687912.4764   21687908.1494
        55.000          49.000
 116336205.13947  90651564.70847  22138061.1034   22138066.5264   22138060.7414
        52.000          46.000
 110441731.55947  86058473.29547  21016379.8214   21016381.8674   21016380.2344
        56.000          50.000
 122961587.49847  95814196.73547  23398831.6494   23398837.6424   23398831.5554
        49.000          43.000
 128115942.59947  99830596.71947  24379658.1504   24379663.6724   24379659.1014
        43.000          37.000
 125063374.30047  97451960.10047  23798782.5244   23798787.3514   23798781.9004
        47.000          42.000
 11 10  1  0 16  0.0000000  0  7G26G05G15G02G04G10G29
 107198484.40247  83531267.12647  20399206.7624   20399211.4974   20399206.6454
        57.000          51.000
 114001857.39647  88832603.54547  21693841.4944   21693845.0924   21693841.1004
        55.000          49.000
 116249286.74247  90583836.18747  22121520.9404   22121526.4724   22121520.4484
        52.000          46.000
 110425846.21647  86046095.09247  21013356.8684   21013358.9304   21013357.1304
        56.000          50.000
 123009803.38447  95851767.42247  23408007.5614   23408013.3414   23408007.4764
        50.000          43.000
 128189246.82447  99887716.90547  24393608.1074   24393613.1234   24393608.9504
        44.000          38.000
 124973908.05247  97382246.18847  23781757.9044   23781762.3894   23781757.7154
        48.000          42.000
 11 10  1  0 16 30.0000000  0  7G26G05G15G02G04G10G29
 107149631.11847  83493199.66447  20389910.2254   20389914.9194   20389910.2474
        57.000          51.000
 114033111.72147  88856957.54947  21699788.9784   21699792.5834   21699788.8494
        54.000          49.000
 116162711.58347  90516375.12347  22105046.3784   22105051.9344   22105045.9664
        52.000          46.000
 110410216.32347  86033915.93547  21010382.5544   21010384.8304   21010382.7674
        56.000          50.000
 123058236.01947  95889507.04347  23417223.7904   23417230.2434   23417223.4104
        49.000          42.000
 128262429.84047  99944742.65547  24407534.7044   24407540.2954   24407535.8024
        44.000          38.000
 124884711.02447  97312742.05947  23764784.1234   23764788.9914   23764784.2324
        47.000          42.000
 11 10  1  0 17  0.0000000  0  7G26G05G15G02G04G10G29
 107101380.07647  83455601.48547  20380728.2164   20380732.9614   20380728.2384
        57.000          51.000
 114064442.08347  88881370.81947  21705750.7304   21705754.6284   21705750.4474
        54.000          49.000
 116076482.11847  90449183.42947  22088637.4534   22088642.9984   22088637.2454
        52.000          46.000
 110394843.51547  86021937.11247  21007457.1044   21007459.5784   21007457.2834
        56.000          50.000
 123106885.92447  95927415.95047  23426481.5064   23426487.7244   23426481.0294
        50.000          42.000
 128335491.11147 100001673.49647  24421437.4714   24421443.5684   24421438.5864
        43.000          38.000
 124795785.82147  97243449.74747  23747862.2184   23747867.3014   23747861.9564
        48.000          43.000
 11 10  1  0 17 30.0000000  0  7G26G05G15G02G04G10G29
 107053733.01347  83418473.93547  20371661.2354   20371666.1134   20371661.3004
        57.000          51.000
 114095847.12247  88905842.27747  21711726.5954   21711731.0714   21711726.1334
        54.000          49.000
 115990600.59647  90382262.85547  22072294.6194   22072300.0604   22072294.0054
        52.000          46.000
 110379729.89547  86010160.24447  21004581.3134   21004583.6294   21004581.5384
        56.000          50.000
 123155753.60047  95965494.52447  23435780.7854   23435786.9814   23435780.7344
        50.000          42.000
 128408429.98447 100058508.98947  24435316.5384   24435323.9854   24435317.2574
        42.000          38.000
 124707135.22847  97174371.39547  23730992.4814   23730997.4604   23730991.6164
        48.000          43.000
 11 10  1  0 18  0.0000000  0  7G26G05G15G02G04G10G29
 107006691.91447  83381818.56447  20362709.8104   20362714.3324   20362709.8874
        57.000          51.000
 114127324.92447  88930370.43747  21717716.7994   21717721.1194   21717716.5404
        54.000          49.000
 115905069.16947  90315615.07847  22056018.3744   22056023.9994   22056017.8834
        52.000          47.000
 110364877.51347  85998586.93947  21001755.2084   21001757.4334   21001755.4614
        56.000          50.000
 123204839.43847  96003743.10747  23445121.4744   23445127.3714   23445121.2094
        49.000          42.000
 128481245.95047 100115248.68947  24449173.4094   24449179.7194   24449173.8794
        43.000          38.000
 124618761.44747  97105508.73347  23714175.4004   23714180.1234   23714175.7894
        48.000          43.000
 11 10  1  0 18 30.0000000  0  7G26G05G15G02G04G10G29
 106960258.64447  83345636.81647  20353873.6824   20353878.2264   20353873.5744
        57.000          51.000
 114158874.15847  88954954.25347  21723720.5564   21723724.6064   21723720.0684
        55.000          49.000
 115819890.27747  90249242.01847  22039809.3844   22039814.9594   22039809.0084
        52.000          47.000
 110350288.27047  85987218.67847  20998978.9944   20998981.3084   20998979.3714
        56.000          50.000
 123254144.01947  96042162.12647  23454503.9434   23454509.9434   23454503.3344
        49.000          42.000
 128553938.83147 100171892.49547  24463006.8814   24463013.3644   24463007.7244
        44.000          38.000
 124530666.97847  97036863.72147  23697411.7774   23697416.4294   23697411.6484
        47.000          42.000
 11 10  1  0 19  0.0000000  0  7G26G05G15G02G04G10G29
 106914434.90147  83309930.03547  20345153.7444   20345158.2534   20345153.5914
        57.000          51.000
 114190493.73147  88979592.87047  21729737.8824   21729741.5164   21729737.6844
        55.000          49.000
 115735066.53347  90183145.68947  22023667.8454   22023673.3124   22023667.2544
        52.000          47.000
 110335963.77547  85976056.69947  20996252.7424   20996255.8264   20996252.9364
        56.000          50.000
 123303667.63247  96080751.83447  23463927.8224   23463934.4504   23463927.2544
        50.000          42.000
 128626507.82447 100228439.78947  24476816.8084   24476823.5724   24476817.3174
        45.000          39.000
 124442854.68447  96968438.58247  23680701.4794   23680706.2094   23680701.9264
        47.000          42.000
 11 10  1  0 19 30.0000000  0  7G26G05G15G02G04G10G29
 106869222.46247  83274699.59947  20336550.0844   20336554.7894   20336550.1794
        57.000          51.000
 114222181.55147  89004284.66447  21735767.6854   21735771.2064   21735767.3854
        54.000          49.000
 115650600.00947  90117327.71347  22007594.1974   22007599.8794   22007593.6994
        53.000          47.000
 110321906.28647  85965102.78147  20993577.8574   20993580.8094   20993578.1134
        56.000          50.000
 123353410.83247  96119512.64347  23473393.6604   23473399.7094   23473393.7684
        49.000          42.000
 128698952.56747 100284890.25547  24490602.5264   24490609.9054   24490603.6624
        44.000          39.000
 124355326.75547  96900235.02347  23664045.2464   23664050.1964   23664045.3484
        48.000          42.000
 11 10  1  0 20  0.0000000  0  7G26G05G15G02G04G10G29
 106824623.24647  83239946.99447  20328063.0214   20328067.7884   20328062.9984
        57.000          51.000
 114253936.48447  89029028.75047  21741810.1674   21741814.1564   21741809.6954
        54.000          49.000
 115566493.39947  90051790.19747  21991589.2754   21991594.9424   21991588.9334
        53.000          47.000
 110308117.74647  85954358.43647  20990954.2264   20990956.8254   20990954.4854
        56.000          50.000
 123403373.98547  96158444.83847  23482901.2654   23482907.6024   23482900.8534
        49.000          42.000
 128771272.44447 100341243.40147  24504364.0984   24504371.6104   24504364.3704
        43.000          38.000
 124268085.96747  96832255.21047  23647443.7544   23647448.8534   23647444.0294
        48.000          43.000
