     2.11           OBSERVATION DATA    M (MIXED)           RINEX VERSION / TYPE
teqc  2016Apr1                          20160930 07:51:16UTCPGM / RUN BY / DATE
Linux 2.4.20-8|Pentium IV|gcc|Linux|486/DX+                 COMMENT
teqc  2016Apr1                          20160816 03:30:28UTCCOMMENT
teqc  2010Oct21                         20111002 00:05:12UTCCOMMENT
Solaris 5.9|UltraSparc IIe|cc SC5.8|=+-|*Sparc              COMMENT
teqc  2010Oct21                         20111001 01:07:14UTCCOMMENT
teqc  2010Oct21                         20111001 00:17:39UTCCOMMENT
teqc  2011Jul26                         20111001 00:16:00UTCCOMMENT
Linux 2.4.20-8|Pentium IV|gcc -static|Linux|486/DX+         COMMENT
BIT 2 OF LLI FLAGS DATA COLLECTED UNDER A/S CONDITION       COMMENT
 SNR is mapped to RINEX snr flag value [0-9]                COMMENT
  L1 & L2: min(max(int(snr_dBHz/6), 0), 9)                  COMMENT
pseudorange smoothing corrections not applied               COMMENT
Forced Modulo Decimation to 30 seconds                      COMMENT
Forced Modulo Decimation to 30 seconds                      COMMENT
teqc.bin edited: all SBAS satellites excluded               COMMENT
MAL2                                                        MARKER NAME
33201M003                                                   MARKER NUMBER
AUTOMATIC           ESA/ESOC                                OBSERVER / AGENCY
340-1777            JPS LEGACY          3.3                 REC # / TYPE / VERS
CR519995009         ASH701945C_M    NONE                    ANT # / TYPE
  4865385.6940  4110717.1890  -331137.6370                  APPROX POSITION XYZ
        0.0000        0.0000        0.0000                  ANTENNA: DELTA H/E/N
     1     1                                                WAVELENGTH FACT L1/2
     7    L1    L2    C1    P2    P1    S1    S2            # / TYPES OF OBSERV
    30.0000                                                 INTERVAL
teqc windowed: start @ 2011 Oct  1 00:10:00.000             COMMENT
teqc windowed:  end  @ 2011 Oct  1 00:20:00.000             COMMENT
  2011    10     1     0    10    0.0000000     GPS         TIME OF FIRST OBS
    15                                                      LEAP SECONDS
                                                            END OF HEADER
 11 10  1  0 10  0.0000000  0 19G20R22G23R08G10R01G28R13G04R23G19G13
                                G11G07G32R11R12R07G17
 110654597.288 8  86224394.05746  21056863.544    21056866.045    21056862.822
        50.000          41.0004
 124603219.453 6  96913643.808 6  23342377.963    23342384.893    23342377.282
        41.000          40.000
 123327248.922 6  96099220.51644  23468358.801    23468361.533    23468358.017
        41.000          25.0004
 106892773.731 8  83138864.942 7  19961466.122    19961468.383    19961465.742
        49.000          47.000
 127120332.606 6  99054815.53143  24190191.778    24190195.294    24190190.629
        39.000          20.0004
 115128974.449 7  89544784.028 6  21537253.201    21537258.441    21537253.470
        45.000          39.000
 116011947.764 8  90398950.91745  22076330.939    22076334.094    22076330.339
        48.000          34.0004
 120456284.901 7  93688245.294 7  22557581.487    22557587.981    22557581.376
        45.000          42.000
 124400189.003 6  96935214.29544  23672565.939    23672571.368    23672566.042
        41.000          26.0004
 127187310.380 6  98923459.040 6  23776313.742    23776320.719    23776313.782
        39.000          38.000
 129762748.450 6 101113880.28242  24692999.571    24693001.791    24692997.812
        37.000          17.0004
 124613822.679 7  97101774.57843  23713164.915    23713166.207    23713163.861
        42.000          21.0004
 128069684.079 6  99794577.01243  24370843.648    24370847.823    24370842.582
        40.000          20.0004
 117498121.508 8  91557036.93946  22359114.554    22359117.048    22359114.270
        48.000          36.0004
 119627807.447 7  93216571.45545  22764386.877    22764391.843    22764386.261
        46.000          33.0004
 121815353.371 6  94745324.820 5  22796057.292    22796063.747    22796057.217
        41.000          35.000
 111037223.822 8  86362325.078 7  20786378.564    20786385.962    20786378.151
        51.000          47.000
 118580181.177 7  92229058.225 6  22151766.093    22151766.801    22151765.171
        43.000          37.000
 130620662.986 6 101782344.49043  24856283.776    24856288.629    24856283.840
        39.000          21.0004
 11 10  1  0 10 30.0000000  0 19G20R22G23R08G10R01G28R13G04R23G19G13
                                G11G07G32R11R12R07G17
 110640223.783 8  86213193.91347  21054128.689    21054131.035    21054127.816
        50.000          42.0004
 124535330.114 6  96860841.013 6  23329659.031    23329666.249    23329659.154
        40.000          40.000
 123249530.631 7  96038660.79544  23453570.526    23453571.692    23453570.252
        43.000          26.0004
 106825747.790 8  83086733.660 7  19948949.548    19948951.756    19948949.106
        49.000          47.000
 126971351.316 6  98938726.22643  24161841.600    24161845.410    24161840.968
        39.000          20.0004
 114969151.621 7  89420477.394 6  21507355.376    21507360.030    21507354.683
        45.000          39.000
 115877941.000 7  90294530.10445  22050830.139    22050833.338    22050829.420
        47.000          34.0004
 120360482.725 7  93613732.485 7  22539641.049    22539647.659    22539640.872
        45.000          44.000
 124323466.180 7  96875430.31144  23657965.847    23657971.446    23657966.140
        42.000          25.0004
 127119084.169 6  98870394.234 6  23763560.999    23763566.912    23763560.320
        39.000          39.000
 129719526.448 5 101080200.76743  24684775.109    24684777.815    24684773.261
        35.000          18.0004
 124536974.703 6  97041893.06843  23698541.610    23698543.091    23698541.108
        41.000          21.0004
 128066115.138 6  99791796.03343  24370165.927    24370168.652    24370165.656
        41.000          21.0004
 117498895.834 7  91557640.30946  22359261.039    22359264.504    22359261.086
        47.000          36.0004
 119632428.417 7  93220172.19245  22765266.695    22765271.230    22765266.077
        45.000          33.0004
 121872028.523 6  94789405.506 5  22806663.509    22806669.285    22806663.806
        41.000          34.000
 111031500.452 8  86357873.570 8  20785307.257    20785314.413    20785306.988
        51.000          48.000
 118610505.411 7  92252643.705 6  22157430.826    22157431.254    22157430.151
        43.000          37.000
 130533958.883 6 101714782.73843  24839784.717    24839788.581    24839784.995
        40.000          20.0004
 11 10  1  0 11  0.0000000  0 19G20R22G23R08G10R01G28R13G04R23G19G13
                                G11G07G32R11R12R07G17
 110626340.958 8  86202376.11346  21051486.521    21051489.225    21051485.816
        51.000          41.0004
 124467224.221 6  96807869.776 6  23316902.106    23316907.573    23316901.281
        41.000          40.000
 123171748.417 7  95978051.26244  23438769.392    23438769.806    23438768.976
        43.000          26.0004
 106759423.045 8  83035147.761 7  19936563.699    19936566.101    19936563.547
        49.000          47.000
 126822427.864 6  98822681.91443  24133502.833    24133506.316    24133501.830
        39.000          20.0004
 114809551.532 7  89296344.004 6  21477498.820    21477503.641    21477498.597
        45.000          39.000
 115744217.089 7  90190329.70645  22025383.046    22025386.418    22025382.279
        47.000          34.0004
 120265269.865 7  93539678.068 7  22521811.577    22521817.253    22521811.155
        45.000          44.000
 124247051.367 7  96815886.29444  23643425.190    23643430.449    23643424.971
        43.000          26.0004
 127050544.792 6  98817085.838 6  23750746.467    23750753.167    23750747.026
        38.000          39.000
 129676371.552 6 101046573.61542  24676562.525    24676563.396    24676561.204
        36.000          17.0004
 124459926.842 6  96981855.79643  23683878.637    23683881.437    23683878.744
        41.000          21.0004
 128062362.909 6  99788872.20843  24369451.380    24369454.269    24369451.080
        40.000          21.0004
 117499776.772 7  91558326.75846  22359428.544    22359431.813    22359428.689
        47.000          36.0004
 119637465.192 7  93224096.93345  22766225.050    22766229.611    22766223.958
        45.000          33.0004
 121928628.093 6  94833427.371 5  22817255.784    22817260.749    22817255.536
        41.000          34.000
 111026248.911 8  86353789.045 8  20784323.841    20784331.478    20784323.309
        51.000          48.000
 118641354.251 7  92276637.242 6  22163194.350    22163195.134    22163192.978
        43.000          37.000
 130447057.430 6 101647067.10043  24823246.987    24823252.475    24823248.260
        39.000          20.0004
 11 10  1  0 11 30.0000000  0 19G20R22G23R08G10R01G28R13G04R23G19G13
                                G11G07G32R11R12R07G17
 110612941.947 8  86191935.31546  21048936.814    21048939.263    21048936.091
        51.000          41.0004
 124398897.351 6  96754726.687 6  23304102.398    23304107.578    23304101.296
        41.000          39.000
 123093898.572 7  95917389.05144  23423954.564    23423956.206    23423953.738
        42.000          26.0004
 106693795.556 8  82984104.170 7  19924308.282    19924310.624    19924308.033
        49.000          47.000
 126673558.542 6  98706679.78643  24105173.067    24105177.467    24105172.319
        39.000          20.0004
 114650172.445 7  89172382.506 6  21447684.366    21447688.595    21447683.578
        46.000          39.000
 115610772.987 7  90086347.34345  21999988.933    21999992.534    21999988.550
        46.000          33.0004
 120170640.325 7  93466077.326 7  22504089.692    22504095.679    22504089.546
        45.000          43.000
 124170937.570 7  96756576.84644  23628942.086    23628946.235    23628941.137
        43.000          26.0004
 126981685.783 6  98763528.875 6  23737874.575    23737881.498    23737873.861
        38.000          40.000
 129633279.661 6 101012995.44642  24668361.103    24668365.783    24668359.294
        36.000          17.0004
 124382674.364 6  96921659.07943  23669177.598    23669180.772    23669177.310
        40.000          20.0004
 128058421.125 6  99785800.70843  24368701.107    24368704.311    24368700.040
        40.000          21.0004
 117500755.352 7  91559089.29345  22359614.916    22359617.782    22359614.902
        47.000          35.0004
 119642910.488 7  93228339.99045  22767261.204    22767265.205    22767260.380
        45.000          32.0004
 121985142.264 6  94877382.846 5  22827832.178    22827836.336    22827830.921
        40.000          34.000
 111021459.478 8  86350063.927 8  20783427.274    20783435.208    20783426.910
        51.000          48.000
 118672718.587 7  92301031.708 6  22169052.328    22169053.522    22169050.880
        42.000          37.000
 130359952.837 6 101579193.28443  24806673.257    24806676.756    24806672.728
        39.000          20.0004
 11 10  1  0 12  0.0000000  0 19G20R22G23R08G10R01G28R13G04R23G19G13
                                G11G07G32R11R12R07G17
 110600029.719 8  86181873.84346  21046480.308    21046482.210    21046479.211
        50.000          41.0004
 124330355.143 6  96701416.096 6  23291262.613    23291268.005    23291260.798
        41.000          40.000
 123015986.919 7  95856678.67444  23409129.303    23409129.912    23409128.324
        43.000          26.0004
 106628871.586 8  82933607.758 8  19912184.230    19912186.527    19912183.743
        49.000          48.000
 126524749.805 6  98590724.86243  24076856.564    24076861.854    24076855.924
        39.000          21.0004
 114491022.941 7  89048599.575 6  21417911.220    21417916.564    21417911.414
        46.000          39.000
 115477615.489 7  89982588.29945  21974650.495    21974653.322    21974649.742
        47.000          33.0004
 120076598.571 7  93392933.782 7  22486478.533    22486485.435    22486477.885
        44.000          43.000
 124095127.598 7  96697504.15744  23614513.862    23614520.118    23614514.716
        43.000          25.0004
 126912511.039 6  98709726.345 6  23724942.055    23724949.774    23724942.122
        38.000          40.000
 129590256.333 6 100979470.81842  24660176.387    24660175.314    24660174.849
        38.000          17.0004
 124305222.119 6  96861306.70443  23654438.866    23654442.311    23654438.585
        39.000          20.0004
 128054293.379 6  99782584.29043  24367915.357    24367918.584    24367914.986
        39.000          21.0004
 117501833.319 8  91559929.25146  22359820.654    22359822.884    22359820.403
        48.000          36.0004
 119648767.085 7  93232903.54845  22768375.955    22768380.206    22768374.960
        46.000          32.0004
 122041571.353 6  94921272.170 5  22838391.932    22838396.735    22838390.539
        39.000          34.000
 111017132.409 8  86346698.435 7  20782617.374    20782624.635    20782617.015
        51.000          47.000
 118704601.381 6  92325829.394 6  22175008.825    22175010.086    22175007.282
        41.000          38.000
 130272648.357 6 101511163.75843  24790058.036    24790062.924    24790058.877
        38.000          20.0004
 11 10  1  0 12 30.0000000  0 19G20R22G23R08G10R01G28R13G04R23G19G13
                                G11G07G32R11R12R07G17
 110587605.232 8  86172192.42446  21044115.688    21044118.011    21044114.705
        51.000          41.0004
 124261601.559 7  96647941.067 6  23278384.130    23278387.933    23278382.555
        43.000          40.000
 122938017.459 7  95795923.22144  23394291.814    23394292.646    23394291.574
        44.000          27.0004
 106564654.551 8  82883661.180 7  19900192.323    19900194.573    19900191.696
        49.000          47.000
 126376005.997 6  98474820.55243  24048552.314    24048556.015    24048550.917
        40.000          21.0004
 114332109.078 7  88924999.934 6  21388183.315    21388187.984    21388183.010
        46.000          40.000
 115344748.950 7  89879055.95045  21949367.215    21949369.738    21949366.339
        47.000          34.0004
 119983146.835 7  93320249.039 7  22468978.757    22468984.306    22468977.715
        44.000          43.000
 124019622.852 7  96638669.30044  23600146.046    23600152.278    23600146.833
        42.000          26.0004
 126843022.168 6  98655679.487 6  23711954.101    23711959.287    23711952.983
        39.000          40.000
 129547305.601 6 100946002.70642  24652002.821    24652003.929    24651999.420
        38.000          16.0004
 124227573.458 6  96800801.28543  23639663.481    23639665.707    23639663.508
        41.000          21.0004
 128049981.202 6  99779224.15643  24367095.665    24367098.637    24367095.051
        41.000          21.0004
 117503010.080 8  91560846.21046  22360044.451    22360047.095    22360044.150
        48.000          36.0004
 119655035.738 7  93237788.19145  22769568.748    22769572.885    22769568.028
        46.000          32.0004
 122097914.075 6  94965094.298 5  22848935.071    22848940.809    22848934.693
        40.000          34.000
 111013266.292 8  86343691.456 7  20781893.377    20781900.842    20781893.063
        51.000          47.000
 118737000.787 6  92351028.906 6  22181061.146    22181062.617    22181060.018
        41.000          37.000
 130185145.365 6 101442979.46243  24773409.732    24773412.239    24773407.983
        39.000          19.0004
 11 10  1  0 13  0.0000000  0 19G20R22G23R08G10R01G28R13G04R23G19G13
                                G11G07G32R11R12R07G17
 110575666.460 8  86162889.46746  21041843.828    21041845.968    21041842.973
        50.000          41.0004
 124192637.577 6  96594302.452 6  23265461.848    23265468.331    23265461.343
        40.000          40.000
 122859991.523 7  95735123.79944  23379443.064    23379444.897    23379443.517
        43.000          27.0004
 106501145.208 8  82834265.027 7  19888332.703    19888334.196    19888332.280
        49.000          47.000
 126227328.946 6  98358968.27943  24020260.579    24020262.253    24020258.717
        40.000          21.0004
 114173434.709 7  88801586.552 6  21358500.481    21358504.213    21358500.081
        46.000          40.000
 115212175.632 8  89775752.08645  21924139.300    21924141.940    21924138.573
        48.000          34.0004
 119890284.749 7  93248022.922 7  22451588.470    22451594.706    22451588.333
        46.000          44.000
 123944421.165 7  96580070.58844  23585836.557    23585841.571    23585836.461
        43.000          26.0004
 126773217.829 6  98601387.250 6  23698903.681    23698910.453    23698903.070
        38.000          40.000
 129504428.254 6 100912591.83642  24643842.577    24643842.730    24643840.529
        38.000          15.0004
 124149728.440 7  96740142.83243  23624850.220    23624853.506    23624850.058
        42.000          21.0004
 128045483.502 6  99775719.44643  24366239.493    24366242.310    24366239.144
        41.000          22.0004
 117504282.116 8  91561837.40446  22360286.642    22360288.873    22360286.122
        48.000          36.0004
 119661714.178 7  93242992.15845  22770839.729    22770843.858    22770838.954
        46.000          32.0004
 122154165.719 6  95008845.594 5  22859462.408    22859467.678    22859461.339
        39.000          34.000
 111009856.462 8  86341039.365 7  20781255.411    20781262.859    20781255.026
        52.000          47.000
 118769913.973 7  92376628.026 6  22187210.257    22187211.509    22187208.865
        42.000          38.000
 130097443.033 6 101374639.94343  24756720.826    24756722.869    24756719.032
        40.000          20.0004
 11 10  1  0 13 30.0000000  0 19G20R22G23R08G10R01G28R13G04R23G19G13
                                G11G07G32R11R12R07G17
 110564215.247 8  86153966.45046  21039664.621    21039666.728    21039663.884
        51.000          41.0004
 124123468.267 7  96540504.108 6  23252505.798    23252510.066    23252505.086
        42.000          39.000
 122781913.877 7  95674284.11244  23364585.836    23364587.390    23364585.137
        43.000          26.0004
 106438348.474 8  82785423.159 8  19876605.437    19876607.772    19876604.999
        49.000          48.000
 126078723.925 6  98243172.07743  23991981.634    23991984.091    23991980.476
        41.000          21.0004
 114015007.131 7  88678365.118 6  21328862.842    21328867.926    21328862.579
        46.000          40.000
 115079901.223 8  89672681.14345  21898968.316    21898970.918    21898967.520
        48.000          34.0004
 119798014.974 7  93176257.492 6  22434308.286    22434315.562    22434307.825
        44.000          41.000
 123869524.904 7  96521709.87944  23571584.100    23571589.036    23571583.657
        42.000          25.0004
 126703100.625 6  98546851.696 6  23685796.133    23685802.958    23685795.530
        38.000          40.000
 129461629.157 6 100879241.86742  24635697.329    24635699.535    24635696.635
        36.000          15.0004
 124071691.302 7  96679334.70543  23610002.425    23610003.232    23610001.385
        42.000          21.0004
 128040802.942 6  99772072.25643  24365349.066    24365351.877    24365349.167
        40.000          23.0004
 117505649.506 7  91562902.89646  22360547.169    22360549.505    22360546.506
        47.000          36.0004
 119668804.137 7  93248516.78345  22772189.110    22772193.114    22772188.155
        46.000          32.0004
 122210325.837 6  95052525.713 5  22869971.266    22869976.833    22869971.537
        40.000          34.000
 111006902.184 8  86338741.587 7  20780701.933    20780709.870    20780701.864
        51.000          47.000
 118803340.667 7  92402626.543 6  22193452.787    22193455.535    22193452.630
        42.000          37.000
 130009543.748 6 101306146.94843  24739992.815    24739995.885    24739992.180
        37.000          20.0004
 11 10  1  0 14  0.0000000  0 19G20R22G23R08G10R01G28R13G04R23G19G13
                                G11G07G32R11R12R07G17
 110553253.758 8  86145425.01846  21037578.696    21037580.883    21037577.688
        50.000          41.0004
 124054098.441 6  96486549.779 6  23239510.635    23239515.299    23239509.235
        41.000          39.000
 122703789.774 7  95613408.17944  23349719.735    23349721.757    23349718.700
        43.000          27.0004
 106376269.182 8  82737139.267 7  19865013.050    19865014.508    19865012.507
        49.000          47.000
 125930196.370 6  98127436.25243  23963718.336    23963721.088    23963716.575
        41.000          22.0004
 113856833.745 7  88555341.372 6  21299273.434    21299278.702    21299273.119
        46.000          40.000
 114947931.553 7  89569847.67445  21873854.791    21873857.838    21873854.351
        47.000          34.0004
 119706341.050 7  93104955.587 7  22417142.384    22417147.230    22417141.525
        45.000          42.000
 123794935.564 7  96463588.30844  23557391.050    23557395.715    23557390.339
        43.000          26.0004
 126632673.398 6  98492075.004 6  23672630.325    23672637.695    23672630.322
        38.000          40.000
 129418913.106 6 100845956.62742  24627570.511    24627571.545    24627569.515
        37.000          17.0004
 123993466.305 7  96618380.17243  23595115.391    23595117.036    23595114.760
        43.000          22.0004
 128035942.049 7  99768284.56743  24364424.731    24364426.804    24364423.994
        42.000          23.0004
 117507112.760 7  91564043.09445  22360824.870    22360827.933    22360824.528
        47.000          35.0004
 119676306.983 7  93254363.13545  22773616.625    22773620.390    22773615.924
        46.000          32.0004
 122266393.657 6  95096134.004 5  22880464.463    22880469.919    22880463.269
        40.000          35.000
 111004402.699 8  86336797.533 8  20780234.356    20780241.944    20780233.850
        51.000          48.000
 118837280.737 7  92429024.362 6  22199794.195    22199796.080    22199793.160
        42.000          37.000
 129921449.787 6 101237502.28743  24723228.588    24723232.814    24723228.833
        39.000          20.0004
 11 10  1  0 14 30.0000000  0 19G20R22G23R08G10R01G28R13G04R23G19G13
                                G11G07G32R11R12R07G17
 110542783.481 8  86137266.35346  21035586.520    21035588.543    21035585.521
        51.000          41.0004
 123984532.507 6  96432442.982 6  23226477.933    23226483.566    23226476.500
        41.000          40.000
 122625623.894 7  95552499.68544  23334845.455    23334846.635    23334844.730
        44.000          27.0004
 106314911.271 8  82689416.473 7  19853554.307    19853556.637    19853554.325
        50.000          47.000
 125781751.479 6  98011764.77843  23935470.687    23935472.816    23935468.974
        41.000          23.0004
 113698921.801 7  88432520.988 6  21269732.570    21269737.510    21269732.283
        46.000          40.000
 114816272.163 7  89467255.97545  21848800.715    21848804.016    21848800.133
        47.000          35.0004
 119615265.410 7  93034118.949 6  22400085.691    22400091.977    22400085.529
        44.000          41.000
 123720655.170 7  96405707.48144  23543255.961    23543260.341    23543255.140
        44.000          26.0004
 126561938.519 6  98437059.025 6  23659407.052    23659413.913    23659407.312
        39.000          40.000
 129376284.247 6 100812739.34342  24619457.446    24619459.836    24619455.762
        38.000          17.0004
 123915057.214 7  96557282.20643  23580194.905    23580196.266    23580194.236
        43.000          21.0004
 128030902.928 6  99764357.99243  24363464.391    24363468.053    24363464.189
        41.000          23.0004
 117508671.979 7  91565258.05745  22361121.809    22361124.625    22361121.288
        45.000          35.0004
 119684224.190 7  93260532.38045  22775123.625    22775127.306    22775122.637
        46.000          32.0004
 122322368.675 6  95139670.128 5  22890937.769    22890943.711    22890938.121
        39.000          35.000
 111002356.919 8  86335206.380 8  20779850.873    20779858.870    20779850.731
        50.000          48.000
 118871734.066 7  92455821.364 6  22206230.698    22206231.517    22206229.956
        42.000          36.000
 129833163.995 6 101168708.32143  24706429.269    24706431.589    24706428.431
        39.000          20.0004
                            4  1
other post-header comments skipped                          COMMENT
 11 10  1  0 15  0.0000000  0 19G20R22G23R08G10R01G28R13G04R23G19G13
                                G11G07G32R11R12R07G17
 110532800.492 8  86129487.40046  21033686.264    21033689.000    21033685.578
        49.000          40.0004
 123914769.620 7  96378182.978 6  23213408.572    23213412.936    23213407.769
        42.000          39.000
 122547415.288 7  95491557.89044  23319963.482    23319963.181    23319962.816
        44.000          27.0004
 106254273.871 8  82642254.069 7  19842231.227    19842232.829    19842230.226
        49.000          47.000
 125633388.835 6  97896157.40943  23907237.863    23907240.803    23907235.933
        41.000          23.0004
 113541272.688 7  88309905.033 6  21240240.790    21240246.151    21240240.202
        46.000          40.000
 114684923.044 7  89364906.04345  21823805.903    21823809.279    21823805.177
        47.000          35.0004
 119524785.662 7  92963745.844 6  22383142.350    22383147.749    22383141.465
        45.000          41.000
 123646679.699 7  96348064.27144  23529178.409    23529183.431    23529178.016
        43.000          27.0004
 126490892.971 6  98381801.432 6  23646125.990    23646132.940    23646125.416
        38.000          39.000
 129333742.265 6 100779589.76043  24611361.823    24611363.971    24611360.650
        36.000          18.0004
 123836462.427 6  96496039.50143  23565237.905    23565239.952    23565237.467
        40.000          22.0004
 128025682.607 6  99760290.21743  24362471.244    24362475.064    24362470.224
        41.000          22.0004
 117510321.678 7  91566543.53045  22361435.523    22361438.467    22361435.465
        47.000          35.0004
 119692551.708 7  93267021.32445  22776708.082    22776712.060    22776707.158
        46.000          32.0004
 122378244.604 6  95183129.180 5  22901395.183    22901399.391    22901394.183
        39.000          34.000
 111000758.401 8  86333963.092 8  20779552.425    20779560.152    20779551.949
        51.000          48.000
 118906695.360 7  92483013.470 6  22212761.967    22212762.533    22212761.239
        42.000          36.000
 129744683.042 6 101099762.33443  24689590.250    24689594.220    24689590.105
        37.000          19.0004
 11 10  1  0 15 30.0000000  0 19G20R22G23R08G10R01G28R13G04R23G19G13
                                G11G07G32R11R12R07G17
 110523304.824 8  86122088.16646  21031879.545    21031882.036    21031878.478
        50.000          41.0004
 123844812.958 7  96323772.257 6  23200303.256    23200309.028    23200302.270
        42.000          41.000
 122469167.303 7  95430585.45344  23305071.954    23305072.752    23305071.935
        43.000          26.0004
 106194359.500 8  82595654.036 7  19831042.080    19831044.071    19831041.680
        49.000          47.000
 125485111.868 6  97780616.82643  23879021.168    23879025.024    23879019.303
        41.000          23.0004
 113383891.991 7  88187497.831 6  21210799.946    21210804.893    21210799.456
        46.000          40.000
 114553887.832 8  89262800.71445  21798870.876    21798874.057    21798870.339
        48.000          35.0004
 119434902.635 7  92893836.831 7  22366310.385    22366316.066    22366309.508
        46.000          44.000
 123573009.499 7  96290658.94644  23515159.930    23515164.299    23515159.247
        44.000          26.0004
 126419537.750 6  98326302.973 6  23632787.045    23632793.585    23632786.338
        38.000          38.000
 129291289.738 6 100746509.89342  24603284.987    24603284.543    24603282.831
        38.000          17.0004
 123757683.964 7  96434653.68043  23550246.711    23550248.971    23550246.088
        42.000          22.0004
 128020281.839 6  99756081.85543  24361442.845    24361446.755    24361442.599
        39.000          22.0004
 117512060.209 8  91567898.22346  22361766.672    22361769.210    22361766.281
        48.000          36.0004
 119701289.168 7  93273829.71345  22778370.916    22778374.867    22778370.040
        45.000          32.0004
 122434018.914 6  95226509.207 5  22911831.994    22911837.641    22911831.384
        39.000          34.000
 110999604.520 8  86333065.624 7  20779336.168    20779343.699    20779335.947
        51.000          47.000
 118942163.223 7  92510599.574 6  22219386.860    22219387.999    22219386.659
        42.000          37.000
 129656007.546 6 101030664.74943  24672717.738    24672720.279    24672716.457
        40.000          20.0004
 11 10  1  0 16  0.0000000  0 19G20R22G23R08G10R01G28R13G04R23G19G13
                                G11G07G32R11R12R07G17
 110514291.804 8  86115065.01746  21030164.360    21030166.826    21030163.491
        50.000          41.0004
 123774660.830 7  96269209.517 6  23187162.926    23187166.952    23187161.357
        43.000          41.000
 122390878.516 7  95369581.20144  23290175.554    23290176.230    23290174.690
        43.000          27.0004
 106135165.999 8  82549614.661 7  19819988.206    19819990.237    19819987.921
        49.000          47.000
 125336919.772 6  97665142.40344  23850821.206    23850825.395    23850819.583
        41.000          24.0004
 113226780.696 7  88065300.165 6  21181409.074    21181413.603    21181408.691
        47.000          40.000
 114423165.937 8  89160939.52045  21773995.618    21773998.400    21773994.881
        48.000          35.0004
 119345613.186 7  92824389.450 6  22349589.425    22349595.095    22349588.837
        44.000          40.000
 123499639.772 7  96233487.76244  23501197.615    23501202.152    23501196.959
        44.000          26.0004
 126347869.000 6  98270560.632 6  23619387.560    23619395.322    23619388.177
        38.000          38.000
 129248925.003 6 100713498.39842  24595222.527    24595223.406    24595220.648
        36.000          17.0004
 123678720.134 7  96373123.42743  23535220.641    23535223.077    23535219.608
        42.000          23.0004
 128014696.879 7  99751729.94143  24360381.092    24360383.564    24360380.644
        42.000          22.0004
 117513881.852 7  91569317.66745  22362113.063    22362115.913    22362112.821
        47.000          35.0004
 119710431.662 7  93280953.71545  22780110.538    22780114.794    22780109.252
        45.000          31.0004
 122489684.702 6  95269804.842 5  22922248.102    22922255.198    22922248.280
        40.000          34.000
 110998887.717 8  86332508.103 7  20779202.127    20779209.219    20779201.713
        51.000          47.000
 118978130.854 7  92538574.374 6  22226105.961    22226107.743    22226105.441
        42.000          37.000
 129567133.768 6 100961412.61843  24655804.507    24655808.349    24655803.252
        39.000          21.0004
 11 10  1  0 16 30.0000000  0 19G20R22G23R08G10R01G28R13G04R23G19G13
                                G11G07G32R11R12R07G17
 110505761.152 8  86108417.74146  21028541.372    21028543.497    21028540.344
        50.000          41.0004
 123704316.081 6  96214496.976 6  23173983.233    23173989.579    23173982.212
        41.000          41.000
 122312551.870 7  95308547.45044  23275269.421    23275270.875    23275269.079
        43.000          27.0004
 106076695.964 8  82504137.986 7  19809069.320    19809071.009    19809069.025
        49.000          47.000
 125188815.895 6  97549736.66844  23822637.422    23822641.684    23822636.623
        41.000          24.0004
 113069943.789 7  87943315.912 6  21152068.886    21152073.707    21152069.093
        46.000          40.000
 114292761.174 8  89059325.44445  21749180.540    21749183.003    21749179.606
        49.000          35.0004
 119256917.942 7  92755404.304 7  22332979.967    22332984.910    22332979.081
        44.000          42.000
 123426570.574 7  96176550.77144  23487293.000    23487297.982    23487292.343
        43.000          26.0004
 126275887.542 6  98214575.066 6  23605933.330    23605939.138    23605932.566
        39.000          38.000
 129206650.719 6 100680557.38142  24587177.593    24587178.419    24587175.668
        36.000          16.0004
 123599572.774 6  96311450.18843  23520158.723    23520161.886    23520158.250
        41.000          22.0004
 128008928.104 6  99747234.78343  24359282.687    24359286.343    24359282.313
        40.000          22.0004
 117515784.643 7  91570800.35545  22362474.980    22362478.084    22362474.701
        47.000          35.0004
 119719978.577 7  93288392.84345  22781927.305    22781931.371    22781926.453
        44.000          31.0004
 122545239.184 6  95313013.906 5  22932645.177    22932651.084    22932645.086
        40.000          33.000
 110998605.441 8  86332288.552 7  20779148.105    20779156.374    20779148.326
        50.000          47.000
 119014595.942 6  92566936.078 6  22232918.355    22232919.026    22232917.465
        41.000          37.000
 129478062.005 6 100892006.20243  24638854.827    24638858.981    24638854.769
        40.000          21.0004
 11 10  1  0 17  0.0000000  0 19G20R22G23R08G10R01G28R13G04R23G19G13
                                G11G07G32R11R12R07G17
 110497707.259 8  86102141.96146  21027008.483    21027010.878    21027007.561
        50.000          41.0004
 123633776.309 7  96159632.719 6  23160770.491    23160774.243    23160768.802
        43.000          40.000
 122234184.974 7  95247482.31644  23260357.453    23260357.670    23260356.525
        44.000          26.0004
 106018946.293 8  82459221.585 7  19798284.732    19798286.830    19798284.497
        49.000          47.000
 125040798.295 6  97434398.16144  23794470.575    23794475.108    23794469.822
        41.000          24.0004
 112913381.523 7  87821545.280 6  21122780.200    21122785.708    21122780.152
        46.000          40.000
 114162671.881 8  88957957.19745  21724425.128    21724427.946    21724424.297
        48.000          35.0004
 119168812.642 7  92686877.954 7  22316480.284    22316485.990    22316479.478
        46.000          44.000
 123353796.230 7  96119843.50844  23473444.902    23473449.045    23473444.334
        44.000          26.0004
 126203588.277 6  98158342.328 6  23592417.547    23592423.671    23592417.784
        39.000          38.000
 129164464.263 5 100647684.86342  24579148.175    24579149.542    24579148.041
        35.000          14.0004
 123520239.070 6  96249631.71343  23505062.457    23505065.242    23505061.985
        40.000          23.0004
 128002971.010 6  99742592.89843  24358148.253    24358153.461    24358148.025
        39.000          21.0004
 117517761.370 7  91572340.66045  22362851.381    22362854.503    22362851.042
        46.000          35.0004
 119729924.066 7  93296142.55645  22783819.280    22783823.779    22783819.076
        46.000          31.0004
 122600674.443 6  95356130.252 5  22943019.229    22943025.400    22943018.465
        40.000          33.000
 110998749.135 8  86332400.312 8  20779175.858    20779183.636    20779175.137
        50.000          48.000
 119051551.332 6  92595679.131 6  22239822.233    22239822.745    22239820.701
        41.000          37.000
 129388787.589 6 100822441.85043  24621865.123    24621870.141    24621865.147
        38.000          20.0004
 11 10  1  0 17 30.0000000  0 19G20R22G23R08G10R01G28R13G04R23G19G13
                                G11G07G32R11R12R07G17
 110490129.982 8  86096237.56746  21025566.469    21025568.981    21025565.569
        50.000          41.0004
 123563044.816 7  96104619.355 6  23147518.154    23147523.549    23147517.868
        43.000          39.000
 122155781.210 7  95186388.48144  23245437.503    23245437.318    23245436.438
        43.000          26.0004
 105961919.848 8  82414867.700 7  19787635.845    19787637.501    19787635.221
        49.000          47.000
 124892870.759 6  97319129.84544  23766320.267    23766325.824    23766319.949
        41.000          25.0004
 112757099.699 7  87699992.761 6  21093545.385    21093550.172    21093544.875
        47.000          40.000
 114032901.944 8  88856837.81046  21699730.407    21699733.466    21699729.924
        48.000          36.0004
 119081297.738 7  92618810.778 7  22300091.195    22300097.472    22300090.797
        46.000          44.000
 123281317.092 7  96063366.27344  23459651.833    23459657.431    23459651.893
        43.000          25.0004
 126130972.921 6  98101863.744 6  23578842.698    23578849.160    23578842.645
        39.000          38.000
 129122368.530 6 100614882.96641  24571139.385    24571141.415    24571138.749
        36.000          11.0004
 123440721.201 6  96187669.74043  23489930.371    23489932.542    23489930.579
        41.000          22.0004
 127996826.487 6  99737804.99143  24356979.420    24356983.135    24356979.417
        40.000          19.0004
 117519811.159 7  91573937.89345  22363240.750    22363244.656    22363241.026
        45.000          35.0004
 119740267.875 7  93304202.65745  22785788.188    22785792.116    22785787.175
        45.000          31.0004
 122655988.369 6  95399152.183 5  22953370.268    22953376.233    22953369.919
        39.000          33.000
 110999316.258 8  86332841.416 8  20779282.132    20779289.142    20779281.820
        51.000          48.000
 119088995.293 6  92624802.177 6  22246816.385    22246817.659    22246815.599
        41.000          36.000
 129299311.462 6 100752720.21943  24604839.585    24604842.938    24604838.860
        39.000          21.0004
 11 10  1  0 18  0.0000000  0 19G20R22G23R08G10R01G28R13G04R23G19G13
                                G11G07G32R11R12R07G17
 110483030.323 8  86090705.34846  21024215.983    21024217.919    21024215.026
        50.000          40.0004
 123492125.976 7  96049460.225 6  23134234.470    23134238.490    23134233.450
        44.000          39.000
 122077344.968 7  95125269.32044  23230511.478    23230512.160    23230510.755
        43.000          26.0004
 105905619.872 8  82371078.838 7  19777122.191    19777124.190    19777121.723
        49.000          47.000
 124745037.986 6  97203935.40044  23738189.506    23738193.810    23738188.942
        41.000          24.0004
 112601104.737 7  87578663.346 6  21064362.749    21064368.131    21064362.420
        46.000          40.000
 113903456.481 8  88755971.25446  21675097.866    21675100.754    21675097.333
        48.000          36.0004
 118994375.777 7  92551204.740 7  22283813.336    22283819.428    22283812.986
        46.000          44.000
 123209134.191 7  96007119.89044  23445916.136    23445921.265    23445916.018
        43.000          26.0004
 126058043.238 6  98045140.694 6  23565210.406    23565216.446    23565208.792
        40.000          38.000
 129080367.883 5 100582155.21241  24563147.007    24563147.700    24563144.020
        34.000          11.0004
 123361022.435 7  96125566.81943  23474764.917    23474766.758    23474764.664
        42.000          22.0004
 127990496.554 6  99732872.57543  24355776.160    24355779.017    24355774.680
        40.000          20.0004
 117521933.528 7  91575591.67545  22363645.462    22363648.609    22363645.201
        46.000          35.0004
 119751010.918 7  93312573.84145  22787832.679    22787836.792    22787831.654
        46.000          32.0004
 122711180.037 6  95442079.024 5  22963698.832    22963704.750    22963697.968
        38.000          33.000
 111000305.375 8  86333610.725 7  20779468.310    20779474.876    20779467.272
        51.000          47.000
 119126928.548 6  92654305.805 5  22253903.339    22253903.921    22253901.808
        41.000          35.000
 129209635.755 6 100682843.13243  24587773.543    24587778.451    24587773.833
        38.000          20.0004
 11 10  1  0 18 30.0000000  0 19G20R22G23R08G10R01G28R13G04R23G19G13
                                G11G07G32R11R12R07G17
 110476407.442 8  86085544.64346  21022955.603    21022957.782    21022954.632
        51.000          40.0004
 123421021.732 7  95994156.931 6  23120913.647    23120918.637    23120912.140
        43.000          40.000
 121998878.621 7  95064126.67644  23215579.233    23215580.421    23215579.044
        43.000          26.0004
 105850048.279 8  82327856.492 7  19766744.890    19766746.565    19766744.259
        50.000          47.000
 124597302.925 6  97088817.10144  23710077.081    23710080.808    23710075.528
        41.000          24.0004
 112445401.341 7  87457560.708 6  21035235.477    21035240.287    21035235.189
        46.000          40.000
 113774338.295 8  88655359.71445  21650527.419    21650530.239    21650526.728
        48.000          35.0004
 118908046.921 7  92484059.998 7  22267646.550    22267653.023    22267646.048
        44.000          42.000
 123137246.841 7  95951103.80044  23432235.826    23432240.990    23432235.611
        43.000          26.0004
 125984799.469 6  97988173.377 6  23551515.316    23551523.668    23551515.876
        39.000          37.000
 129038464.005 6 100549502.93941  24555173.239    24555174.081    24555172.447
        36.000          10.0004
 123281144.942 6  96063324.59543  23459564.057    23459566.725    23459563.427
        41.000          23.0004
 127983981.034 6  99727795.54943  24354537.251    24354538.460    24354535.818
        39.000          20.0004
 117524126.033 7  91577300.11745  22364062.619    22364065.547    22364062.522
        47.000          35.0004
 119762151.864 7  93321255.07845  22789952.628    22789956.966    22789951.719
        45.000          31.0004
 122766246.263 6  95484908.318 5  22974002.484    22974009.863    22974003.072
        38.000          33.000
 111001712.717 8  86334705.318 7  20779730.644    20779738.215    20779730.174
        50.000          47.000
 119165345.674 6  92684185.776 5  22261079.437    22261079.901    22261078.119
        41.000          35.000
 129119760.235 6 100612810.32743  24570671.362    24570675.206    24570670.698
        37.000          19.0004
 11 10  1  0 19  0.0000000  0 19G20R22G23R08G10R01G28R13G04R23G19G13
                                G11G07G32R11R12R07G17
 110470260.557 8  86080754.84946  21021785.850    21021788.237    21021784.900
        50.000          40.0004
 123349734.719 7  95938711.495 6  23107558.073    23107563.679    23107557.222
        42.000          39.000
 121920384.723 7  95002962.58344  23200643.066    23200644.025    23200642.629
        44.000          27.0004
 105795206.827 8  82285202.032 7  19756503.046    19756505.246    19756502.934
        49.000          47.000
 124449668.051 6  96973776.92144  23681982.366    23681987.063    23681981.404
        41.000          25.0004
 112289994.451 7  87336688.689 6  21006163.644    21006168.645    21006162.733
        47.000          40.000
 113645550.742 7  88555005.81345  21626019.395    21626022.422    21626018.827
        46.000          34.0004
 118822311.458 7  92417376.840 7  22251591.163    22251597.541    22251591.054
        46.000          43.000
 123065654.031 7  95895317.22044  23418612.069    23418617.459    23418612.069
        43.000          27.0004
 125911241.778 6  97930961.846 6  23537765.631    23537772.408    23537765.937
        40.000          37.000
 128996659.183 6 100516927.73042  24547216.828    24547219.466    24547216.300
        36.000          13.0004
 123201090.149 7  96000944.25444  23444330.687    23444332.680    23444331.023
        42.000          24.0004
 127977280.225 6  99722574.11943  24353260.317    24353263.895    24353260.358
        38.000          20.0004
 117526386.187 7  91579061.26745  22364492.668    22364495.397    22364492.867
        47.000          35.0004
 119773689.742 7  93330245.60445  22792148.445    22792152.575    22792147.561
        46.000          32.0004
 122821183.857 6  95527637.548 5  22984286.704    22984290.921    22984286.291
        41.000          34.000
 111003534.878 8  86336122.551 7  20780072.018    20780079.485    20780071.353
        50.000          47.000
 119204245.550 7  92714441.221 6  22268346.432    22268347.687    22268345.605
        42.000          37.000
 129029685.321 6 100542622.21143  24553530.267    24553534.185    24553530.333
        37.000          18.0004
 11 10  1  0 19 30.0000000  0 19G20R22G23R08G10R01G28R13G04R23G19G13
                                G11G07G32R11R12R07G17
 110464594.657 8  86076339.84046  21020707.619    21020709.800    21020706.779
        51.000          40.0004
 123278273.396 7  95883130.460 6  23094171.313    23094175.017    23094170.938
        43.000          39.000
 121841871.764 7  94941783.67644  23185702.151    23185703.171    23185701.783
        43.000          27.0004
 105741102.595 8  82243120.959 7  19746399.961    19746401.459    19746399.424
        49.000          47.000
 124302142.427 6  96858821.85943  23653908.973    23653913.578    23653908.431
        40.000          23.0004
 112134894.888 7  87216055.690 6  20977149.130    20977153.786    20977148.456
        47.000          40.000
 113517102.607 8  88454916.38945  21601577.117    21601579.592    21601576.465
        48.000          35.0004
 118737175.123 7  92351159.641 7  22235647.592    22235654.098    22235647.458
        45.000          43.000
 122994361.205 7  95839764.38444  23405046.386    23405051.369    23405045.999
        43.000          27.0004
 125837376.750 6  97873511.279 6  23523955.510    23523964.299    23523957.168
        40.000          37.000
 128954961.946 5 100484436.38442  24539282.163    24539284.995    24539280.879
        34.000          15.0004
 123120865.647 6  95938431.64343  23429063.786    23429066.092    23429063.687
        41.000          23.0004
 127970400.186 6  99717213.07043  24351951.604    24351955.299    24351951.271
        40.000          20.0004
 117528718.456 7  91580878.61145  22364936.658    22364939.585    22364936.333
        47.000          35.0004
 119785629.128 7  93339548.99145  22794420.250    22794424.655    22794419.292
        45.000          31.0004
 122875996.134 6  95570269.312 5  22994542.104    22994547.773    22994541.974
        39.000          34.000
 111005774.409 8  86337864.415 7  20780491.158    20780498.892    20780490.861
        50.000          47.000
 119243632.500 7  92745075.491 6  22275705.660    22275705.170    22275704.006
        42.000          37.000
 128939416.868 6 100472283.21143  24536352.940    24536357.785    24536352.964
        38.000          18.0004
 11 10  1  0 20  0.0000000  0 19G20R22G23R08G10R01G28R13G04R23G19G13
                                G11G07G32R11R12R07G17
 110459409.072 8  86072299.11846  21019720.791    21019722.823    21019719.928
        51.000          41.0004
 123206640.867 7  95827416.255 6  23080753.746    23080756.939    23080752.526
        44.000          39.000
 121763342.573 7  94880592.11044  23170759.217    23170760.090    23170758.453
        44.000          27.0004
 105687738.326 8  82201615.412 7  19736434.089    19736436.027    19736433.676
        49.000          47.000
 124154729.199 6  96743954.39543  23625858.493    23625862.351    23625856.609
        40.000          23.0004
 111980108.173 7  87095666.025 6  20948193.042    20948197.573    20948192.807
        47.000          40.000
 113388997.908 8  88355094.57446  21577199.738    21577202.252    21577198.887
        48.000          36.0004
 118652639.114 7  92285409.392 7  22219817.546    22219823.521    22219816.682
        45.000          43.000
 122923367.952 7  95784445.01544  23391536.472    23391541.594    23391535.759
        44.000          27.0004
 125763205.019 6  97815822.179 6  23510092.008    23510098.019    23510092.248
        39.000          36.000
 128913374.285 6 100452030.39542  24531368.706    24531369.505    24531367.467
        36.000          16.0004
 123040473.521 7  95875788.45943  23413765.312    23413768.002    23413765.889
        42.000          23.0004
 127963341.586 6  99711712.85343  24350608.610    24350611.543    24350608.387
        41.000          20.0004
 117531120.717 7  91582750.50845  22365393.252    22365396.674    22365393.233
        47.000          35.0004
 119797969.583 7  93349164.89645  22796769.159    22796772.526    22796767.757
        44.000          32.0004
 122930680.603 6  95612801.669 5  23004775.313    23004781.763    23004775.804
        39.000          33.000
 111008428.639 8  86339928.804 7  20780988.753    20780995.449    20780987.952
        51.000          47.000
 119283502.920 6  92776085.815 6  22283152.432    22283154.015    22283151.462
        41.000          37.000
 128848955.464 6 100401793.89343  24519138.526    24519143.337    24519139.047
        36.000          18.0004
