     2.11           OBSERVATION DATA    G (GPS)             RINEX VERSION / TYPE
teqc  2016Apr1                          20160930 07:51:16UTCPGM / RUN BY / DATE
Linux 2.4.20-8|Pentium IV|gcc|Linux|486/DX+                 COMMENT
teqc  2016Apr1                          20160816 03:17:23UTCCOMMENT
teqc  2009Mar23                         20111002 00:00:57UTCCOMMENT
Linux 2.4.20-8|Pentium IV|gcc -static|Linux|486/DX+         COMMENT
teqc  2010Mar17                         20110930 23:59:46UTCCOMMENT
MSXP|IAx86-PII|bcc32 5.0|MSWin95->XP|486/DX+                COMMENT
BIT 2 OF LLI FLAGS DATA COLLECTED UNDER A/S CONDITION       COMMENT
 SNR is mapped to RINEX snr flag value [0-9]                COMMENT
  L1 & L2: min(max(int(snr_dBHz/6), 0), 9)                  COMMENT
pseudorange smoothing corrections not applied               COMMENT
Forced Modulo Decimation to 30 seconds                      COMMENT
QAQ1                                                        MARKER NAME
43007M001                                                   MARKER NUMBER
DNSC                DNSC                                    OBSERVER / AGENCY
ZR20012301          ASHTECH UZ-12       CJ00                REC # / TYPE / VERS
24206               ASH701945E_M    SCIS                    ANT # / TYPE
  2170942.1800 -2251829.9500  5539988.2900                  APPROX POSITION XYZ
        0.1206        0.0000        0.0000                  ANTENNA: DELTA H/E/N
     1     1                                                WAVELENGTH FACT L1/2
     9    C1    L1    L2    P1    P2    D1    D2    S1    S2# / TYPES OF OBSERV
    30.0000                                                 INTERVAL
teqc windowed: start @ 2011 Oct  1 00:10:00.000             COMMENT
teqc windowed:  end  @ 2011 Oct  1 00:20:00.000             COMMENT
  2011    10     1     0    10    0.0000000     GPS         TIME OF FIRST OBS
                                                            END OF HEADER
 11 10  1  0 10  0.0000000  0  9G10G26G05G07G04G02G29G08G13
  21200672.5884  -17825614.59349 -13803531.38148  21200670.7154   21200674.8504
     -2424.1634      -1888.9564         54.0004         48.0004
  23897864.8604   -8885222.53347  -6853381.46546  23897863.7824   23897868.7544
      4340.2854       3382.0394         44.0004         39.0004
  20724089.8674  -26949087.86549 -20931443.85348  20724089.6394   20724092.7754
      1504.2254       1172.1324         56.0004         51.0004
  23102930.8204  -12377780.16748  -9632048.32247  23102930.8454   23102932.4594
      2140.6914       1668.0804         49.0004         43.0004
  23876611.7064   -6689017.70247  -5202901.16346  23876611.6974   23876616.1504
     -3767.7884      -2935.9354         45.0004         39.0004
  20632078.8924  -23458528.68649 -18267969.80548  20632077.5844   20632078.4714
     -1556.0194      -1212.4794         56.0004         50.0004
  22286974.3374  -13014860.22648 -10094459.78647  22286973.4534   22286977.5324
       552.1254        430.2634         52.0004         46.0004
  24545901.7684   -1526597.97847  -1177731.30046  24545902.0274   24545905.6244
      3393.2654       2644.1014         44.0004         38.0004
  22902590.3454  -14028188.78848 -10919214.40946  22902589.3574   22902590.7444
     -3078.6524      -2398.9534         49.0004         41.0004
 11 10  1  0 10 30.0000000  0 10G10G26G05G07G04G02G29G16G08G13
  21214548.7344  -17752694.77849 -13746710.69048  21214546.7954   21214551.2024
     -2436.6704      -1898.7084         54.0004         48.0004
  23873102.7514   -9015349.84147  -6954779.27846  23873101.3704   23873106.5324
      4335.4354       3378.2684         45.0004         38.0004
  20715546.8204  -26993981.90849 -20966426.10348  20715546.2804   20715549.5964
      1489.2534       1160.4574         55.0004         50.0004
  23090756.8874  -12441749.05148  -9681894.23647  23090756.9034   23090760.0924
      2124.4604       1655.4064         48.0004         43.0004
  23898136.0114   -6575909.26847  -5114764.90446  23898134.5054   23898139.0644
     -3772.1154      -2939.3054         45.0004         39.0004
  20641013.7764  -23411573.15849 -18231381.07148  20641012.4364   20641014.1144
     -1573.7864      -1226.3294         55.0004         50.0004
  22283884.3204  -13031103.71248 -10107117.66547  22283883.1364   22283887.4184
       531.4814        414.1914         52.0004         46.0004
  24949437.541
                                        42.000
  24526551.5844   -1628291.66747  -1256973.03546  24526550.1804   24526555.0484
      3386.8264       2639.0834         45.0004         39.0004
  22920200.4394  -13935636.84948 -10847095.83046  22920199.7194   22920202.8894
     -3090.8544      -2408.4544         48.0004         41.0004
 11 10  1  0 11  0.0000000  0 10G10G26G05G07G04G02G29G16G08G13
  21228494.0874  -17679410.32949 -13689605.91648  21228492.8274   21228496.9774
     -2448.7124      -1908.0864         54.0004         48.0004
  23848365.8154   -9145334.18947  -7056065.77146  23848365.8424   23848370.7054
      4330.6114       3374.5034         44.0004         38.0004
  20707087.2364  -27038435.89049 -21001065.22948  20707086.9654   20707089.9804
      1474.6504       1149.0844         56.0004         51.0004
  23078676.2024  -12505237.64048  -9731365.91947  23078673.9224   23078679.9344
      2108.4194       1642.9244         49.0004         43.0004
  23919683.9734   -6462672.16247  -5026528.34146  23919684.1914   23919687.4944
     -3776.5314      -2942.7434         46.0004         39.0004
  20650049.1314  -23364091.72249 -18194382.53948  20650048.2684   20650049.4344
     -1591.4164      -1240.0634         56.0004         50.0004
  22280908.4284  -13046734.18348 -10119297.88047  22280908.6204   22280913.8044
       510.7954        397.9464         51.0004         47.0004
  24939239.5874   -1828587.94947                  24939235.7244
      1777.6094                         42.0004
  24507232.8604   -1729802.92147  -1336072.65946  24507231.5544   24507237.9684
      3380.6924       2634.3084         44.0004         39.0004
  22937881.4714  -13842730.55948 -10774701.60246  22937882.5994   22937882.9194
     -3102.6364      -2417.6284         48.0004         41.0004
 11 10  1  0 11 30.0000000  0 10G10G26G05G07G04G02G29G16G08G13
  21242509.2254  -17605760.51049 -13632216.48148  21242507.9924   21242511.6904
     -2460.7744      -1917.4744         54.0004         48.0004
  23823660.2024   -9275169.49747  -7157236.00046  23823660.3314   23823664.2444
      4325.7554       3370.7104         44.0004         39.0004
  20698712.2514  -27082447.51649 -21035360.11548  20698711.8674   20698714.9634
      1459.9144       1137.6114         56.0004         51.0004
  23066686.3604  -12568240.91148  -9780459.44747  23066685.6614   23066689.4964
      2092.3804       1630.4214         48.0004         43.0004
  23941256.8924   -6349305.73147  -4938191.12546  23941257.3884   23941262.2794
     -3780.8214      -2946.0914         45.0004         39.0004
  20659185.0434  -23316082.04149 -18156972.42948  20659184.4154   20659185.1154
     -1608.8364      -1253.6354         55.0004         50.0004
  22278052.3364  -13061746.14948 -10130994.84947  22278051.6294   22278056.2144
       490.3904        382.1164         52.0004         46.0004
  24929138.0504   -1881674.93647                  24929134.8724
      1761.6294                         42.0004
  24487952.1304   -1831126.76947  -1415026.44346  24487951.0744   24487956.8194
      3374.9164       2629.8164         44.0004         38.0004
  22955628.1684  -13749468.38848 -10702030.05347  22955626.9314   22955630.1444
     -3114.3924      -2426.8244         48.0004         42.0004
 11 10  1  0 12  0.0000000  0 10G10G26G05G07G04G02G29G16G08G13
  21256593.1074  -17531751.29749 -13574547.14648  21256591.4814   21256595.4894
     -2472.9914      -1927.0084         54.0004         48.0004
  23798981.6334   -9404857.54147  -7258291.59846  23798980.8794   23798985.7024
      4320.3824       3366.5244         46.0004         39.0004
  20690420.8114  -27126019.37849 -21069312.33348  20690420.2444   20690423.6624
      1445.1874       1126.1224         55.0004         51.0004
  23054789.8084  -12630760.34648  -9829176.02547  23054789.2614   23054792.8964
      2075.9964       1617.6534         49.0004         43.0004
  23962854.7094   -6235815.66447  -4849757.33946  23962854.2564   23962858.2604
     -3785.0064      -2949.3574         46.0004         39.0004
  20668420.8734  -23267549.43749 -18119154.80048  20668419.8524   20668420.9144
     -1626.3934      -1267.3184         56.0004         50.0004
  22275311.9754  -13076146.75148 -10142216.05647  22275311.4554   22275315.4834
       469.8194        366.0844         52.0004         46.0004
  24919130.0564   -1934258.73947                  24919130.1534
      1744.5934                         42.0004
  24468706.7704   -1932263.59447  -1493834.65346  24468706.0984   24468708.6004
      3368.1144       2624.5004         45.0004         38.0004
  22973441.7754  -13655857.19648 -10629086.27646  22973442.5074   22973444.3954
     -3126.1504      -2435.9614         48.0004         41.0004
 11 10  1  0 12 30.0000000  0 10G10G26G05G07G04G02G29G16G08G13
  21270744.6114  -17457384.37549 -13516598.78148  21270742.8844   21270746.8364
     -2485.1874      -1936.5084         54.0004         48.0004
  23774331.0314   -9534396.13647  -7359230.71746  23774329.6074   23774335.1924
      4315.3784       3362.6354         45.0004         39.0004
  20682213.1384  -27169150.43949 -21102920.75448  20682212.7234   20682215.8404
      1429.9794       1114.2634         56.0004         51.0004
  23042985.7124  -12692794.05648  -9877514.15847  23042984.6254   23042987.8594
      2059.2444       1604.6134         49.0004         43.0004
  23984473.7544   -6122204.39647  -4761229.11846  23984472.0694   23984477.3364
     -3789.3954      -2952.7764         45.0004         39.0004
  20677755.4394  -23218495.67749 -18080931.14548  20677754.4704   20677755.3094
     -1644.1704      -1281.1714         56.0004         50.0004
  22272689.0284  -13089936.98948 -10152962.79247  22272688.3084   22272692.0964
       449.0854        349.8534         52.0004         46.0004
  24909219.3874   -1986338.60047                  24909217.5994
      1727.1934                         42.0004
  24449497.7124   -2033210.61847  -1572494.53946  24449496.4524   24449500.8414
      3361.5214       2619.3694         44.0004         38.0004
  22991321.0784  -13561900.41448 -10555873.16046  22991320.7274   22991324.1944
     -3138.0754      -2445.2524         48.0004         41.0004
 11 10  1  0 13  0.0000000  0 10G10G26G05G07G04G02G29G16G08G13
  21284964.5134  -17382656.26849 -13458369.32348  21284963.4024   21284967.2224
     -2496.7464      -1945.5174         54.0004         48.0004
  23749710.3224   -9663776.02747  -7460046.14146  23749709.8574   23749715.3154
      4310.1754       3358.5684         44.0004         39.0004
  20674090.3874  -27211834.19949 -21136180.65548  20674090.0474   20674093.1904
      1415.5274       1102.9974         56.0004         51.0004
  23031274.2084  -12754333.35048  -9925466.96147  23031274.4994   23031277.9794
      2043.2574       1592.1414         49.0004         43.0004
  24006116.9074   -6008467.97647  -4672603.32946  24006117.0294   24006120.0464
     -3793.0794      -2955.6564         46.0004         39.0004
  20687190.3724  -23168915.79049 -18042297.68448  20687189.3934   20687190.4104
     -1661.2124      -1294.4484         56.0004         50.0004
  22270181.4894  -13103103.06448 -10163220.53447  22270180.9654   22270184.9384
       428.8074        334.0624         52.0004         46.0004
  24899406.442
                                        40.000
  24430325.9914   -2133959.07647  -1650999.78946  24430324.7484   24430330.0994
      3355.1914       2614.4374         44.0004         39.0004
  23009267.4304  -13467595.90248 -10482389.54646  23009265.6704   23009268.6494
     -3149.0574      -2453.7944         48.0004         41.0004
 11 10  1  0 13 30.0000000  0 10G10G26G05G07G04G02G29G16G08G13
  21299252.9344  -17307571.80349 -13399861.98848  21299251.5114   21299255.5494
     -2508.9344      -1955.0154         54.0004         48.0004
  23725120.2264   -9792999.08247  -7560739.41446  23725118.9014   23725124.8604
      4304.6214       3354.2534         44.0004         39.0004
  20666052.1174  -27254074.26749 -21169095.01048  20666052.1724   20666055.2964
      1400.2524       1091.1034         55.0004         51.0004
  23019658.2314  -12815380.02448  -9973035.81847  23019657.2964   23019660.5104
      2026.4534       1579.0434         49.0004         43.0004
  24027783.5664   -5894611.88647  -4583884.28646  24027782.1404   24027786.5454
     -3797.4664      -2959.0764         45.0004         39.0004
  20696724.3994  -23118813.83149 -18003257.20848  20696723.3964   20696724.2404
     -1678.8804      -1308.2224         56.0004         50.0004
  22267793.4034  -13115655.31848 -10173001.01647  22267792.3534   22267796.7024
       408.5334        318.4264         52.0004         46.0004
  24889688.2634   -2088974.18646  -1198014.34345  24889686.9044   24889695.5334
      1693.5764       1319.6654         40.0004         35.0004
  24411190.5124   -2234510.28747  -1729351.39546  24411190.4244   24411195.9154
      3347.9434       2608.8024         44.0004         39.0004
  23027278.1234  -13372948.65148 -10408638.62546  23027278.5984   23027281.4864
     -3160.8534      -2463.0084         48.0004         41.0004
 11 10  1  0 14  0.0000000  0 10G10G26G05G07G04G02G29G16G08G13
  21313607.9024  -17232135.79549 -13341080.63547  21313606.1564   21313610.4844
     -2520.4734      -1964.0084         54.0004         47.0004
  23700560.1094   -9922065.02847  -7661310.36446  23700559.0294   23700564.6404
      4299.5724       3350.3174         45.0004         39.0004
  20658098.4834  -27295872.57549 -21201665.19248  20658098.1084   20658101.2914
      1385.8244       1079.8664         56.0004         51.0004
  23008134.6684  -12875934.48048 -10020221.09047  23008134.0834   23008138.1024
      2010.3234       1566.4744         49.0004         43.0004
  24049470.3474   -5780641.55947  -4495076.36246  24049469.3924   24049473.4774
     -3800.9334      -2961.7634         44.0004         38.0004
  20706356.9834  -23068194.14949 -17963813.21048  20706355.7964   20706356.8444
     -1695.9404      -1321.5094         56.0004         50.0004
  22265521.0044  -13127595.94648 -10182305.76347  22265520.6384   22265525.3134
       387.7374        302.1894         52.0004         46.0004
  24880068.726
                                        42.000
  24392095.1784   -2334863.78847  -1807549.14746  24392094.1824   24392098.7314
      3342.0074       2604.1594         45.0004         39.0004
  23045352.6314  -13277963.96747 -10334624.30246  23045351.5004   23045354.4264
     -3171.9124      -2471.6284         47.0004         41.0004
 11 10  1  0 14 30.0000000  0 10G10G26G05G07G04G02G29G16G08G13
  21328030.1584  -17156345.41449 -13282023.17747  21328028.8194   21328032.8144
     -2532.2424      -1973.1754         54.0004         47.0004
  23676030.7164  -10050966.31947  -7761752.84246  23676030.0214   23676034.5704
      4293.8544       3345.8534         46.0004         39.0004
  20650229.7004  -27337223.49449 -21233886.79048  20650229.3064   20650232.4744
      1370.9294       1068.2624         55.0004         51.0004
  22996707.4364  -12935989.93248 -10067017.52347  22996707.2534   22996708.6414
      1993.5134       1553.4024         50.0004         44.0004
  24071182.1684   -5666553.53147  -4406176.64746  24071179.4644   24071183.5654
     -3804.9924      -2964.9374         45.0004         39.0004
  20716088.6434  -23017053.28349 -17923963.10948  20716087.6624   20716088.5984
     -1713.3744      -1335.0934         56.0004         50.0004
  22263365.4314  -13138915.73148 -10191125.27547  22263364.6154   22263369.3144
       366.9064        285.8464         51.0004         46.0004
  24870543.7804   -2189571.09546  -1276400.22745  24870544.4764   24870553.2344
      1659.5624       1293.1464         40.0004         35.0004
  24373037.2574   -2435011.88547  -1885586.48146  24373036.1634   24373040.2724
      3335.2874       2598.9234         44.0004         38.0004
  23063492.8114  -13182641.95047 -10260347.81146  23063491.1244   23063496.0424
     -3182.9714      -2480.2484         47.0004         41.0004
 11 10  1  0 15  0.0000000  0 10G10G26G05G07G04G02G29G16G08G13
  21342518.9214  -17080206.58249 -13222694.23547  21342517.3764   21342521.6084
     -2544.0194      -1982.3534         54.0004         47.0004
  23651532.4694  -10179704.37447  -7862068.11746  23651531.5994   23651536.6544
      4288.3584       3341.5784         46.0004         40.0004
  20642445.8204  -27378129.66249 -21265761.75748  20642445.3564   20642448.2014
      1355.8314       1056.4784         55.0004         51.0004
  22985373.0044  -12995548.22048 -10113426.70147  22985373.5164   22985375.9284
      1976.6894       1540.2804         49.0004         44.0004
  24092912.6844   -5552354.16447  -4317190.29746  24092911.7894   24092915.6734
     -3808.7934      -2967.8964         45.0004         39.0004
  20725918.6884  -22965396.23349 -17883710.84748  20725917.5624   20725918.5964
     -1730.8604      -1348.7224         56.0004         49.0004
  22261329.0054  -13149624.02548 -10199470.23347  22261328.6504   22261332.1154
       346.1824        269.6444         51.0004         46.0004
  24861120.707
                                        41.000
  24354018.1764   -2534955.68347  -1963464.62846  24354017.2674   24354022.9844
      3327.5604       2592.9044         44.0004         39.0004
  23081694.5214  -13086987.67547 -10185812.17846  23081694.5274   23081696.9914
     -3194.4124      -2489.1584         47.0004         40.0004
 11 10  1  0 15 30.0000000  0 10G10G26G05G07G04G02G29G16G08G13
  21357074.9014  -17003715.40849 -13163090.81547  21357073.4644   21357077.3864
     -2555.9644      -1991.6604         54.0004         47.0004
  23627067.6034  -10308270.31747  -7962249.30946  23627066.5434   23627071.8514
      4282.0644       3336.6714         45.0004         40.0004
  20634747.2754  -27418584.81049 -21297285.31248  20634746.9034   20634750.2344
      1340.5854       1044.6264         56.0004         51.0004
  22974135.8684  -13054601.03348 -10159441.98147  22974135.4754   22974138.7404
      1959.5594       1526.9304         49.0004         44.0004
  24114666.8004   -5438038.60247  -4228113.20246  24114666.2764   24114669.9734
     -3812.7284      -2970.9564         45.0004         39.0004
  20735847.7024  -22913218.17949 -17843052.68348  20735846.7184   20735847.6614
     -1748.2794      -1362.2924         56.0004         49.0004
  22259408.9674  -13159707.02048 -10207325.81947  22259408.8844   22259411.8774
       325.1414        253.1984         52.0004         46.0004
  24851792.742
                                        40.000
  24335040.7324   -2634686.19247  -2041176.59646  24335039.2694   24335044.5134
      3320.5134       2587.4094         45.0004         39.0004
  23099960.7574  -12990998.10847 -10111014.94846  23099960.0804   23099962.6324
     -3205.4884      -2497.7824         47.0004         41.0004
 11 10  1  0 16  0.0000000  0 10G10G26G05G07G04G02G29G16G08G13
  21371696.4604  -16926878.27949 -13103217.69847  21371695.2314   21371698.7464
     -2567.3024      -2000.5014         54.0004         47.0004
  23602633.0284  -10436666.47347  -8062298.08146  23602632.2024   23602639.4364
      4276.6834       3332.4764         45.0004         40.0004
  20627134.1494  -27458592.20749 -21328459.75148  20627133.8824   20627136.6784
      1325.8074       1033.0854         56.0004         51.0004
  22962994.0694  -13113150.86348 -10205065.25147  22962994.1604   22962997.2334
      1942.9814       1514.0094         49.0004         44.0004
  24136441.3114   -5323614.42847  -4138951.52246  24136440.0324   24136444.6644
     -3816.0394      -2973.5384         45.0004         39.0004
  20745875.0454  -22860525.25849 -17801993.27948  20745874.1274   20745874.9174
     -1765.2124      -1375.4954         55.0004         49.0004
  22257606.8504  -13169176.48248 -10214704.61647  22257606.4374   22257609.5874
       305.4274        238.1384         51.0004         46.0004
  24842566.704
                                        42.000
  24316102.4474   -2734205.72347  -2118724.12046  24316101.0224   24316105.7494
      3313.9164       2582.2734         45.0004         39.0004
  23118289.7394  -12894682.13147 -10035963.85646  23118289.1274   23118292.0724
     -3216.2304      -2506.1384         47.0004         41.0004
 11 10  1  0 16 30.0000000  0 10G10G26G05G07G04G02G29G16G08G13
  21386383.8714  -16849694.82249 -13043074.74047  21386382.6634   21386386.3994
     -2578.5194      -2009.2424         54.0004         47.0004
  23578234.7064  -10564888.06547  -8162210.86146  23578233.1484   23578237.4044
      4271.0954       3328.1194         46.0004         39.0004
  20619606.5934  -27498150.32449 -21359284.21248  20619606.1484   20619609.1454
      1311.1084       1021.6544         56.0004         51.0004
  22951949.0574  -13171193.16148 -10250292.88047  22951948.3904   22951952.0194
      1926.2744       1500.9874         49.0004         44.0004
  24158234.2644   -5209081.05847  -4049704.74646  24158234.4584   24158240.5684
     -3819.2944      -2976.0824         44.0004         39.0004
  20756000.1554  -22807316.31549 -17760531.79648  20755999.1754   20756000.4194
     -1782.2064      -1388.7404         55.0004         49.0004
  22255922.9324  -13178025.84648 -10221599.68547  22255921.6474   22255925.4254
       284.7704        221.8994         52.0004         46.0004
  24833438.9464   -2384569.62247  -1134405.15845  24833438.4714   24833442.5624
      1590.3914       1239.2654         43.0004         35.0004
  24297205.8604   -2833509.07047  -2196103.28646  24297204.1684   24297208.7144
      3306.5034       2576.4904         45.0004         39.0004
  23136680.4004  -12798038.71448  -9960657.33346  23136680.3314   23136682.4614
     -3226.7214      -2514.3294         48.0004         41.0004
 11 10  1  0 17  0.0000000  0 10G10G26G05G07G04G02G29G16G08G13
  21401136.9354  -16772168.36149 -12982664.55047  21401135.1544   21401139.6574
     -2589.7464      -2017.9814         54.0004         47.0004
  23553868.2814  -10692933.73747  -8261986.56446  23553867.5484   23553872.0374
      4265.2464       3323.5734         46.0004         40.0004
  20612164.0404  -27537259.30449 -21389758.71748  20612163.7534   20612166.7464
      1296.2784       1010.0824         55.0004         51.0004
  22941001.4994  -13228727.84648 -10295125.02347  22941001.1514   22941003.1684
      1909.5064       1487.9294         50.0004         44.0004
  24180049.8974   -5094442.08747  -3960375.77146  24180050.2034   24180055.2574
     -3822.9194      -2978.8884         44.0004         39.0004
  20766223.3024  -22753594.18949 -17718670.38948  20766222.4664   20766223.5264
     -1799.0954      -1401.8914         55.0004         49.0004
  22254356.0514  -13186256.89148 -10228012.58647  22254355.5754   22254358.4764
       264.3854        205.9764         52.0004         46.0004
  24824408.7494   -2432016.52947  -1171376.07946  24824406.3664   24824411.6794
      1573.1224       1225.7734         42.0004         36.0004
  24278349.5744   -2932594.85647  -2273312.93246  24278348.3444   24278353.8584
      3299.5514       2571.0774         45.0004         39.0004
  23155132.3514  -12701072.12747  -9885098.71046  23155131.7004   23155134.6644
     -3237.5024      -2522.7024         47.0004         41.0004
 11 10  1  0 17 30.0000000  0 10G10G26G05G07G04G02G29G16G08G13
  21415954.7104  -16694302.48949 -12921990.05447  21415952.6894   21415957.6004
     -2601.4434      -2027.0944         54.0004         47.0004
  23529535.4684  -10820802.32547  -8361624.30846  23529534.1694   23529539.7034
      4259.0234       3318.7144         46.0004         40.0004
  20604807.2514  -27575919.68749 -21419883.66948  20604807.0594   20604810.0694
      1281.0284        998.1794         56.0004         51.0004
  22930149.8444  -13285753.81248 -10339560.83547  22930148.7514   22930151.4254
      1892.0104       1474.3104         50.0004         44.0004
  24201886.2654   -4979700.57447  -3870966.86746  24201884.4624   24201889.5494
     -3826.7114      -2981.8474         45.0004         38.0004
  20776543.7074  -22699361.78349 -17676411.55948  20776542.4464   20776543.6964
     -1816.5214      -1415.4654         55.0004         49.0004
  22252907.1034  -13193873.69748 -10233948.16547  22252906.5404   22252908.3244
       243.3044        189.5794         52.0004         46.0004
  24815479.1584   -2478940.60947  -1207939.16446  24815477.7394   24815482.1124
      1554.8004       1211.4744         42.0004         36.0004
  24259536.5314   -3031461.40747  -2350351.72846  24259536.0204   24259538.3604
      3291.9234       2565.1344         45.0004         39.0004
  23173644.1924  -12603787.66247  -9809292.64746  23173643.5164   23173647.6144
     -3248.3904      -2531.1934         46.0004         41.0004
 11 10  1  0 18  0.0000000  0 10G10G26G05G07G04G02G29G16G08G13
  21430836.9484  -16616095.81549 -12861049.74247  21430835.4064   21430839.2644
     -2612.5654      -2035.7694         54.0004         47.0004
  23505237.1424  -10948488.44947  -8461119.76946  23505236.1154   23505241.2194
      4252.8644       3313.9164         46.0004         40.0004
  20597536.0014  -27614128.09149 -21449656.10548  20597535.8784   20597538.9664
      1266.0504        986.5424         55.0004         51.0004
  22919395.4554  -13342266.54248 -10383596.81047  22919395.1354   22919398.1874
      1875.0344       1461.0464         49.0004         44.0004
  24223738.7184   -4864856.12747  -3781477.69946  24223738.7534   24223743.1594
     -3829.4814      -2984.0154         44.0004         38.0004
  20786961.2804  -22644617.19049 -17633753.51648  20786960.0144   20786961.2124
     -1833.4924      -1428.6994         56.0004         49.0004
  22251575.0264  -13200871.84648 -10239401.83047  22251574.7244   22251577.6344
       222.8434        173.6544         52.0004         46.0004
  24806648.1154   -2525339.49447  -1244093.27346  24806647.3854   24806655.4684
      1537.8264       1198.3084         43.0004         36.0004
  24240765.3204   -3130103.20447  -2427215.36846  24240764.4504   24240768.5564
      3284.0704       2559.0094         45.0004         39.0004
  23192218.0144  -12506185.17947  -9733238.51046  23192217.1424   23192220.7244
     -3258.7504      -2539.2794         47.0004         40.0004
 11 10  1  0 18 30.0000000  0 10G10G26G05G07G04G02G29G16G08G13
  21445783.5544  -16537549.14949 -12799844.55247  21445782.0284   21445786.3294
     -2623.8004      -2044.5204         54.0004         47.0004
  23480974.6874  -11075988.17147  -8560469.99746  23480974.5134   23480980.1384
      4246.9294       3309.2974         46.0004         41.0004
  20590351.2784  -27651883.35449 -21479075.66548  20590350.9614   20590353.9374
      1250.9454        974.7494         56.0004         51.0004
  22908739.5464  -13398262.44348 -10427229.97847  22908739.1994   22908742.2114
      1857.8724       1447.6834         49.0004         44.0004
  24245612.6144   -4749909.10447  -3691908.60146  24245612.2334   24245617.1184
     -3833.3774      -2987.0384         45.0004         38.0004
  20797476.2844  -22589360.20049 -17590696.04248  20797475.1234   20797476.2094
     -1850.4644      -1441.9274         55.0004         49.0004
  22250362.6544  -13207248.50348 -10244370.72547  22250361.9704   22250364.8964
       202.3774        157.7284         52.0004         46.0004
  24797918.3284   -2571209.32847  -1279835.83146  24797917.9814   24797921.1554
      1520.0354       1184.4214         43.0004         37.0004
  24222037.0454   -3228516.49547  -2503900.92046  24222035.3144   24222041.3184
      3276.6754       2553.2494         45.0004         39.0004
  23210851.0634  -12408266.50647  -9656938.41146  23210850.0944   23210853.6624
     -3269.2394      -2547.4564         46.0004         40.0004
 11 10  1  0 19  0.0000000  0 10G10G26G05G07G04G02G29G16G08G13
  21460794.1744  -16458668.00248 -12738378.87347  21460792.6034   21460797.2344
     -2634.8664      -2053.1284         53.0004         47.0004
  23456747.9024  -11203302.01147  -8659675.40246  23456746.8284   23456751.4164
      4240.7744       3304.4874         46.0004         40.0004
  20583252.6084  -27689187.38149 -21508143.71848  20583252.4604   20583255.4234
      1235.9824        963.1064         56.0004         51.0004
  22898182.0454  -13453742.75648 -10470461.32847  22898181.4294   22898185.0434
      1840.9104       1434.4704         49.0004         44.0004
  24267505.3464   -4634864.97347  -3602263.83646  24267504.3194   24267508.4084
     -3836.0904      -2989.1614         44.0004         38.0004
  20808087.5474  -22533596.06849 -17547243.48248  20808086.6144   20808087.6714
     -1867.2384      -1454.9854         55.0004         49.0004
  22249267.4224  -13213008.79348 -10248860.10847  22249266.2614   22249270.1474
       181.8594        141.7044         52.0004         46.0004
  24789291.421                    -1315166.78945                  24789301.0074
                      1170.9594         42.000          35.0004
  24203353.7854   -3326701.10847  -2580408.26746  24203353.3404   24203356.1864
      3269.0644       2547.3224         45.0004         39.0004
  23229543.7984  -12310036.20947  -9580395.00346  23229541.7414   23229544.3714
     -3279.5284      -2555.4794         47.0004         40.0004
 11 10  1  0 19 30.0000000  0 10G10G26G05G07G04G02G29G16G08G13
  21475868.8844  -16379450.60448 -12676651.32447  21475867.6174   21475871.8294
     -2646.2494      -2061.9944         53.0004         47.0004
  23432557.3704  -11330423.69147  -8758731.11246  23432556.6134   23432559.9604
      4234.9204       3299.9374         46.0004         40.0004
  20576240.5654  -27726035.72449 -21536856.42048  20576240.2284   20576243.1134
      1220.6614        951.1534         56.0004         51.0004
  22887723.0794  -13508701.33148 -10513286.07047  22887722.8444   22887726.7044
      1823.1234       1420.6194         49.0004         44.0004
  24289416.7524   -4519721.93247  -3512542.07846  24289415.3254   24289419.9804
     -3839.7804      -2992.0334         44.0004         38.0004
  20818795.9914  -22477322.24749 -17503393.86548  20818795.1504   20818796.5524
     -1884.3174      -1468.2894         55.0004         49.0004
  22248289.1834  -13218145.84648 -10252862.79347  22248288.7144   22248292.4254
       161.0664        125.5414         52.0004         46.0004
  24780764.1924   -2661362.67746                  24780764.4134
      1484.5434                         41.0004
  24184712.7524   -3424650.92647  -2656732.61746  24184712.6604   24184717.5784
      3260.9664       2541.0014         44.0004         39.0004
  23248294.6474  -12211495.51747  -9503610.12246  23248293.7404   23248299.0084
     -3289.8564      -2563.5094         46.0004         40.0004
 11 10  1  0 20  0.0000000  0 10G10G26G05G07G04G02G29G16G08G13
  21491006.6914  -16299902.36048 -12614666.20447  21491005.5904   21491009.9814
     -2657.2094      -2070.5304         53.0004         47.0004
  23408402.8674  -11457353.73847  -8857637.55646  23408402.0844   23408405.9354
      4227.5154       3294.1714         46.0004         40.0004
  20569314.4894  -27762431.10649 -21565216.08548  20569314.2064   20569316.6874
      1205.6084        939.4294         56.0004         51.0004
  22877363.6054  -13563140.13248 -10555705.90747  22877363.9794   22877367.1074
      1805.7814       1407.0964         49.0004         44.0004
  24311345.5094   -4404485.17847  -3422747.19746  24311344.8944   24311348.9674
     -3843.0954      -2994.6124         45.0004         38.0004
  20829600.9954  -22420543.44349 -17459150.93648  20829600.4104   20829601.5024
     -1901.0834      -1481.3414         55.0004         49.0004
  22247428.1874  -13222665.27348 -10256384.57147  22247427.6754   22247432.3674
       140.1034        109.0924         51.0004         46.0004
  24772340.2384   -2705638.92447                  24772337.6944
      1466.8994                         42.0004
  24166118.6504   -3522366.27647  -2732874.26946  24166118.0364   24166122.6604
      3252.7774       2534.6214         45.0004         39.0004
  23267105.3924  -12112650.36347  -9426588.31146  23267104.6184   23267108.0424
     -3300.0894      -2571.4704         47.0004         40.0004
