     2.11           OBSERVATION DATA    G (GPS)             RINEX VERSION / TYPE
teqc  2016Apr1                          20160930 07:51:15UTCPGM / RUN BY / DATE
Linux 2.4.20-8|Pentium IV|gcc|Linux|486/DX+                 COMMENT
teqc  2016Apr1                          20160816 03:10:40UTCCOMMENT
teqc  2010Mar17     gpsops              20111002 00:16:33UTCCOMMENT
Linux 2.4.21-27.ELsmp|Opteron|gcc -static|Linux x86_64|=+   COMMENT
BIT 2 OF LLI FLAGS DATA COLLECTED UNDER A/S CONDITION       COMMENT
                                                            COMMENT
This data is provided as a public service by NASA/JPL.      COMMENT
No warranty is expressed or implied regarding suitability   COMMENT
for use.  For further information, contact:                 COMMENT
Dave Stowers, NASA/JPL m/s 238-600                          COMMENT
4800 Oak Grove Drive, Pasadena CA 91109 USA                 COMMENT
                                                            COMMENT
Forced Modulo Decimation to 30 seconds                      COMMENT
 SNR is mapped to RINEX snr flag value [0-9]                COMMENT
  L1 & L2: min(max(int(snr_dBHz/6), 0), 9)                  COMMENT
pseudorange smoothing corrections not applied               COMMENT
ISPA                                                        MARKER NAME
41703M007                                                   MARKER NUMBER
GGN                 JPL                                     OBSERVER / AGENCY
UC2200524015        ASHTECH UZ-12       CQ00                REC # / TYPE / VERS
CR620024321         ASH701945E_M    SCIT                    ANT # / TYPE
 -1881703.5070 -5359979.7720 -2890599.2590                  APPROX POSITION XYZ
        0.0083        0.0000        0.0000                  ANTENNA: DELTA H/E/N
     1     1                                                WAVELENGTH FACT L1/2
     7    L1    L2    P1    P2    C1    S1    S2            # / TYPES OF OBSERV
    30.0000                                                 INTERVAL
teqc windowed: start @ 2011 Oct  1 00:10:00.000             COMMENT
teqc windowed:  end  @ 2011 Oct  1 00:20:00.000             COMMENT
  2011    10     1     0    10    0.0000000     GPS         TIME OF FIRST OBS
                                                            END OF HEADER
 11 10  1  0 10  0.0000000  0 10G30G18G17G26G25G12G22G15G09G27
   -754882.15247   -540009.59546  24954316.7284   24954342.5504   24954317.0074
        43.0004         38.0004
 -18337848.51248 -14240412.77547  21370786.6624   21370792.8784   21370787.2394
        51.0004         47.0004
    361956.31447    286754.16946  24852533.0184   24852536.1604   24852530.3234
        42.0004         37.0004
 -11991250.20947  -9108453.35346  23156894.6194   23156911.5284   23156894.1984
        46.0004         41.0004
 -18193336.90448 -14155401.15747  22078934.2834   22078945.4724   22078934.3204
        51.0004         47.0004
 -25494161.30449 -19817248.84348  20448369.0354   20448374.1634   20448368.8124
        56.0004         51.0004
  -5833451.19247  -4492795.95646  23212686.5924   23212691.7954   23212687.7024
        46.0004         41.0004
 -23389959.50449 -18182827.68548  20880846.5834   20880852.7604   20880846.1634
        54.0004         50.0004
 -18004463.03948 -14015253.63548  21674837.2684   21674842.8304   21674837.2064
        53.0004         49.0004
 -23563222.56748 -18318534.12447  21053388.6864   21053395.4084   21053388.9254
        51.0004         47.0004
 11 10  1  0 10 30.0000000  0 10G30G18G17G26G25G12G22G15G09G27
   -852887.32747   -616377.31746  24935668.0874   24935691.5014   24935667.1164
        42.0004         38.0004
 -18320160.89548 -14226630.25647  21374152.8364   21374158.5834   21374153.1804
        51.0004         47.0004
    399935.16746    316348.18946  24859756.8264   24859766.7764   24859756.5654
        41.0004         37.0004
 -11929106.26747  -9060029.70346  23168721.4314   23168736.8884   23168720.0214
        46.0004         41.0004
 -18275269.54648 -14219244.59247  22063343.5004   22063354.1534   22063343.3664
        51.0004         47.0004
 -25525418.92149 -19841605.38248  20442421.2474   20442426.2524   20442420.8964
        56.0004         52.0004
  -5890820.67847  -4537499.46447  23201770.0534   23201774.0374   23201769.8564
        46.0004         42.0004
 -23356359.87949 -18156646.22848  20887240.5554   20887246.5814   20887240.0114
        54.0004         50.0004
 -17985978.18048 -14000849.86448  21678354.7464   21678360.3084   21678354.7824
        53.0004         48.0004
 -23527024.83948 -18290328.13647  21060276.6394   21060283.5924   21060276.7324
        51.0004         47.0004
 11 10  1  0 11  0.0000000  0 10G30G18G17G26G25G12G22G15G09G27
   -950736.73147   -692623.63646  24917047.8244   24917072.7404   24917048.3714
        42.0004         38.0004
 -18301937.27948 -14212430.08247  21377620.6444   21377626.0464   21377621.0504
        51.0004         47.0004
    438398.67147    346319.81846  24867077.5214   24867082.4864   24867077.3764
        42.0004         37.0004
 -11866640.16247  -9011355.03046  23180608.1024   23180623.9574   23180607.7284
        46.0004         41.0004
 -18356850.98648 -14282814.36947  22047818.7114   22047830.1154   22047818.6894
        52.0004         47.0004
 -25556156.07849 -19865556.37248  20436571.7944   20436576.9964   20436571.6024
        56.0004         52.0004
  -5947726.91947  -4581841.99247  23190940.6674   23190945.3424   23190940.9304
        46.0004         42.0004
 -23322348.30549 -18130143.76548  20893712.7694   20893719.0294   20893712.3464
        54.0004         50.0004
 -17967472.79448 -13986430.09848  21681876.2404   21681882.1944   21681876.1904
        53.0004         49.0004
 -23490685.77548 -18262012.01247  21067192.2024   21067198.2024   21067192.2614
        51.0004         47.0004
 11 10  1  0 11 30.0000000  0 10G30G18G17G26G25G12G22G15G09G27
  -1048427.74247   -768746.52446  24898458.0774   24898482.8154   24898458.7504
        43.0004         38.0004
 -18283177.29848 -14197811.95747  21381190.3144   21381195.9464   21381190.6014
        51.0004         47.0004
    477347.22147    376669.43346  24874489.5614   24874497.5314   24874489.1554
        42.0004         38.0004
 -11803850.63047  -8962428.33646  23192555.3014   23192572.6754   23192556.0174
        46.0004         41.0004
 -18438078.49448 -14346108.36347  22032361.6664   22032372.2894   22032361.5884
        52.0004         47.0004
 -25586371.37849 -19889100.72048  20430822.1504   20430827.1274   20430821.9434
        56.0004         51.0004
  -6004167.07147  -4625821.33447  23180201.6674   23180205.3424   23180201.3964
        47.0004         42.0004
 -23287923.07649 -18103318.97848  20900263.6584   20900270.0474   20900263.1394
        54.0004         50.0004
 -17948946.23848 -13971993.83748  21685401.6614   21685407.4624   21685401.8564
        53.0004         49.0004
 -23454204.55048 -18233585.11447  21074134.2424   21074140.4784   21074134.3594
        51.0004         47.0004
 11 10  1  0 12  0.0000000  0 10G30G18G17G26G25G12G22G15G09G27
  -1145960.79647   -844746.31446  24879897.5814   24879921.9364   24879897.9254
        43.0004         38.0004
 -18263884.37248 -14182778.55547  21384861.3814   21384867.5044   21384862.3884
        51.0004         47.0004
    516777.84146    407394.68546  24881989.4684   24881998.6234   24881990.5244
        41.0004         36.0004
 -11740740.26147  -8913251.64746  23204565.0684   23204581.8964   23204565.1074
        46.0004         41.0004
 -18518952.53348 -14409126.92947  22016971.1364   22016982.8164   22016971.2324
        52.0004         47.0004
 -25616066.87149 -19912240.02448  20425171.4434   20425176.0154   20425171.1914
        56.0004         52.0004
  -6060141.72147  -4669437.95147  23169549.3624   23169553.7024   23169549.4904
        47.0004         42.0004
 -23253086.07449 -18076173.33048  20906893.0274   20906899.0614   20906892.7704
        54.0004         50.0004
 -17930401.25148 -13957543.21248  21688930.8634   21688936.3604   21688931.0404
        53.0004         49.0004
 -23417583.82748 -18205049.51747  21081102.7354   21081109.2844   21081102.8564
        51.0004         46.0004
 11 10  1  0 12 30.0000000  0 10G30G18G17G26G25G12G22G15G09G27
  -1243332.51647   -920620.32846  24861369.0944   24861394.5694   24861367.7494
        43.0004         38.0004
 -18244058.12548 -14167329.57747  21388635.0084   21388640.9584   21388635.3694
        51.0004         47.0004
    556691.28847    438496.12146  24889586.7734   24889597.5694   24889586.7114
        42.0004         38.0004
 -11677307.87647  -8863824.04146  23216636.4644   23216652.1764   23216635.7944
        45.0004         41.0004
 -18599470.12448 -14471867.74247  22001649.8744   22001660.7634   22001649.2484
        52.0004         47.0004
 -25645240.87149 -19934972.97348  20419619.6484   20419624.6314   20419619.4364
        56.0004         52.0004
  -6115647.95247  -4712689.57147  23158986.8864   23158991.0774   23158987.5634
        47.0004         42.0004
 -23217835.53149 -18048705.43848  20913600.9204   20913606.9654   20913600.6184
        54.0004         50.0004
 -17911836.97648 -13943077.55148  21692463.4184   21692469.5964   21692463.6994
        53.0004         49.0004
 -23380822.51648 -18176404.36547  21088098.4714   21088104.7244   21088098.2424
        51.0004         46.0004
 11 10  1  0 13  0.0000000  0 10G30G18G17G26G25G12G22G15G09G27
  -1340541.50847   -996367.51746  24842868.8634   24842894.2644   24842869.5674
        42.0004         38.0004
 -18223700.44148 -14151466.49047  21392508.7714   21392515.0504   21392508.9844
        52.0004         47.0004
    597086.52746    469973.08946  24897273.9044   24897287.4844   24897271.8574
        41.0004         37.0004
 -11613553.55247  -8814145.58046  23228768.4364   23228785.3014   23228768.3264
        45.0004         41.0004
 -18679629.83748 -14534329.70547  21986395.4434   21986406.4884   21986395.2164
        52.0004         47.0004
 -25673893.50949 -19957299.66848  20414167.1924   20414172.0774   20414166.8704
        56.0004         52.0004
  -6170684.12247  -4755574.90047  23148513.6364   23148518.1444   23148514.4664
        47.0004         43.0004
 -23182171.61649 -18020915.44448  20920387.4944   20920393.9434   20920387.3494
        54.0004         50.0004
 -17893254.06548 -13928597.36548  21695999.6054   21696005.7194   21695999.4434
        53.0004         48.0004
 -23343921.18948 -18147650.11247  21095120.5574   21095126.4164   21095120.4894
        51.0004         46.0004
 11 10  1  0 13 30.0000000  0 10G30G18G17G26G25G12G22G15G09G27
  -1437585.65447  -1071986.22246  24824402.6044   24824426.9714   24824403.5114
        42.0004         38.0004
 -18202811.93448 -14135189.77647  21396483.5184   21396489.7014   21396484.1044
        52.0004         47.0004
    637963.36046    501825.17246  24905051.5804   24905060.1774   24905050.3614
        41.0004         36.0004
 -11549477.41347  -8764216.34346  23240961.9784   23240978.6424   23240962.1494
        45.0004         41.0004
 -18759429.56348 -14596511.15847  21971209.7424   21971220.8394   21971209.7074
        52.0004         47.0004
 -25702024.04449 -19979219.53048  20408814.2594   20408818.8684   20408813.7094
        56.0004         52.0004
  -6225248.21247  -4798092.37447  23138130.2684   23138135.2714   23138131.0054
        47.0004         42.0004
 -23146093.27049 -17992802.51748  20927253.1354   20927259.2874   20927252.6314
        54.0004         50.0004
 -17874652.38348 -13914102.55748  21699539.4954   21699545.1694   21699539.7764
        53.0004         49.0004
 -23306879.73648 -18118786.67447  21102168.8864   21102176.0334   21102169.0164
        51.0004         46.0004
 11 10  1  0 14  0.0000000  0 10G30G18G17G26G25G12G22G15G09G27
  -1534464.28147  -1147475.90646  24805967.3724   24805992.9604   24805967.5434
        42.0004         38.0004
 -18181395.11948 -14118501.40047  21400558.8534   21400564.9744   21400559.6284
        51.0004         47.0004
    679319.45946    534050.79546  24912923.0214   24912932.6234   24912922.7844
        41.0004         37.0004
 -11485080.55547  -8714037.21546  23253216.5544   23253232.1654   23253216.9854
        45.0004         40.0004
 -18838868.80548 -14658411.71747  21956092.9694   21956104.1144   21956092.6874
        52.0004         47.0004
 -25729633.47449 -20000733.33948  20403560.2804   20403565.0184   20403560.0744
        56.0004         52.0004
  -6279340.26547  -4840242.02747  23127836.6424   23127841.4104   23127836.9984
        47.0004         42.0004
 -23109601.42049 -17964367.38148  20934197.2554   20934203.5364   20934197.2064
        54.0004         50.0004
 -17856033.76748 -13899594.55648  21703082.8444   21703088.1144   21703082.5744
        53.0004         49.0004
 -23269699.59148 -18089815.16047  21109244.7074   21109250.6594   21109244.7854
        51.0004         46.0004
 11 10  1  0 14 30.0000000  0 10G30G18G17G26G25G12G22G15G09G27
  -1631174.21947  -1222834.15646  24787563.9054   24787587.2244   24787564.9244
        42.0004         38.0004
 -18159449.52248 -14101400.98647  21404735.0404   21404741.4774   21404735.8164
        51.0004         47.0004
   -854264.10746   -660949.32846  24920887.1784   24920891.3884   24920886.2004
        41.0004         37.0004
 -11420361.79647  -8663607.25246  23265533.0424   23265549.8134   23265532.8464
        45.0004         41.0004
 -18917944.49948 -14720028.99647  21941045.3014   21941056.4994   21941044.8554
        52.0004         47.0004
 -25756720.11349 -20021839.77948  20398405.8484   20398410.7484   20398405.4684
        56.0004         52.0004
  -6332956.70347  -4882021.05547  23117634.0704   23117638.6784   23117634.2964
        47.0004         42.0004
 -23072694.11149 -17935608.50448  20941220.8874   20941226.9294   20941220.4744
        54.0004         50.0004
 -17837396.75748 -13885072.22448  21706629.0094   21706634.3494   21706629.0554
        53.0004         48.0004
 -23232379.44948 -18060734.55447  21116346.0154   21116352.5964   21116346.4134
        51.0004         46.0004
 11 10  1  0 15  0.0000000  0  9G30G18G26G25G12G22G15G09G27
  -1727715.03447  -1298060.59446  24769192.7554   24769218.7364   24769193.2194
        42.0004         38.0004
 -18136977.83548 -14083890.63247  21409011.1604   21409017.7724   21409012.0084
        51.0004         47.0004
 -11355322.77747  -8612927.72746  23277910.3984   23277926.9584   23277910.9984
        45.0004         41.0004
 -18996656.31548 -14781362.73948  21926067.1394   21926077.4684   21926066.8354
        52.0004         48.0004
 -25783284.84349 -20042539.54148  20393350.7994   20393355.4754   20393350.4634
        56.0004         52.0004
  -6386097.43247  -4923429.40647  23107521.7504   23107526.3604   23107522.1564
        47.0004         42.0004
 -23035372.47949 -17906526.77848  20948322.6444   20948328.9444   20948322.5524
        54.0004         50.0004
 -17818743.28948 -13870537.06748  21710178.9414   21710184.4154   21710178.7564
        53.0004         48.0004
 -23194920.91248 -18031546.13447  21123474.5684   21123481.1794   21123473.6304
        51.0004         47.0004
 11 10  1  0 15 30.0000000  0 10G30G18G17G26G25G12G22G15G09G27
  -1824084.52247  -1373153.51146  24750852.4434   24750878.1854   24750854.1634
        42.0004         37.0004
 -18113981.12448 -14065971.15947  21413387.8644   21413393.4254   21413388.0694
        51.0004         47.0004
     49150.80058     35321.90956  24937074.4964   24937083.7444   24937075.7684
        51.0004         36.0004
 -11289962.99347  -8561998.27046  23290347.3834   23290364.8804   23290348.2294
        45.0004         41.0004
 -19075002.26648 -14842411.38948  21911157.9934   21911168.8434   21911157.9884
        52.0004         48.0004
 -25809326.99049 -20062832.09148  20388394.9314   20388399.8464   20388394.6564
        56.0004         52.0004
  -6438760.75547  -4964465.74947  23097499.7244   23097505.0864   23097500.7904
        47.0004         42.0004
 -22997635.92649 -17877121.73748  20955503.9614   20955510.0974   20955503.5444
        54.0004         50.0004
 -17800073.35648 -13855989.07248  21713731.3084   21713736.8654   21713731.5454
        53.0004         48.0004
 -23157324.00648 -18002249.86747  21130628.6804   21130635.7154   21130628.6564
        51.0004         46.0004
 11 10  1  0 16  0.0000000  0  9G30G18G26G25G12G22G15G09G27
  -1920282.51846  -1448112.82246  24732550.0594   24732573.9124   24732548.6764
        41.0004         37.0004
 -18090461.99448 -14047644.60847  21417863.1734   21417869.4594   21417863.7294
        51.0004         47.0004
 -11224284.45747  -8510820.45446  23302845.3174   23302861.1074   23302844.8034
        45.0004         40.0004
 -19152982.24048 -14903174.86048  21896318.8644   21896329.5974   21896319.0354
        52.0004         48.0004
 -25834848.62549 -20082719.04948  20383538.3884   20383543.0454   20383537.9494
        56.0004         52.0004
  -6490946.51947  -5005129.96447  23087569.7174   23087573.7864   23087570.5774
        47.0004         42.0004
 -22959485.59549 -17847394.27748  20962763.5194   20962769.9264   20962763.0814
        54.0004         50.0004
 -17781388.54348 -13841429.48548  21717287.0444   21717292.8294   21717286.9754
        53.0004         48.0004
 -23119590.49148 -17972847.16447  21137808.8814   21137816.0434   21137809.5864
        51.0004         46.0004
 11 10  1  0 16 30.0000000  0  9G30G18G26G25G12G22G15G09G27
  -2016305.36246  -1522935.60246  24714273.7184   24714299.3264   24714275.5294
        41.0004         36.0004
 -18066419.79548 -14028910.47847  21422438.7584   21422444.0774   21422438.8574
        51.0004         47.0004
 -11158285.19647  -8459392.74146  23315404.6914   23315421.3684   23315404.1744
        45.0004         40.0004
 -19230592.66148 -14963650.36448  21881550.0344   21881560.7774   21881550.4354
        52.0004         48.0004
 -25859847.16549 -20102198.40148  20378781.2624   20378786.0184   20378780.7934
        56.0004         52.0004
  -6542651.25147  -5045419.34947  23077730.5604   23077736.0364   23077730.8084
        47.0004         42.0004
 -22920919.06449 -17817342.49948  20970102.5794   20970109.1764   20970101.7594
        54.0004         50.0004
 -17762687.44248 -13826857.20848  21720845.6364   21720851.8464   21720845.5584
        53.0004         48.0004
 -23081718.54148 -17943336.58347  21145016.4904   21145022.1924   21145016.2684
        51.0004         46.0004
 11 10  1  0 17  0.0000000  0 10G30G18G17G26G25G12G22G15G09G27
  -2112150.18346  -1597619.63746  24696038.4064   24696059.7694   24696036.7544
        40.0004         36.0004
 -18041855.05548 -14009769.16747  21427112.8964   21427118.6514   21427113.3794
        51.0004         47.0004
  -1459732.26948  -1138611.47346  24962048.2634   24962058.4084   24962047.5514
        48.0004         36.0004
 -11091964.49847  -8407714.56246  23328024.0404   23328043.3114   23328024.4584
        45.0004         41.0004
 -19307830.91148 -15023835.86248  21866851.7394   21866862.5034   21866852.2044
        52.0004         48.0004
 -25884321.73249 -20121269.46248  20374123.8184   20374128.6664   20374123.6124
        56.0004         52.0004
  -6593872.28847  -5085331.84347  23067984.1244   23067988.3084   23067984.3094
        47.0004         42.0004
 -22881935.10449 -17786965.45848  20977521.2074   20977527.5164   20977520.8334
        54.0004         50.0004
 -17743969.41848 -13812271.74348  21724407.5574   21724413.1734   21724407.7914
        53.0004         48.0004
 -23043707.41348 -17913717.55747  21152249.9554   21152255.8004   21152249.6064
        51.0004         46.0004
 11 10  1  0 17 30.0000000  0 10G30G18G17G26G25G12G22G15G09G27
  -3783238.34646  -2899766.02245  24677833.2084   24677858.6624   24677832.4274
        40.0004         35.0004
 -18016772.19548 -13990224.12247  21431886.1494   21431892.1314   21431886.4694
        52.0004         47.0004
  -1415038.73347  -1103785.29746  24970553.1674   24970562.7074   24970555.8884
        44.0004         37.0004
 -11025325.91847  -8355788.66946  23340705.7804   23340724.3204   23340706.4764
        45.0004         41.0004
 -19384698.54648 -15083732.56148  21852224.1994   21852234.7714   21852224.4054
        52.0004         48.0004
 -25908275.03549 -20139934.34748  20369565.6784   20369570.3014   20369565.5144
        56.0004         52.0004
  -6644611.63047  -5124868.98647  23058327.4094   23058332.9434   23058328.5124
        47.0004         42.0004
 -22842536.69849 -17756265.47248  20985018.2264   20985024.7114   20985017.7854
        54.0004         50.0004
 -17725237.84448 -13797675.71648  21727971.9894   21727977.9064   21727972.1184
        53.0004         48.0004
 -23005560.49448 -17883992.71747  21159509.2824   21159514.9774   21159509.1734
        51.0004         46.0004
 11 10  1  0 18  0.0000000  0 10G30G18G17G26G25G12G22G15G09G27
  -3878726.44246  -2974171.99745  24659662.7904   24659683.8684   24659660.2004
        39.0004         35.0004
 -17991170.57148 -13970274.84347  21436758.0344   21436764.0294   21436758.5284
        52.0004         47.0004
  -1369871.54146  -1068590.03946  24979154.3834   24979158.1054   24979152.8854
        41.0004         36.0004
 -10958367.66147  -8303613.69646  23353447.4524   23353466.1564   23353448.3094
        45.0004         41.0004
 -19461192.25948 -15143337.88748  21837667.8964   21837678.4634   21837668.4144
        52.0004         48.0004
 -25931705.53749 -20158191.84848  20365106.8534   20365111.6164   20365106.5984
        56.0004         52.0004
  -6694865.52447  -5164027.85847  23048764.9304   23048769.8704   23048765.9994
        47.0004         42.0004
 -22802721.93149 -17725241.04748  20992594.9664   20992601.3174   20992594.5584
        54.0004         50.0004
 -17706491.52248 -13783068.19748  21731539.7224   21731545.5954   21731539.5304
        53.0004         48.0004
 -22967276.23548 -17854160.86047  21166793.8494   21166800.5864   21166793.9644
        51.0004         46.0004
 11 10  1  0 18 30.0000000  0 10G30G18G17G26G25G12G22G15G09G27
  -3974034.58646  -3048437.68845  24641523.9824   24641548.1304   24641524.9474
        39.0004         34.0004
 -17965054.03848 -13949924.33747  21441728.0844   21441733.6134   21441728.2214
        52.0004         47.0004
  -1324233.77646  -1033028.07646  24987831.2294   24987840.8284   24987833.8204
        41.0004         36.0004
 -10891092.01947  -8251191.41446  23366250.9094   23366268.8464   23366250.8154
        45.0004         40.0004
 -19537312.42948 -15202652.13248  21823182.5904   21823193.1354   21823182.4724
        52.0004         48.0004
 -25954614.68049 -20176043.09548  20360747.5614   20360752.3764   20360747.2504
        56.0004         52.0004
  -6744634.86747  -5202809.16947  23039294.1264   23039299.7494   23039294.7694
        47.0004         42.0004
 -22762492.43649 -17693893.46348  21000250.2714   21000256.7074   21000249.9224
        54.0004         50.0004
 -17687732.49948 -13768450.79248  21735109.3894   21735114.9464   21735109.3954
        53.0004         48.0004
 -22928856.81448 -17824223.68947  21174104.6764   21174111.4554   21174104.4574
        50.0004         46.0004
 11 10  1  0 19  0.0000000  0 10G30G18G17G26G25G12G22G15G09G27
  -4069158.49046  -3122559.74745  24623423.5734   24623447.6154   24623422.9704
        39.0004         34.0004
 -17938421.04748 -13929171.39847  21446795.9054   21446801.6484   21446796.4364
        51.0004         47.0004
  -1278123.80346   -997098.15046  24996609.2554   24996612.4904   24996608.9734
        40.0004         36.0004
 -10823497.06347  -8198520.30646  23379113.4174   23379131.2654   23379113.6074
        45.0004         40.0004
 -19613055.15048 -15261672.27248  21808768.5814   21808779.9794   21808768.9724
        52.0004         48.0004
 -25977000.76949 -20193486.76548  20356487.6304   20356492.3834   20356487.2954
        56.0004         52.0004
  -6793915.60747  -5241209.75447  23029917.1204   23029921.9304   23029917.1714
        47.0004         42.0004
 -22721845.40449 -17662220.52148  21007985.3954   21007991.2584   21007984.9904
        54.0004         49.0004
 -17668958.57148 -13753821.76248  21738681.7384   21738687.8394   21738681.7004
        53.0004         48.0004
 -22890300.09348 -17794179.52447  21181442.0264   21181448.6714   21181442.3844
        50.0004         46.0004
 11 10  1  0 19 30.0000000  0 10G30G18G17G26G25G12G22G15G09G27
  -4164098.68046  -3196538.58445  24605354.8184   24605380.0684   24605355.2924
        39.0004         35.0004
 -17911275.32048 -13908018.91647  21451961.6254   21451967.7384   21451962.1084
        51.0004         47.0004
  -1231544.70246   -960802.69846  25005474.9294   25005479.1514   25005474.1264
        40.0004         36.0004
 -10755585.06447  -8145602.18146  23392037.1604   23392054.2504   23392037.0614
        45.0004         40.0004
 -19688420.98848 -15320398.72948  21794427.4944   21794437.7534   21794427.4644
        52.0004         48.0004
 -25998865.46349 -20210524.15248  20352326.9314   20352331.4574   20352326.5234
        56.0004         52.0004
  -6842708.59147  -5279230.27247  23020632.0564   23020635.6944   23020632.4684
        47.0004         42.0004
 -22680782.83249 -17630223.79048  21015799.3644   21015806.1944   21015799.1514
        54.0004         50.0004
 -17650172.15948 -13739183.01148  21742256.8864   21742262.3504   21742256.9124
        53.0004         48.0004
 -22851608.42448 -17764030.20647  21188804.5224   21188810.8674   21188804.4954
        50.0004         46.0004
 11 10  1  0 20  0.0000000  0 10G30G18G17G26G25G12G22G15G09G27
  -4258853.23646  -3270372.66645  24587321.9514   24587350.6084   24587323.1744
        39.0004         34.0004
 -17883618.54248 -13886468.21547  21457224.8774   21457230.7464   21457225.1074
        51.0004         47.0004
  -1184497.50646   -924142.40245  25014423.9034   25014438.5234   25014424.2454
        40.0004         35.0004
 -10687356.12547  -8092437.08446  23405020.1774   23405039.6974   23405020.9614
        45.0004         40.0004
 -19763408.32448 -15378830.25048  21780157.6854   21780167.7904   21780158.0224
        52.0004         48.0004
 -26020208.60449 -20227155.13548  20348265.4174   20348269.9404   20348264.9844
        56.0004         52.0004
  -6891012.32147  -5316869.55347  23011439.2244   23011444.0694   23011439.7874
        47.0004         42.0004
 -22639304.04949 -17597902.73248  21023692.5224   21023698.9844   21023692.0414
        54.0004         50.0004
 -17631373.48648 -13724534.70348  21745833.7424   21745840.1694   21745833.8954
        53.0004         48.0004
 -22812781.50948 -17733775.49947  21196193.3424   21196199.9554   21196193.3694
        50.0004         46.0004
