     2.11           OBSERVATION DATA    G (GPS)             RINEX VERSION / TYPE
teqc  2016Apr1                          20160930 07:51:16UTCPGM / RUN BY / DATE
Linux 2.4.20-8|Pentium IV|gcc|Linux|486/DX+                 COMMENT
teqc  2016Apr1                          20160816 03:16:38UTCCOMMENT
teqc  2010Oct21                         20111002 00:04:12UTCCOMMENT
Solaris 5.9|UltraSparc IIe|cc SC5.8|=+-|*Sparc              COMMENT
teqc  2010Oct21                         20111001 01:04:16UTCCOMMENT
teqc  2010Oct21                         20111001 00:17:31UTCCOMMENT
teqc  2010Oct21                         20111001 00:16:01UTCCOMMENT
Linux 2.4.20-8|Pentium IV|gcc -static|Linux|486/DX+         COMMENT
BIT 2 OF LLI FLAGS DATA COLLECTED UNDER A/S CONDITION       COMMENT
 SNR is mapped to RINEX snr flag value [0-9]                COMMENT
  L1 & L2: min(max(int(snr_dBHz/6), 0), 9)                  COMMENT
Forced Modulo Decimation to 30 seconds                      COMMENT
Forced Modulo Decimation to 30 seconds                      COMMENT
teqc.bin edited: all SBAS satellites excluded               COMMENT
PERT                                                        MARKER NAME
50133M001                                                   MARKER NUMBER
AUTOMATIC           ESA/ESOC                                OBSERVER / AGENCY
UC2200439009        ASHTECH UZ-12       CN00                REC # / TYPE / VERS
CR620023901         ASH701945C_M    NONE                    ANT # / TYPE
 -2368686.9633  4881316.5279 -3341796.1815                  APPROX POSITION XYZ
        0.0595        0.0000        0.0000                  ANTENNA: DELTA H/E/N
     1     1                                                WAVELENGTH FACT L1/2
     7    L1    L2    C1    P2    P1    S1    S2            # / TYPES OF OBSERV
    30.0000                                                 INTERVAL
teqc windowed: start @ 2011 Oct  1 00:10:00.000             COMMENT
teqc windowed:  end  @ 2011 Oct  1 00:20:00.000             COMMENT
  2011    10     1     0    10    0.0000000     GPS         TIME OF FIRST OBS
                                                            END OF HEADER
 11 10  1  0 10  0.0000000  0  9G19G06G14G20G11G32G01G22G03
 108620385.15348  84639252.49248  20669778.3664   20669781.7634   20669777.9274
        51.0004         48.0004
 123136886.42347  95950782.77546  23432198.3674   23432206.7444   23432198.9834
        44.0004         38.0004
 113663415.56648  88568875.61247  21629445.1934   21629449.6474   21629444.5354
        49.0004         44.0004
 123581480.55747  96297225.93046  23516799.9864   23516805.7754   23516799.5784
        44.0004         39.0004
 114424975.63448  89162301.09547  21774359.4134   21774363.4774   21774358.9874
        51.0004         45.0004
 114566458.04448  89272536.99647  21801292.5914   21801298.9074   21801292.9944
        49.0004         44.0004
 119246701.36747  92919481.02647  22691912.7994   22691920.8354   22691912.6864
        47.0004         43.0004
 123780689.80747  96452474.54946  23554688.7144   23554693.7094   23554687.5464
        43.0004         39.0004
 115941026.93447  90343624.68746  22062868.8314   22062875.9094   22062868.5574
        47.0004         41.0004
 11 10  1  0 10 30.0000000  0  9G19G06G14G20G11G32G01G22G03
 108658717.94448  84669122.15448  20677073.1904   20677076.0344   20677072.5354
        51.0004         48.0004
 123246940.79247  96036539.29346  23453141.5464   23453149.7664   23453141.1484
        43.0004         38.0004
 113717794.32048  88611248.62547  21639792.7514   21639798.2874   21639792.1024
        50.0004         44.0004
 123518049.57547  96247799.20246  23504728.9004   23504735.5044   23504728.8524
        44.0004         39.0004
 114358520.47948  89110517.85347  21761714.2024   21761717.4784   21761714.3064
        51.0004         45.0004
 114519591.36448  89236017.52047  21792374.6804   21792379.7184   21792374.2394
        49.0004         44.0004
 119171167.11547  92860623.18447  22677539.5664   22677547.2134   22677538.5654
        47.0004         43.0004
 123864089.55347  96517461.24846  23570559.6884   23570563.6904   23570558.5544
        44.0004         38.0004
 116030121.99647  90413049.31246  22079823.1794   22079829.8474   22079823.5114
        47.0004         41.0004
 11 10  1  0 11  0.0000000  0  9G19G06G14G20G11G32G01G22G03
 108697635.13848  84699447.19348  20684479.1934   20684481.7524   20684478.4314
        51.0004         48.0004
 123357124.03847  96122396.22546  23474108.3614   23474116.3004   23474108.5434
        43.0004         39.0004
 113772711.45348  88654041.16047  21650242.8774   21650247.7644   21650242.6394
        49.0004         44.0004
 123454786.32347  96198503.17846  23492689.9744   23492695.3844   23492690.1144
        44.0004         39.0004
 114292268.80748  89058893.17047  21749106.3234   21749110.6504   21749106.7164
        51.0004         45.0004
 114472985.74048  89199701.47047  21783505.5494   21783511.3144   21783505.2794
        49.0004         44.0004
 119095699.44547  92801817.21247  22663176.4154   22663185.8594   22663177.0964
        46.0004         43.0004
 123947497.91747  96582454.68546  23586431.2344   23586435.0874   23586430.9064
        43.0004         38.0004
 116119497.99047  90482692.84346  22096830.9574   22096836.8004   22096830.4964
        47.0004         41.0004
 11 10  1  0 11 30.0000000  0  9G19G06G14G20G11G32G01G22G03
 108737135.44548  84730226.60548  20691995.3584   20691998.8614   20691995.1454
        52.0004         48.0004
 123467433.06447  96208351.18546  23495099.2974   23495108.8964   23495100.7864
        43.0004         39.0004
 113828164.91048  88697251.60447  21660795.7754   21660799.7544   21660795.6384
        49.0004         44.0004
 123391690.67247  96149337.79346  23480684.5054   23480688.2694   23480683.0544
        45.0004         39.0004
 114226222.62748  89007428.61247  21736538.4204   21736541.7384   21736538.0234
        51.0004         45.0004
 114426640.87348  89163588.60547  21774686.1374   21774691.8074   21774686.1514
        49.0004         44.0004
 119020300.57247  92743064.85547  22648829.0064   22648837.9614   22648829.6024
        46.0004         43.0004
 124030914.12147  96647454.22946  23602306.1124   23602309.6014   23602305.1734
        45.0004         39.0004
 116209151.93047  90552552.95846  22113891.1114   22113899.0374   22113891.8314
        47.0004         41.0004
 11 10  1  0 12  0.0000000  0  9G19G06G14G20G11G32G01G22G03
 108777217.42048  84761459.25048  20699622.5964   20699626.4094   20699621.8294
        51.0004         48.0004
 123577865.30047  96294402.12246  23516115.3924   23516123.1954   23516115.0574
        43.0004         39.0004
 113884152.37048  88740878.15747  21671450.3064   21671454.0934   21671449.8494
        49.0004         44.0004
 123328762.46247  96100302.85146  23468709.7804   23468713.6224   23468708.8734
        45.0004         39.0004
 114160384.03048  88956125.80647  21724009.2644   21724012.4064   21724009.3684
        51.0004         45.0004
 114380556.60748  89127678.80947  21765916.8574   21765922.9134   21765916.9324
        49.0004         44.0004
 118944971.13247  92684366.59547  22634494.5434   22634504.0134   22634495.9024
        47.0004         43.0004
 124114337.15647  96712459.08346  23618179.9194   23618185.1324   23618179.9604
        45.0004         40.0004
 116299081.43947  90622627.80546  22131004.6824   22131012.2344   22131004.1194
        47.0004         41.0004
 11 10  1  0 12 30.0000000  0  9G19G06G14G20G11G32G01G22G03
 108817879.97848  84793144.31048  20707360.8174   20707364.0354   20707360.1114
        52.0004         48.0004
 123688417.72147  96380546.73346  23537153.4324   23537160.0314   23537151.3054
        44.0004         38.0004
 113940671.46648  88784918.97647  21682205.5064   21682210.2154   21682205.0174
        49.0004         44.0004
 123266001.30847  96051398.05746  23456765.5744   23456770.2454   23456764.9114
        43.0004         39.0004
 114094754.86648  88904986.18847  21711520.2704   21711524.4554   21711519.6394
        51.0004         45.0004
 114334732.66048  89091971.83747  21757197.3884   21757203.6124   21757197.0564
        50.0004         44.0004
 118869714.13747  92625724.77947  22620174.0634   22620182.3364   22620173.2104
        46.0004         43.0004
 124197766.10847  96777468.53646  23634057.2764   23634060.7134   23634055.8864
        45.0004         40.0004
 116389283.54547  90692915.06346  22148169.6804   22148176.6184   22148170.0094
        47.0004         41.0004
 11 10  1  0 13  0.0000000  0  9G19G06G14G20G11G32G01G22G03
 108859121.74348  84825280.69648  20715209.1094   20715211.8394   20715208.2534
        52.0004         48.0004
 123799087.68347  96466782.91346  23558212.5054   23558220.6334   23558212.5744
        43.0004         38.0004
 113997720.15948  88829372.47147  21693060.5444   21693065.5864   21693060.4894
        49.0004         44.0004
 123203407.10047  96002623.35346  23444853.9844   23444859.4624   23444852.7744
        44.0004         39.0004
 114029337.30848  88854011.46847  21699072.0164   21699075.5574   21699072.1784
        51.0004         45.0004
 114289168.80948  89056467.55347  21748526.0614   21748531.7434   21748526.7574
        49.0004         44.0004
 118794529.42147  92567139.29747  22605866.9964   22605874.2264   22605866.8304
        47.0004         43.0004
 124281200.30247  96842482.07546  23649934.5164   23649938.3924   23649933.4314
        44.0004         40.0004
 116479755.65147  90763412.70846  22165386.2434   22165392.2074   22165386.3104
        47.0004         41.0004
 11 10  1  0 13 30.0000000  0  9G19G06G14G20G11G32G01G22G03
 108900941.40048  84857867.39048  20723166.9474   20723169.7924   20723166.2174
        51.0004         48.0004
 123909872.20347  96553108.35546  23579291.8584   23579301.7774   23579292.8344
        42.0004         38.0004
 114055296.10048  88874236.79847  21704017.6074   21704022.7834   21704018.1374
        50.0004         44.0004
 123140979.45047  95953978.47446  23432974.0074   23432981.2094   23432974.4984
        43.0004         39.0004
 113964133.37948  88803203.21047  21686664.6794   21686667.2664   21686663.7664
        51.0004         45.0004
 114243864.86248  89021165.79747  21739905.4274   21739911.0844   21739905.1714
        49.0004         44.0004
 118719418.20047  92508611.07347  22591573.4644   22591581.6794   22591574.5554
        47.0004         43.0004
 124364638.84647  96907499.02846  23665812.3264   23665816.3114   23665812.3954
        45.0004         39.0004
 116570494.66847  90834118.34146  22182653.2664   22182659.6394   22182651.2254
        47.0004         41.0004
 11 10  1  0 14  0.0000000  0  9G19G06G14G20G11G32G01G22G03
 108943337.66748  84890903.38848  20731234.9884   20731237.3864   20731233.8844
        52.0004         48.0004
 124020768.71047  96639521.06246  23600396.5634   23600404.1134   23600395.4824
        43.0004         38.0004
 114113397.46048  88919510.53347  21715074.1874   21715079.2754   21715073.2094
        49.0004         44.0004
 123078718.62847  95905463.61646  23421127.0394   23421133.0224   23421126.2674
        44.0004         39.0004
 113899145.14848  88752563.02747  21674297.3264   21674301.4524   21674296.9314
        51.0004         45.0004
 114198820.51148  88986066.31847  21731334.2904   21731339.5154   21731333.6354
        50.0004         44.0004
 118644382.56747  92450141.75947  22577294.8094   22577302.9914   22577294.1454
        47.0004         43.0004
 124448080.36747  96972518.30546  23681689.7584   23681694.4764   23681690.1974
        44.0004         39.0004
 116661497.97547  90905029.90946  22199970.9464   22199977.6234   22199969.3854
        47.0004         41.0004
 11 10  1  0 14 30.0000000  0  9G19G06G14G20G11G32G01G22G03
 108986308.88348  84924387.40448  20739412.1054   20739415.3134   20739411.0444
        51.0004         48.0004
 124131774.35747  96726018.82746  23621520.6704   23621527.3684   23621521.0424
        44.0004         38.0004
 114172021.60348  88965191.64247  21726229.7414   21726234.3824   21726229.2724
        49.0004         44.0004
 123016624.15947  95857078.31346  23409310.3524   23409316.0644   23409309.0194
        43.0004         39.0004
 113834374.34248  88702092.27047  21661971.3634   21661974.9604   21661972.0784
        50.0004         45.0004
 114154035.51348  88951168.93647  21722811.3754   21722815.7954   21722810.7124
        49.0004         44.0004
 118569424.39347  92391732.79447  22563030.5094   22563038.8444   22563030.6494
        47.0004         43.0004
 124531524.57347  97037539.65646  23697568.5074   23697572.3304   23697568.3054
        44.0004         39.0004
 116752762.69847  90976145.18346  22217337.7234   22217344.7974   22217336.1954
        47.0004         41.0004
                            4  1
other post-header comments skipped                          COMMENT
 11 10  1  0 15  0.0000000  0  9G19G06G14G20G11G32G01G22G03
 109029854.22448  84958318.78348  20747698.2274   20747701.7804   20747698.1794
        51.0004         48.0004
 124242886.41947  96812599.51546  23642663.6224   23642672.4104   23642664.2234
        44.0004         38.0004
 114231166.17248  89011278.27047  21737484.0964   21737489.1944   21737484.7444
        49.0004         44.0004
 122954695.88147  95808822.56246  23397526.1124   23397531.8644   23397526.3014
        44.0004         39.0004
 113769823.16048  88651792.62947  21649688.0744   21649692.6084   21649688.5014
        51.0004         45.0004
 114109509.71348  88916473.51347  21714338.9004   21714343.1144   21714338.2954
        50.0004         44.0004
 118494544.51647  92333384.83547  22548781.5714   22548790.0074   22548782.3124
        47.0004         43.0004
 124614970.38847  97102562.25546  23713448.5664   23713452.6264   23713448.1884
        44.0004         39.0004
 116844285.93947  91047461.89046  22234753.9854   22234760.4834   22234754.1674
        47.0004         41.0004
 11 10  1  0 15 30.0000000  0  9G19G06G14G20G11G32G01G22G03
 109073971.95448  84992696.19048  20756093.2264   20756096.9514   20756093.2404
        51.0004         48.0004
 124354102.04647  96899260.89046  23663828.3764   23663837.2654   23663829.4434
        44.0004         38.0004
 114290829.22848  89057768.93047  21748836.8774   21748844.0644   21748836.0704
        49.0004         44.0004
 122892933.61947  95760696.13746  23385772.6364   23385779.4854   23385773.3904
        44.0004         39.0004
 113705493.47848  88601665.60647  21637447.0234   21637450.4564   21637446.9824
        51.0004         45.0004
 114065242.76748  88881979.80447  21705914.6304   21705919.9524   21705914.0414
        49.0004         44.0004
 118419744.59547  92275099.19747  22534547.1794   22534555.9714   22534547.6584
        47.0004         43.0004
 124698416.81347  97167585.30846  23729327.4054   23729332.2404   23729327.3764
        44.0004         39.0004
 116936064.94747  91118977.90046  22252219.5854   22252226.8494   22252219.0974
        47.0004         41.0004
 11 10  1  0 16  0.0000000  0  9G19G06G14G20G11G32G01G22G03
 109118660.42248  85027518.32248  20764597.5984   20764601.2094   20764597.1994
        51.0004         48.0004
 124465418.56347  96986000.88846  23685011.9494   23685020.1794   23685011.7024
        44.0004         38.0004
 114351008.01748  89104661.45147  21760289.3074   21760295.1074   21760288.8784
        49.0004         44.0004
 122831337.02947  95712698.80546  23374051.9204   23374056.7924   23374051.8144
        44.0004         39.0004
 113641387.33548  88551712.77147  21625247.2774   21625251.2774   21625247.5614
        51.0004         45.0004
 114021234.31948  88847687.50447  21697540.3664   21697544.7624   21697540.4724
        50.0004         44.0004
 118345026.10747  92216876.98947  22520329.3584   22520337.9594   22520329.8134
        47.0004         43.0004
 124781863.04447  97232608.24946  23745206.6834   23745212.4684   23745206.3474
        44.0004         39.0004
 117028097.08647  91190691.14546  22269731.7024   22269738.1094   22269730.9884
        46.0004         41.0004
 11 10  1  0 16 30.0000000  0  9G19G06G14G20G11G32G01G22G03
 109163918.50248  85062784.29748  20773210.3284   20773213.1584   20773209.3584
        51.0004         48.0004
 124576832.99547  97072817.16546  23706213.1124   23706223.1854   23706212.8324
        44.0004         38.0004
 114411700.41748  89151954.17747  21771838.5164   21771843.2804   21771838.5394
        49.0004         43.0004
 122769906.17447  95664830.66246  23362361.3894   23362366.1754   23362360.4174
        43.0004         39.0004
 113577506.76848  88501935.69547  21613091.7144   21613095.7854   21613091.5094
        51.0004         45.0004
 113977484.26848  88813596.55647  21689215.1954   21689220.7684   21689214.0314
        50.0004         44.0004
 118270391.17747  92158719.89647  22506126.3024   22506135.0474   22506126.2624
        47.0004         43.0004
 124865308.25647  97297630.38746  23761087.0844   23761091.0194   23761084.6444
        44.0004         38.0004
 117120379.46547  91262599.36646  22287292.3574   22287300.8174   22287293.2184
        46.0004         41.0004
 11 10  1  0 17  0.0000000  0  9G19G06G14G20G11G32G01G22G03
 109209744.52848  85098492.82948  20781930.6204   20781933.7954   20781929.9264
        51.0004         48.0004
 124688342.74747  97159707.72946  23727432.7564   23727440.7794   23727433.0484
        44.0004         38.0004
 114472904.00948  89199645.24847  21783485.0734   21783490.2624   21783485.5244
        49.0004         43.0004
 122708640.71147  95617091.37046  23350703.7224   23350707.8374   23350702.8934
        45.0004         39.0004
 113513853.89548  88452336.05747  21600979.1414   21600983.0464   21600979.0844
        51.0004         45.0004
 113933992.28348  88779706.70647  21680938.3194   21680943.8774   21680937.9214
        50.0004         44.0004
 118195840.31048  92100628.32047  22491940.1944   22491948.8844   22491939.9354
        48.0004         43.0004
 124948751.76947  97362651.20346  23776964.6414   23776968.3874   23776964.3634
        43.0004         38.0004
 117212909.39847  91334700.50046  22304900.9774   22304907.2584   22304900.8514
        46.0004         40.0004
 11 10  1  0 17 30.0000000  0  9G19G06G14G20G11G32G01G22G03
 109256136.84048  85134642.62648  20790758.5734   20790761.6494   20790758.1584
        51.0004         48.0004
 124799944.93947  97246670.32846  23748670.9254   23748678.0714   23748671.1584
        44.0004         38.0004
 114534616.69148  89247733.01747  21795228.8184   21795234.8654   21795228.5804
        48.0004         44.0004
 122647540.13047  95569480.51246  23339075.0744   23339081.8364   23339075.5834
        43.0004         39.0004
 113450430.74848  88402915.41547  21588909.6994   21588913.5564   21588909.2234
        51.0004         45.0004
 113890758.03648  88746017.69547  21672711.9684   21672716.8824   21672710.4324
        50.0004         45.0004
 118121375.25447  92042603.61447  22477769.4754   22477778.3404   22477769.4564
        47.0004         43.0004
 125032192.45347  97427669.82346  23792842.3874   23792846.6814   23792842.4074
        42.0004         38.0004
 117305683.96147  91406992.24546  22322554.5004   22322561.9354   22322554.7474
        46.0004         40.0004
 11 10  1  0 18  0.0000000  0  9G19G06G14G20G11G32G01G22G03
 109303094.09448  85171232.63648  20799694.1604   20799697.7844   20799694.0834
        51.0004         48.0004
 124911636.86247  97333702.85946  23769924.5894   23769933.7134   23769924.7804
        42.0004         38.0004
 114596835.85248  89296215.42347  21807069.5224   21807074.0704   21807068.5794
        49.0004         44.0004
 122586604.29647  95521998.07646  23327480.2214   23327486.4334   23327479.5544
        43.0004         39.0004
 113387239.33448  88353675.34947  21576885.2064   21576888.3974   21576884.1034
        51.0004         46.0004
 113847781.32248  88712529.35247  21664533.0694   21664538.9074   21664532.7974
        49.0004         44.0004
 118046997.94347  91984647.27647  22463616.1264   22463624.8834   22463616.1024
        47.0004         43.0004
 125115629.87747  97492685.90746  23808721.7444   23808725.4674   23808719.9044
        43.0004         38.0004
 117398700.15947  91479472.28846  22340255.8424   22340263.2984   22340255.6584
        47.0004         40.0004
 11 10  1  0 18 30.0000000  0  9G19G06G14G20G11G32G01G22G03
 109350614.51548  85208261.48448  20808737.7774   20808740.8994   20808736.7314
        52.0004         48.0004
 125023415.93747  97420803.25246  23791194.2024   23791203.6454   23791195.9354
        42.0004         38.0004
 114659559.22248  89345090.72547  21819005.6384   21819009.1804   21819004.7194
        49.0004         44.0004
 122525833.20347  95474644.01846  23315915.7494   23315921.1634   23315915.5304
        44.0004         39.0004
 113324281.51248  88304617.30547  21564904.8494   21564908.1044   21564903.9404
        51.0004         46.0004
 113805061.82848  88679241.44847  21656404.2664   21656408.8334   21656402.9774
        50.0004         44.0004
 117972709.47747  91926760.17047  22449480.1954   22449487.8414   22449480.4724
        47.0004         43.0004
 125199062.97247  97557698.58946  23824597.8444   23824602.1714   23824597.2874
        43.0004         38.0004
 117491955.23547  91552138.46246  22358001.5904   22358009.3824   22358001.4134
        46.0004         40.0004
 11 10  1  0 19  0.0000000  0  9G19G06G14G20G11G32G01G22G03
 109398696.57548  85245727.96248  20817887.1874   20817890.4364   20817886.4524
        51.0004         48.0004
 125135279.28446  97507969.33746  23812482.3814   23812492.0434   23812481.7334
        41.0004         37.0004
 114722784.27348  89394356.95847  21831036.1654   21831041.3594   21831036.1364
        49.0004         43.0004
 122465226.64347  95427418.16246  23304382.5504   23304388.3444   23304382.6514
        44.0004         39.0004
 113261559.53948  88255743.03947  21552968.7774   21552973.1814   21552968.4054
        51.0004         46.0004
 113762599.37248  88646153.80447  21648323.2204   21648328.9874   21648324.6234
        50.0004         44.0004
 117898511.48947  91868943.56547  22435360.0774   22435369.3434   22435359.6704
        47.0004         43.0004
 125282491.13747  97622707.44346  23840475.2944   23840478.6244   23840474.0374
        44.0004         38.0004
 117585446.39747  91624988.58046  22375793.6364   22375799.8474   22375792.3174
        46.0004         40.0004
 11 10  1  0 19 30.0000000  0 10G19G06G14G20G11G32G31G01G22G03
 109447338.90048  85283631.00248  20827143.9954   20827146.6834   20827142.9574
        51.0004         48.0004
 125247224.10747  97595198.92446  23833785.4394   23833793.4534   23833784.5314
        42.0004         37.0004
 114786508.46948  89444012.13547  21843162.7834   21843167.9394   21843162.9474
        49.0004         43.0004
 122404784.30247  95380320.24946  23292880.4634   23292887.6964   23292880.3484
        44.0004         39.0004
 113199075.30148  88207054.02147  21541078.4034   21541081.8064   21541078.7614
        51.0004         46.0004
 113720393.45948  88613266.08147  21640292.6064   21640297.6974   21640291.8994
        50.0004         44.0004
 129229665.71047 100698413.17646  24591605.8994   24591613.3804   24591607.3334
        43.0004         36.0004
 117824405.86747  91811198.94447  22421258.0154   22421267.1844   22421257.9414
        47.0004         43.0004
 125365913.37747  97687711.68546  23856348.8474   23856353.5934   23856349.0874
        44.0004         38.0004
 117679171.11847  91698020.71746  22393628.3264   22393636.6974   22393628.1724
        46.0004         40.0004
 11 10  1  0 20  0.0000000  0 10G19G06G14G20G11G32G31G01G22G03
 109496539.20948  85321968.84148  20836506.1164   20836509.0194   20836505.6144
        51.0004         48.0004
 125359247.46546  97682489.68646  23855102.8644   23855112.0294   23855102.3574
        41.0004         37.0004
 114850729.66248  89494054.58047  21855383.8054   21855388.8094   21855383.8604
        48.0004         43.0004
 122344505.63247  95333349.91046  23281410.8224   23281416.2594   23281409.4744
        44.0004         39.0004
 113136830.85648  88158551.85447  21529233.5264   21529237.4484   21529232.5724
        51.0004         46.0004
 113678443.91548  88580578.13547  21632308.5374   21632315.0614   21632310.4044
        49.0004         44.0004
 129150935.26547 100637064.85346  24576625.2504   24576631.3254   24576624.8504
        44.0004         37.0004
 117750393.56847  91753527.03047  22407173.9284   22407182.4844   22407174.1144
        47.0004         43.0004
 125449328.86947  97752710.67546  23872221.9154   23872226.7114   23872222.5584
        43.0004         38.0004
 117773125.92247  91771232.13046  22411507.0284   22411514.7424   22411506.5394
        46.0004         40.0004
