     2.11           OBSERVATION DATA    M (MIXED)           RINEX VERSION / TYPE
teqc  2016Apr1                          20160930 07:51:15UTCPGM / RUN BY / DATE
Linux 2.4.20-8|Pentium IV|gcc|Linux|486/DX+                 COMMENT
teqc  2016Apr1                          20160816 03:30:08UTCCOMMENT
teqc  2010Oct21                         20111002 00:03:56UTCCOMMENT
Solaris 5.9|UltraSparc IIe|cc SC5.8|=+-|*Sparc              COMMENT
teqc  2010Oct21                         20111001 01:03:57UTCCOMMENT
teqc  2010Oct21                         20111001 00:17:29UTCCOMMENT
teqc  2011Jul26                         20111001 00:16:01UTCCOMMENT
Linux 2.4.20-8|Pentium IV|gcc -static|Linux|486/DX+         COMMENT
BIT 2 OF LLI FLAGS DATA COLLECTED UNDER A/S CONDITION       COMMENT
 SNR is mapped to RINEX snr flag value [0-9]                COMMENT
  L1 & L2: min(max(int(snr_dBHz/6), 0), 9)                  COMMENT
pseudorange smoothing corrections not applied               COMMENT
Forced Modulo Decimation to 30 seconds                      COMMENT
Forced Modulo Decimation to 30 seconds                      COMMENT
teqc.bin edited: all SBAS satellites excluded               COMMENT
KOUR                                                        MARKER NAME
97301M210                                                   MARKER NUMBER
AUTOMATIC           ESA/ESOC                                OBSERVER / AGENCY
340-0863            JPS LEGACY          3.4                 REC # / TYPE / VERS
CR420033512         ASH701946.3     NONE                    ANT # / TYPE
  3839591.4332 -5059567.5514   579956.9164                  APPROX POSITION XYZ
        0.0450        0.0000        0.0000                  ANTENNA: DELTA H/E/N
     1     1                                                WAVELENGTH FACT L1/2
     7    L1    L2    C1    P2    P1    S1    S2            # / TYPES OF OBSERV
    30.0000                                                 INTERVAL
teqc windowed: start @ 2011 Oct  1 00:10:00.000             COMMENT
teqc windowed:  end  @ 2011 Oct  1 00:20:00.000             COMMENT
  2011    10     1     0    10    0.0000000     GPS         TIME OF FIRST OBS
    15                                                      LEAP SECONDS
                                                            END OF HEADER
 11 10  1  0 10  0.0000000  0 20G17R12R13R24G15G27G09G07G08R14G05G02
                                G12G10R17R02R03R18G04G26
 123943266.656 6  96579042.35944  23585545.432    23585551.366    23585545.710
        41.000          29.0004
 125691808.078 7  97760317.210 7  23529766.002    23529773.236    23529765.878
        46.000          43.000
 119445501.889 8  92902080.674 7  22368274.763    22368277.589    22368274.259
        48.000          45.000
 110615453.747 8  86034269.469 7  20685605.496    20685609.072    20685604.845
        48.000          44.000
 115673139.849 8  90134960.01947  22011853.737    22011861.873    22011853.760
        50.000          43.0004
 124893655.719 6  97319771.44544  23766458.219    23766463.611    23766457.480
        40.000          24.0004
 136857132.991 5 106641942.32143  26043047.732    26043054.252    26043047.196
        35.000          19.0004
 133204013.582 6 103795347.85243  25347887.907    25347897.477    25347887.863
        38.000          23.0004
 126652713.908 7  98690441.13744  24101209.066    24101218.063    24101208.829
        43.000          28.0004
 127124990.279 6                  23848321.715
        40.000
 119879545.778 7  93412472.39646  22812282.815    22812293.493    22812282.682
        44.000          36.0004
 112266171.543 8  87480167.97747  21363533.435    21363541.087    21363532.851
        51.000          43.0004
 130043584.049 6 101332820.99343  24746491.092    24746501.499    24746491.302
        39.000          21.0004
 127774210.771 5  99564165.71041  24314599.755    24314616.265    24314597.064
        33.000           7.0004
 104566519.623 8  81329529.197 7  19540745.231    19540749.902    19540743.906
        53.000          47.000
 124057208.597 7  96488997.384 7  23248235.153    23248245.421    23248234.058
        46.000          45.000
 126232564.578 6  98180930.684 6  23672564.746    23672574.488    23672566.476
        38.000          40.000
 121831683.792 7  94757963.297 7  22823184.231    22823195.796    22823183.769
        47.000          45.000
 116390047.244 8  90693625.08746  22148237.262    22148243.354    22148236.951
        50.000          40.0004
 106212216.948 8  82762834.82847  20211478.052    20211486.334    20211477.711
        53.000          46.0004
 11 10  1  0 10 30.0000000  0 20G17R12R13R24G15G27G09G07G08R14G05G02
                                G12G10R17R02R03R18G04G26
 124048914.612 7  96661365.46144  23605649.627    23605655.631    23605649.907
        43.000          27.0004
 125689454.599 7  97758486.131 6  23529325.254    23529333.431    23529324.655
        46.000          41.000
 119385216.924 7  92855192.404 7  22356985.705    22356988.210    22356984.850
        47.000          44.000
 110710972.663 7  86108561.492 8  20703467.634    20703471.809    20703467.514
        47.000          48.000
 115606480.676 8  90083017.72546  21999169.473    21999177.129    21999169.430
        48.000          38.0004
 124803296.698 6  97249361.64944  23749263.218    23749268.585    23749262.511
        39.000          24.0004
 136783237.913 5 106584361.27942  26028987.364    26028993.607    26028985.424
        34.000          15.0004
 133246497.829 6 103828452.28544  25355972.166    25355982.131    25355972.337
        36.000          24.0004
 126660187.406 6  98696264.24344  24102631.515    24102640.469    24102630.980
        41.000          26.0004
 127044383.979 6                  23833199.563
        40.000
 119899772.842 8  93428233.61446  22816131.913    22816142.525    22816132.067
        48.000          38.0004
 112208409.526 8  87435158.79447  21352541.856    21352549.188    21352541.261
        51.000          43.0004
 130056551.190 6 101342925.93643  24748957.667    24748968.405    24748957.107
        37.000          20.0004
 127819865.963 6  99599740.78342  24323287.538    24323304.023    24323287.548
        36.000          14.0004
 104540411.051 8  81309222.654 7  19535866.141    19535870.661    19535864.979
        53.000          47.000
 124118006.514 7  96536284.607 7  23259629.366    23259638.077    23259628.242
        47.000          44.000
 126153071.815 6  98119103.377 6  23657658.617    23657665.434    23657658.745
        40.000          40.000
 121718300.991 7  94669776.518 7  22801944.307    22801955.664    22801943.701
        46.000          45.000
 116403272.034 8  90703930.05646  22150753.549    22150760.037    22150753.496
        48.000          40.0004
 106188091.030 8  82744035.35047  20206887.180    20206895.462    20206886.904
        53.000          47.0004
 11 10  1  0 11  0.0000000  0 20G17R12R13R24G15G27G09G07G08R14G05G02
                                G12G10R17R02R03R18G04G26
 124154647.022 6  96743753.94045  23625770.349    23625776.488    23625770.522
        40.000          30.0004
 125687530.300 7  97756989.077 7  23528964.831    23528973.716    23528965.018
        43.000          43.000
 119325063.414 7  92808406.301 7  22345720.463    22345723.662    22345720.015
        47.000          43.000
 110806988.732 8  86183240.161 7  20721423.657    20721427.436    20721423.004
        51.000          44.000
 115540250.190 8  90031409.48347  21986566.088    21986573.747    21986566.025
        50.000          43.0004
 124712823.631 6  97178862.83143  23732047.311    23732052.322    23732047.006
        39.000          23.0004
 136709057.424 4 106526558.64742  26014869.794    26014879.155    26014869.798
        29.000          15.0004
 133289329.907 6 103861827.76844  25364122.092    25364133.393    25364122.394
        40.000          24.0004
 126667983.426 7  98702338.72844  24104114.694    24104123.977    24104114.581
        42.000          25.0004
 126963488.831 6                  23818024.002
        38.000
 119919918.825 7  93443931.64245  22819966.223    22819976.233    22819965.985
        43.000          33.0004
 112150825.271 8  87390288.25147  21341583.583    21341590.915    21341582.963
        52.000          43.0004
 130069542.721 7 101353048.95643  24751430.479    24751439.529    24751430.066
        46.000          20.0004
 127865337.310 6  99635172.75042  24331941.060    24331957.705    24331939.689
        38.000          15.0004
 104515080.875 8  81289521.520 7  19531132.733    19531137.002    19531131.498
        53.000          47.000
 124178553.054 7  96583376.516 7  23270975.777    23270984.415    23270974.385
        47.000          45.000
 126073306.995 6  98057064.440 7  23642700.545    23642706.665    23642700.799
        39.000          42.000
 121605223.272 7  94581827.026 7  22780759.553    22780772.501    22780759.873
        46.000          45.000
 116416807.069 8  90714476.91246  22153329.231    22153335.462    22153329.171
        49.000          39.0004
 106164579.520 9  82725714.67947  20202413.156    20202421.271    20202412.782
        54.000          47.0004
 11 10  1  0 11 30.0000000  0 20G17R12R13R24G15G27G09G07G08R14G05G02
                                G12G10R17R02R03R18G04G26
 124260462.536 7  96826207.32944  23645906.807    23645912.142    23645906.881
        42.000          27.0004
 125686037.598 7  97755827.925 7  23528686.378    23528694.127    23528685.832
        46.000          43.000
 119265045.638 8  92761725.884 7  22334481.887    22334484.312    22334480.872
        48.000          45.000
 110903499.250 8  86258303.956 8  20739471.225    20739475.568    20739471.145
        52.000          49.000
 115474450.123 7  89980136.70046  21974044.456    21974052.270    21974044.362
        47.000          39.0004
 124622239.611 7  97108277.81044  23714809.816    23714815.069    23714809.286
        43.000          25.0004
 136634590.811 5 106468532.84541  26000699.370    26000706.465    26000699.191
        32.000           7.0004
 133332508.973 7 103895473.69143  25372340.114    25372349.257    25372339.529
        42.000          19.0004
 126676103.023 7  98708665.47444  24105660.688    24105668.998    24105660.037
        42.000          25.0004
 126882307.801 6                  23802793.332
        39.000
 119939982.233 7  93459565.12245  22823783.613    22823794.677    22823783.780
        44.000          33.0004
 112093422.348 9  87345559.24547  21330659.890    21330666.899    21330659.223
        54.000          46.0004
 130082560.025 7 101363191.98243  24753907.410    24753917.657    24753906.742
        45.000          20.0004
 127910624.570 5  99670461.32742  24340558.840    24340575.987    24340558.734
        35.000          15.0004
 104490530.646 8  81270427.042 7  19526544.602    19526549.010    19526543.323
        53.000          47.000
 124238846.090 8  96630270.994 7  23282274.211    23282284.029    23282273.086
        48.000          46.000
 125993271.640 6  97994814.760 6  23627690.604    23627697.863    23627691.212
        39.000          39.000
 121492454.670 7  94494117.957 7  22759635.278    22759647.065    22759635.130
        47.000          45.000
 116430653.265 8  90725266.26646  22155963.913    22155970.088    22155963.769
        51.000          40.0004
 106141683.224 8  82707873.45547  20198056.025    20198064.237    20198055.744
        53.000          46.0004
 11 10  1  0 12  0.0000000  0 20G17R12R13R24G15G27G09G07G08R14G05G02
                                G12G10R17R02R03R18G04G26
 124366357.315 6  96908722.28145  23666057.804    23666064.213    23666058.263
        40.000          30.0004
 125684978.184 7  97755003.887 6  23528487.545    23528496.584    23528487.690
        45.000          41.000
 119205167.578 7  92715154.260 7  22323267.251    22323270.774    22323266.886
        47.000          45.000
 111000499.516 8  86333748.785 8  20757611.114    20757614.548    20757610.860
        51.000          49.000
 115409081.658 7  89929200.07246  21961605.565    21961613.443    21961605.310
        46.000          38.0004
 124531546.546 6  97037607.94144  23697551.546    23697556.700    23697551.023
        40.000          25.0004
 136559838.992 5 106410284.32341  25986474.413    25986481.899    25986474.434
        33.000          10.0004
 133376035.194 7 103929389.95443  25380623.219    25380632.115    25380623.040
        44.000          23.0004
 126684547.504 7  98715245.44444  24107267.359    24107276.591    24107267.144
        42.000          26.0004
 126800842.729 6                  23787510.074
        40.000
 119959961.547 6  93475133.21846  22827586.224    22827596.719    22827586.144
        41.000          37.0004
 112036203.854 8  87300974.76147  21319770.314    21319777.296    21319769.859
        52.000          44.0004
 130095599.938 5 101373353.10443  24756389.451    24756400.711    24756388.975
        34.000          22.0004
 127955727.944 5  99705606.58242  24349142.794    24349157.873    24349141.510
        35.000          16.0004
 104466761.066 8  81251939.720 7  19522102.962    19522107.060    19522101.555
        53.000          47.000
 124298884.875 7  96676967.870 5  23293524.673    23293535.430    23293524.100
        44.000          34.000
 125912968.938 6  97932357.068 6  23612632.928    23612638.638    23612632.149
        41.000          40.000
 121379998.552 7  94406651.940 7  22738568.919    22738580.774    22738568.480
        47.000          45.000
 116444811.432 8  90736298.67546  22158657.937    22158664.488    22158657.833
        49.000          39.0004
 106119402.356 9  82690511.78248  20193816.161    20193824.274    20193815.811
        55.000          48.0004
 11 10  1  0 12 30.0000000  0 20G17R12R13R24G15G27G09G07G08R14G05G02
                                G12G10R17R02R03R18G04G26
 124472330.415 7  96991298.94244  23686224.163    23686229.616    23686223.922
        43.000          29.0004
 125684354.792 7  97754519.090 6  23528371.329    23528379.281    23528370.105
        43.000          41.000
 119145432.516 8  92668693.630 7  22312081.315    22312084.569    22312081.083
        48.000          45.000
 111097984.910 8  86409570.948 8  20775841.153    20775845.012    20775840.962
        52.000          48.000
 115344146.863 8  89878601.54546  21949248.774    21949256.793    21949248.813
        48.000          41.0004
 124440746.448 6  96966854.62144  23680273.289    23680278.535    23680272.821
        40.000          25.0004
 136484804.178 6 106351815.37142  25972195.850    25972202.867    25972196.017
        36.000          14.0004
 133419908.629 7 103963576.94644  25388971.488    25388981.378    25388971.476
        42.000          25.0004
 126693318.203 7  98722079.56944  24108937.013    24108945.485    24108936.253
        42.000          27.0004
 126719095.106 6                  23772174.575
        40.000
 119979855.882 7  93490634.86743  22831372.298    22831383.036    22831372.261
        42.000          21.0004
 111979169.550 8  87256532.94047  21308916.749    21308923.581    21308916.187
        51.000          44.0004
 130108660.412 7 101383530.29743  24758874.185    24758884.096    24758873.943
        42.000          23.0004
 128000647.334 5  99740608.56342  24357690.415    24357706.439    24357689.810
        35.000          14.0004
 104443772.849 8  81234060.100 7  19517806.499    19517811.051    19517805.314
        53.000          47.000
 124358667.990 8  96723465.954 8  23304728.420    23304737.802    23304727.587
        48.000          48.000
 125832401.022 6  97869692.837 6  23597522.062    23597530.366    23597523.011
        40.000          41.000
 121267859.170 7  94319432.269 7  22717561.264    22717573.475    22717561.090
        47.000          45.000
 116459282.974 8  90747575.15946  22161411.744    22161418.108    22161411.621
        48.000          39.0004
 106097737.521 9  82673630.23647  20189693.138    20189701.458    20189692.978
        55.000          47.0004
 11 10  1  0 13  0.0000000  0 20G17R12R13R24G15G27G09G07G08R14G05G02
                                G12G10R17R02R03R18G04G26
 124578376.958 7  97073932.42444  23706403.715    23706409.808    23706403.825
        43.000          29.0004
 125684168.950 7  97754374.572 7  23528335.071    23528343.921    23528335.120
        45.000          45.000
 119085844.886 7  92622347.593 7  22300922.012    22300925.185    22300922.127
        47.000          44.000
 111195950.704 8  86485766.306 8  20794161.296    20794165.489    20794161.118
        52.000          49.000
 115279646.658 8  89828341.63146  21936974.902    21936982.692    21936974.862
        49.000          40.0004
 124349841.522 6  96896019.59444  23662974.862    23662980.279    23662974.221
        41.000          25.0004
 136409486.913 5 106293126.51041  25957864.476    25957869.065    25957861.002
        31.000           7.0004
 133464129.045 6 103998034.40644  25397386.521    25397396.913    25397386.445
        36.000          26.0004
 126702416.537 7  98729168.99344  24110667.927    24110677.416    24110667.755
        42.000          28.0004
 126637067.968 6                  23756787.582
        40.000
 119999664.487 7  93506070.01245  22835142.257    22835152.401    22835141.963
        45.000          33.0004
 111922323.591 8  87212237.72947  21298098.859    21298105.786    21298098.432
        53.000          45.0004
 130121738.893 6 101393721.50943  24761362.639    24761371.948    24761362.285
        39.000          19.0004
 128045383.178 6  99775467.60341  24366202.827    24366218.832    24366202.882
        37.000          11.0004
 104421567.633 8  81216789.511 7  19513656.980    19513661.416    19513655.559
        53.000          47.000
 124418193.210 7  96769763.281 6  23315882.943    23315891.794    23315882.421
        43.000          41.000
 125751571.415 7  97806825.211 7  23582366.295    23582371.933    23582365.484
        42.000          42.000
 121156040.922 7  94232462.374 7  22696613.924    22696625.466    22696613.763
        47.000          44.000
 116474068.751 8  90759096.40446  22164225.617    22164231.934    22164225.516
        48.000          38.0004
 106076689.122 8  82657228.97547  20185687.969    20185696.064    20185687.679
        53.000          47.0004
 11 10  1  0 13 30.0000000  0 20G17R12R13R24G15G27G09G07G08R14G05G02
                                G12G10R17R02R03R18G04G26
 124684495.506 7  97156622.31145  23726597.141    23726603.601    23726597.335
        43.000          31.0004
 125684422.140 7  97754571.275 6  23528383.553    23528391.646    23528383.424
        42.000          36.000
 119026408.473 8  92576119.188 7  22289792.215    22289794.731    22289791.743
        48.000          44.000
 111294393.294 8  86562332.433 8  20812570.795    20812574.811    20812570.495
        51.000          50.000
 115215582.917 8  89778421.84446  21924783.879    21924791.666    21924783.909
        50.000          41.0004
 124258834.006 7  96825104.54043  23645656.101    23645661.362    23645655.434
        42.000          23.0004
 136333889.049 6 106234218.99041  25943479.168    25943485.838    25943479.099
        38.000          10.0004
 133508696.048 6 104032761.90843  25405867.764    25405877.044    25405867.379
        41.000          19.0004
 126711843.989 7  98736514.99544  24112462.723    24112471.281    24112462.126
        45.000          27.0004
 126554764.028 6                  23741346.462
        39.000
 120019385.348 7  93521436.64345  22838894.016    22838905.317    22838894.579
        47.000          35.0004
 111865668.689 8  87168091.19447  21287317.926    21287324.552    21287317.356
        52.000          43.0004
 130134832.848 6 101403924.66443  24763854.596    24763863.743    24763853.228
        36.000          21.0004
 128089935.202 6  99810183.41741  24374681.713    24374697.788    24374679.884
        36.000          11.0004
 104400145.648 8  81200128.044 7  19509653.943    19509658.006    19509652.630
        51.000          46.000
 124477459.964 7  96815859.532 7  23326989.404    23326999.317    23326988.836
        47.000          45.000
 125670482.185 6  97743755.939 6  23567158.747    23567165.307    23567158.339
        40.000          41.000
 121044546.634 7  94145744.442 7  22675727.293    22675738.121    22675726.994
        46.000          44.000
 116489170.539 7  90770863.95145  22167099.383    22167105.917    22167099.413
        47.000          35.0004
 106056257.224 9  82641308.03447  20181799.591    20181807.768    20181799.373
        55.000          46.0004
 11 10  1  0 14  0.0000000  0 20G17R12R13R24G15G27G09G07G08R14G05G02
                                G12G10R17R02R03R18G04G26
 124790682.447 7  97239365.45545  23746804.323    23746809.829    23746803.835
        44.000          30.0004
 125685117.505 7  97755111.951 7  23528513.844    23528522.487    23528513.671
        44.000          44.000
 118967127.342 8  92530011.534 7  22278691.012    22278693.522    22278690.354
        48.000          44.000
 111393308.768 8  86639266.275 8  20831068.972    20831072.993    20831068.610
        52.000          49.000
 115151956.835 7  89728843.09746  21912676.593    21912683.999    21912676.499
        45.000          39.0004
 124167726.995 6  96754112.29143  23628318.869    23628324.234    23628318.313
        41.000          23.0004
 136258010.780 5 106175093.03642  25929039.685    25929045.284    25929040.663
        31.000          16.0004
 133553609.661 6 104067759.68343  25414413.972    25414424.045    25414413.771
        40.000          21.0004
 126721601.638 7  98744118.30444  24114319.058    24114327.886    24114318.661
        42.000          25.0004
 126472186.126 6                  23725854.969
        39.000
 120039016.728 7  93536733.19245  22842631.048    22842641.747    22842630.830
        42.000          35.0004
 111809208.312 8  87124096.42547  21276573.394    21276580.108    21276572.929
        52.000          45.0004
 130147941.881 7 101414140.29343  24766348.875    24766357.926    24766348.224
        44.000          21.0004
 128134304.002 5  99844756.47741  24383124.810    24383141.592    24383122.873
        35.000          11.0004
 104379509.520 8  81184077.784 7  19505797.120    19505801.544    19505795.997
        52.000          47.000
 124536467.281 7  96861754.124 7  23338048.529    23338057.246    23338047.488
        47.000          43.000
 125589134.879 7  97680485.787 6  23551904.651    23551909.959    23551903.945
        42.000          41.000
 120933380.895 7  94059282.074 7  22654901.968    22654913.982    22654902.164
        46.000          44.000
 116504588.973 8  90782878.19846  22170033.796    22170040.119    22170033.594
        48.000          37.0004
 106036442.340 8  82625867.85048  20178029.282    20178037.187    20178028.864
        53.000          48.0004
 11 10  1  0 14 30.0000000  0 20G17R12R13R24G15G27G09G07G08R14G05G02
                                G12G10R17R02R03R18G04G26
 124896935.030 6  97322159.69545  23767023.635    23767029.094    23767023.147
        41.000          31.0004
 125686256.759 6  97755997.906 6  23528728.308    23528736.130    23528727.539
        41.000          39.000
 118908005.377 8  92484027.716 7  22267618.908    22267622.036    22267618.671
        48.000          44.000
 111492692.921 8  86716564.554 8  20849655.172    20849659.090    20849654.587
        52.000          50.000
 115088770.050 8  89679606.57746  21900652.372    21900660.370    21900652.300
        48.000          41.0004
 124076521.689 6  96683043.13643  23610963.364    23610968.629    23610962.467
        39.000          22.0004
 136181853.788 5 106115749.76042  25914546.332    25914555.006    25914546.047
        32.000          13.0004
 133598869.310 6 104103027.11543  25423026.307    25423035.957    25423026.595
        39.000          23.0004
 126731690.340 6  98751979.49644  24116238.915    24116248.022    24116238.571
        40.000          27.0004
 126389336.175 6                  23710312.116
        39.000
 120058558.807 8  93551960.62446  22846349.878    22846360.587    22846349.615
        49.000          40.0004
 111752945.546 8  87080255.95547  21265866.683    21265873.035    21265866.107
        50.000          43.0004
 130161062.265 8 101424364.70543  24768844.553    24768853.524    24768844.195
        48.000          18.0004
 128178489.428 6  99879186.61342  24391533.111    24391548.524    24391532.461
        37.000          13.0004
 104359658.174 8  81168637.944 7  19502087.565    19502091.901    19502086.264
        53.000          47.000
 124595213.631 7  96907445.722 7  23349056.707    23349066.712    23349056.135
        46.000          42.000
 125507532.598 7  97617017.137 6  23536601.029    23536606.951    23536601.039
        42.000          41.000
 120822547.525 7  93973078.204 7  22634140.305    22634150.884    22634139.735
        47.000          44.000
 116520325.449 8  90795140.20946  22173028.678    22173034.668    22173028.388
        50.000          40.0004
 106017245.121 8  82610909.02547  20174375.983    20174384.159    20174375.661
        53.000          47.0004
                            4  1
other post-header comments skipped                          COMMENT
 11 10  1  0 15  0.0000000  0 20G17R12R13R24G15G27G09G07G08R14G05G02
                                G12G10R17R02R03R18G04G26
 125003251.245 7  97405003.78045  23787254.800    23787260.014    23787254.301
        42.000          30.0004
 125687841.984 7  97757230.640 7  23529022.764    23529032.697    23529023.475
        43.000          43.000
 118849046.708 8  92438170.975 7  22256578.481    22256580.569    22256577.824
        49.000          45.000
 111592542.362 8  86794224.976 8  20868327.195    20868331.509    20868326.687
        53.000          50.000
 115026024.153 8  89630713.77346  21888712.161    21888720.039    21888712.153
        49.000          40.0004
 123985221.253 6  96611899.92643  23593588.878    23593594.466    23593589.195
        39.000          23.0004
 136105420.719 5 106056192.26542  25900002.337    25900010.234    25900001.001
        34.000          16.0004
 133644474.274 5 104138563.42343  25431703.971    25431716.315    25431704.955
        35.000          23.0004
 126742111.615 7  98760099.81944  24118222.685    24118231.485    24118222.394
        44.000          27.0004
 126306216.360 6                  23694716.861
        41.000
 120078009.566 7  93567116.36045  22850051.242    22850062.969    22850051.378
        45.000          32.0004
 111696882.872 8  87036571.71047  21255197.651    21255203.806    21255196.978
        52.000          43.0004
 130174192.605 7 101434597.01543  24771341.948    24771352.879    24771341.697
        42.000          19.0004
 128222491.279 5  99913473.62142  24399905.860    24399922.524    24399905.885
        34.000          14.0004
 104340593.757 8  81153810.213 7  19498524.741    19498529.049    19498523.487
        53.000          47.000
 124653697.486 8  96952933.111 7  23360016.800    23360026.804    23360015.735
        48.000          47.000
 125425678.214 7  97553352.332 6  23521250.063    23521257.189    23521249.909
        42.000          41.000
 120712050.699 7  93887136.071 7  22613439.842    22613450.629    22613439.912
        47.000          43.000
 116536380.519 8  90807650.34446  22176083.668    22176090.251    22176083.701
        49.000          36.0004
 105998665.386 8  82596431.25847  20170840.334    20170848.630    20170840.109
        53.000          46.0004
 11 10  1  0 15 30.0000000  0 20G17R12R13R24G15G27G09G07G08R14G05G02
                                G12G10R17R02R03R18G04G26
 125109627.902 7  97487895.01945  23807497.432    23807502.665    23807497.081
        43.000          30.0004
 125689875.531 7  97758812.212 7  23529404.868    23529413.750    23529404.552
        44.000          44.000
 118790255.046 8  92392444.171 7  22245568.759    22245571.099    22245568.349
        49.000          46.000
 111692852.834 8  86872244.309 8  20887085.433    20887089.928    20887085.297
        53.000          49.000
 114963720.430 8  89582165.61546  21876856.117    21876863.764    21876856.050
        50.000          41.0004
 123893827.186 6  96540683.57643  23576197.255    23576203.542    23576197.646
        39.000          22.0004
 136028710.764 5 105996418.64642  25885403.921    25885411.337    25885404.287
        33.000          16.0004
 133690424.498 6 104174368.74743  25440448.533    25440458.389    25440449.070
        39.000          20.0004
 126752867.001 7  98768480.53544  24120269.113    24120278.404    24120269.005
        43.000          28.0004
 126222829.697 6                  23679074.228
        39.000
 120097368.011 7  93582200.81246  22853734.992    22853746.222    22853735.346
        45.000          36.0004
 111641022.896 8  86993045.49147  21244566.791    21244573.010    21244566.297
        53.000          44.0004
 130187328.831 7 101444833.32643  24773842.604    24773850.797    24773842.393
        43.000          21.0004
 128266309.646 5  99947617.60942  24408245.296    24408262.182    24408244.100
        35.000          13.0004
 104322317.369 8  81139595.403 7  19495109.417    19495113.605    19495108.179
        53.000          47.000
 124711917.798 7  96998215.393 6  23370927.108    23370937.252    23370926.351
        43.000          38.000
 125343573.123 7  97489492.315 6  23505853.573    23505860.952    23505853.555
        42.000          41.000
 120601893.610 7  93801458.207 7  22592803.253    22592814.933    22592803.233
        45.000          44.000
 116552756.306 8  90820410.59646  22179200.185    22179206.505    22179199.810
        49.000          40.0004
 105980703.865 9  82582435.22647  20167422.467    20167430.816    20167422.291
        54.000          46.0004
 11 10  1  0 16  0.0000000  0 20G17R12R13R24G15G27G09G07G08R14G05G02
                                G12G10R17R02R03R18G04G26
 125216061.381 6  97570830.20844  23827750.998    23827756.339    23827750.901
        41.000          29.0004
 125692358.696 7  97760743.310 7  23529869.590    23529878.826    23529869.580
        43.000          42.000
 118731634.544 8  92346850.365 7  22234590.852    22234593.969    22234590.366
        49.000          44.000
 111793619.887 8  86950618.774 8  20905929.330    20905933.489    20905929.005
        53.000          49.000
 114901859.892 8  89533962.68747  21865084.292    21865092.247    21865084.176
        50.000          43.0004
 123802342.453 6  96469396.59043  23558788.899    23558794.521    23558788.550
        38.000          23.0004
 135951722.415 5                  25870754.554
        32.000
 133736719.596 6 104210442.67342  25449259.436    25449268.494    25449259.046
        39.000          13.0004
 126763957.185 7  98777122.03644  24122379.599    24122388.972    24122378.872
        43.000          27.0004
 126139178.183 6                  23663381.318
        39.000
 120116633.462 8  93597212.39446  22857401.967    22857413.125    22857401.778
        49.000          40.0004
 111585368.213 8  86949679.32347  21233975.140    21233980.992    21233974.715
        50.000          42.0004
 130200469.325 6 101455072.40543  24776342.618    24776351.206    24776342.597
        40.000          18.0004
 128309944.906 5  99981618.84642  24416547.220    24416564.152    24416546.443
        34.000          12.0004
 104304828.086 8  81125992.707 7  19491840.761    19491844.927    19491839.421
        53.000          47.000
 124769874.162 7  97043292.630 7  23381788.245    23381797.936    23381787.253
        43.000          42.000
 125261221.263 7  97425440.438 7  23490411.201    23490417.235    23490410.581
        43.000          42.000
 120492080.058 7  93716047.553 7  22572232.244    22572244.086    22572232.027
        46.000          44.000
 116569453.426 8  90833421.29846  22182377.456    22182383.985    22182377.415
        49.000          39.0004
 105963360.776 9  82568921.13947  20164122.303    20164130.297    20164121.969
        54.000          47.0004
 11 10  1  0 16 30.0000000  0 20G17R12R13R24G15G27G09G07G08R14G05G02
                                G12G10R17R02R03R18G04G26
 125322549.190 7  97653807.46945  23848015.501    23848020.483    23848015.288
        43.000          30.0004
 125695294.006 7  97763026.078 6  23530419.801    23530428.586    23530419.951
        42.000          37.000
 118673189.076 8  92301392.674 7  22223646.300    22223649.138    22223645.601
        49.000          47.000
 111894839.195 8  87029345.063 8  20924857.906    20924862.019    20924857.477
        53.000          49.000
 114840444.499 8  89486106.69547  21853396.866    21853405.083    21853396.982
        48.000          42.0004
 123710769.721 6  96398041.21743  23541362.590    23541368.398    23541362.137
        37.000          22.0004
 135874462.721 5 105876226.17242  25856052.251    25856059.910    25856052.721
        33.000          15.0004
 133783359.623 6 104246785.32743  25458133.367    25458144.255    25458133.902
        38.000          19.0004
 126775383.536 7  98786025.32644  24124555.064    24124563.701    24124554.303
        44.000          27.0004
 126055264.087 6                  23647639.006
        38.000
 120135804.120 7  93612150.28445  22861050.272    22861061.537    22861050.312
        45.000          34.0004
 111529922.252 8  86906476.15847  21223423.183    21223428.425    21223422.700
        51.000          45.0004
 130213611.190 7 101465311.85344  24778843.741    24778854.923    24778844.312
        42.000          25.0004
 128353397.746 5 100015477.95041  24424818.992    24424833.302    24424817.615
        32.000           9.0004
 104288128.317 8  81113004.099 7  19488719.864    19488724.364    19488718.818
        53.000          47.000
 124827564.874 7  97088163.439 6  23392599.799    23392608.760    23392598.369
        42.000          37.000
 125178625.280 7  97361198.985 6  23474921.960    23474928.057    23474921.223
        43.000          41.000
 120382614.694 7  93630907.712 7  22551725.807    22551737.536    22551725.780
        47.000          44.000
 116586472.978 8  90846683.21346  22185616.152    22185622.977    22185615.896
        49.000          41.0004
 105946636.254 9  82555889.04347  20160939.626    20160947.713    20160939.416
        54.000          47.0004
 11 10  1  0 17  0.0000000  0 20G17R12R13R24G15G27G09G07G08R14G05G02
                                G12G10R17R02R03R18G04G26
 125429089.005 7  97736825.38344  23868289.365    23868294.563    23868288.877
        42.000          29.0004
 125698683.633 7  97765662.228 7  23531055.095    23531063.103    23531054.605
        46.000          44.000
 118614922.795 8  92256074.259 7  22212734.510    22212737.503    22212734.051
        49.000          44.000
 111996506.571 8  87108419.777 8  20943870.746    20943874.070    20943870.287
        52.000          48.000
 114779475.322 8  89438598.38746  21841794.890    21841802.664    21841794.925
        51.000          41.0004
 123619111.083 6  96326618.94243  23523920.832    23523926.854    23523920.260
        39.000          22.0004
 135796928.708 5 105815809.48942  25841296.701    25841305.500    25841297.304
        32.000          13.0004
 133830343.624 6 104283395.94542  25467075.447    25467086.299    25467074.747
        38.000          16.0004
 126787147.228 6  98795191.47444  24126792.758    24126802.251    24126792.258
        40.000          25.0004
 125971090.227 6                  23631848.193
        38.000
 120154879.255 7  93627013.78646  22864680.140    22864691.678    22864680.192
        46.000          39.0004
 111474685.473 8  86863435.39247  21212911.115    21212916.315    21212910.699
        52.000          44.0004
 130226753.157 6 101475551.41743  24781345.528    24781354.538    24781345.315
        41.000          19.0004
 128396668.292 5 100049195.06141  24433051.127    24433065.954    24433050.852
        32.000          11.0004
 104272217.450 8  81100629.007 7  19485746.578    19485751.052    19485745.654
        52.000          47.000
 124884988.047 7  97132825.814 6  23403358.704    23403369.797    23403358.649
        42.000          39.000
 125095786.930 6  97296768.983 6  23459386.023    23459394.129    23459386.254
        40.000          37.000
 120273501.252 7  93546041.581 7  22531284.727    22531297.186    22531284.724
        46.000          44.000
 116603816.004 8  90860197.19046  22188916.152    22188923.197    22188916.126
        50.000          39.0004
 105930530.734 8  82543339.35847  20157874.789    20157882.896    20157874.528
        51.000          46.0004
 11 10  1  0 17 30.0000000  0 20G17R12R13R24G15G27G09G07G08R14G05G02
                                G12G10R17R02R03R18G04G26
 125535678.121 7  97819881.66044  23888572.525    23888578.417    23888572.046
        43.000          26.0004
 125702528.772 7  97768652.525 6  23531774.053    23531783.545    23531774.293
        45.000          39.000
 118556839.281 8  92210898.062 7  22201857.533    22201860.567    22201856.953
        48.000          45.000
 112098617.569 8  87187839.496 8  20962966.049    20962969.832    20962965.444
        51.000          48.000
 114718953.750 8  89391438.93646  21830277.889    21830285.334    21830278.010
        51.000          41.0004
 123527368.555 6  96255131.15643  23506462.847    23506469.021    23506461.747
        39.000          22.0004
 135719123.947 5 105755182.28542  25826492.988    25826498.508    25826493.130
        32.000          13.0004
 133877671.821 6 104320274.69642  25476081.825    25476092.147    25476082.267
        38.000          13.0004
 126799249.756 7  98804621.70444  24129096.631    24129105.978    24129096.189
        42.000          27.0004
 125886658.594 6                  23616011.688
        40.000
 120173857.519 6  93641801.85346  22868292.815    22868303.089    22868292.084
        40.000          36.0004
 111419661.576 8  86820560.20147  21202440.389    21202444.939    21202439.625
        53.000          45.0004
 130239895.110 6 101485791.44843  24783846.289    24783856.755    24783846.552
        39.000          23.0004
 128439755.911 5 100082769.39941  24441252.906    24441267.216    24441250.575
        34.000           9.0004
 104257097.361 8  81088868.998 7  19482921.248    19482925.348    19482920.066
        52.000          46.000
 124942144.305 6  97177281.269 6  23414070.722    23414080.325    23414069.697
        37.000          36.000
 125012709.818 7  97232153.585 7  23443806.498    23443814.373    23443806.339
        42.000          43.000
 120164743.273 7  93461451.942 7  22510910.701    22510923.113    22510910.698
        45.000          45.000
 116621483.535 8  90873964.00646  22192278.283    22192285.343    22192278.288
        48.000          36.0004
 105915044.084 9  82531271.93947  20154927.583    20154935.894    20154927.411
        54.000          47.0004
 11 10  1  0 18  0.0000000  0 20G17R12R13R24G15G27G09G07G08R14G05G02
                                G12G10R17R02R03R18G04G26
 125642313.652 7  97902974.13044  23908865.162    23908870.272    23908864.746
        42.000          28.0004
 125706832.371 7  97771999.615 7  23532579.593    23532588.381    23532580.009
        46.000          44.000
 118498942.826 8  92165867.371 7  22191014.849    22191018.369    22191014.725
        48.000          45.000
 112201167.893 8  87267600.740 8  20982142.910    20982146.902    20982142.531
        52.000          48.000
 114658880.567 8  89344628.67347  21818846.336    21818854.071    21818846.425
        51.000          42.0004
 123435544.409 6  96183579.59643  23488989.969    23488995.929    23488988.875
        39.000          23.0004
 135641049.134 5 105694345.04142  25811634.182    25811641.139    25811634.755
        33.000          13.0004
 133925344.142 6 104357421.78042  25485155.057    25485164.843    25485154.859
        36.000          17.0004
 126811692.201 7  98814316.85044  24131464.684    24131474.184    24131463.963
        44.000          28.0004
 125801971.944 6                  23600122.546
        40.000
 120192737.213 7  93656512.87645  22871884.618    22871896.597    22871884.580
        46.000          34.0004
 111364853.610 8  86777853.11747  21192010.286    21192015.075    21192009.715
        49.000          43.0004
 130253032.875 7 101496027.98643  24786347.059    24786356.318    24786347.134
        45.000          21.0004
 128482661.780 5 100116202.41241  24449414.768    24449433.560    24449414.411
        32.000           8.0004
 104242767.854 8  81077723.932 7  19480243.643    19480247.350    19480242.047
        51.000          45.000
 124999030.127 6  97221525.649 6  23424732.280    23424741.413    23424731.066
        40.000          38.000
 124929395.576 6  97167353.676 6  23428182.546    23428190.271    23428182.542
        41.000          39.000
 120056344.319 7  93377141.551 7  22490604.712    22490617.087    22490604.241
        46.000          45.000
 116639477.062 8  90887985.02746  22195702.509    22195709.118    22195702.326
        49.000          40.0004
 105900176.652 8  82519687.09247  20152098.363    20152106.444    20152098.116
        53.000          47.0004
 11 10  1  0 18 30.0000000  0 20G17R12R13R24G15G27G09G07G08R14G05G02
                                G12G10R17R02R03R18G04G26
 125748993.063 6  97986100.81544  23929166.226    23929170.713    23929165.112
        41.000          28.0004
 125711595.806 7  97775704.362 7  23533471.743    23533480.586    23533471.810
        45.000          44.000
 118441237.569 8  92120985.467 7  22180209.004    22180211.913    22180208.732
        49.000          45.000
 112304154.149 8  87347701.268 8  21001401.748    21001405.717    21001401.416
        52.000          48.000
 114599257.383 8  89298169.02346  21807500.361    21807507.970    21807500.438
        49.000          40.0004
 123343641.693 6  96111966.88043  23471500.812    23471507.282    23471501.018
        38.000          23.0004
 135562704.830 5 105633297.65141  25796725.334    25796733.450    25796723.767
        33.000           9.0004
 133973359.431 5 104394835.90242  25494291.168    25494298.951    25494290.111
        33.000          12.0004
 126824475.544 7  98824277.66944  24133897.666    24133907.023    24133896.874
        43.000          28.0004
 125717033.290 6                  23584187.359
        39.000
 120211518.006 8  93671147.06247  22875458.581    22875470.533    22875458.748
        51.000          44.0004
 111310263.830 8  86735315.60346  21181622.258    21181627.008    21181621.762
        50.000          41.0004
 130266165.672 8 101506260.87043  24788847.510    24788857.467    24788847.251
        48.000          21.0004
 128525386.272 5 100149494.22041  24457546.522    24457562.081    24457545.261
        35.000          11.0004
 104229230.608 8  81067195.107 7  19477713.328    19477717.494    19477712.260
        53.000          47.000
 125055645.722 7  97265560.045 6  23435339.657    23435350.970    23435339.518
        42.000          40.000
 124845847.448 7  97102371.836 6  23412514.429    23412522.281    23412514.128
        42.000          41.000
 119948309.112 7  93293114.049 7  22470366.241    22470378.275    22470365.737
        46.000          45.000
 116657797.053 8  90902260.41446  22199188.831    22199195.188    22199188.558
        49.000          36.0004
 105885928.625 8  82508584.92047  20149387.097    20149395.056    20149386.685
        53.000          46.0004
 11 10  1  0 19  0.0000000  0 20G17R12R13R24G15G27G09G07G08R14G05G02
                                G12G10R17R02R03R18G04G26
 125855713.847 6  98069259.84244  23949473.500    23949478.753    23949473.191
        41.000          27.0004
 125716820.937 7  97779768.268 7  23534451.152    23534459.174    23534450.639
        47.000          45.000
 118383727.555 7  92076255.482 7  22169438.836    22169442.410    22169438.105
        47.000          45.000
 112407571.720 8  87428137.375 8  21020741.364    21020745.278    21020740.893
        52.000          48.000
 114540086.043 8  89252061.54247  21796240.474    21796247.992    21796240.420
        51.000          43.0004
 123251663.076 6  96040295.35943  23453997.879    23454003.804    23453997.780
        37.000          23.0004
 135484091.739 5 105572040.36042  25781767.747    25781774.347    25781765.563
        34.000          12.0004
 134021717.619 6 104432517.44642  25503493.067    25503502.530    25503493.718
        37.000          13.0004
 126837601.105 7  98834505.22244  24136394.879    24136404.532    24136394.106
        43.000          27.0004
 125631844.876 6                  23568206.506
        38.000
 120230198.371 7  93685702.82045  22879014.002    22879025.358    22879013.997
        43.000          35.0004
 111255895.660 8  86692950.92747  21171276.315    21171280.949    21171275.658
        52.000          46.0004
 130279290.125 6 101516487.44643  24791345.809    24791355.483    24791345.365
        36.000          23.0004
 128567928.811 5 100182644.18642  24465642.427    24465659.645    24465641.580
        35.000          12.0004
 104216484.692 8  81057281.859 7  19475331.400    19475335.518    19475330.236
        52.000          46.000
 125111988.999 7  97309382.125 5  23445899.611    23445910.920    23445898.895
        42.000          33.000
 124762069.271 7  97037211.569 7  23396804.447    23396810.264    23396803.555
        44.000          42.000
 119840640.662 7  93209371.831 7  22450195.763    22450208.010    22450195.310
        46.000          44.000
 116676444.782 8  90916791.27446  22202737.021    22202743.723    22202737.016
        49.000          39.0004
 105872299.817 8  82497965.34547  20146793.350    20146801.248    20146793.094
        50.000          45.0004
 11 10  1  0 19 30.0000000  0 20G17R12R13R24G15G27G09G07G08R14G05G02
                                G12G10R17R02R03R18G04G26
 125962473.727 6  98152449.72244  23969789.038    23969794.575    23969789.143
        41.000          26.0004
 125722509.251 7  97784192.215 6  23535515.098    23535524.531    23535514.567
        42.000          39.000
 118326416.176 8  92031680.003 7  22158707.180    22158709.442    22158706.313
        49.000          45.000
 112511416.954 8  87508906.377 8  21040160.301    21040164.587    21040160.112
        51.000          48.000
 114481367.171 8  89206306.50046  21785066.874    21785074.402    21785066.794
        50.000          41.0004
 123159610.470 6  95968566.15044  23436481.094    23436487.133    23436480.351
        38.000          24.0004
 135405211.904 6 105510575.08042  25766757.581    25766764.649    25766756.526
        36.000          13.0004
 134070418.381 6 104470465.77241  25512761.181    25512769.641    25512760.214
        36.000          10.0004
 126851069.842 7  98845000.22644  24138958.735    24138967.290    24138957.627
        45.000          29.0004
 125546409.283 6                  23552179.604
        40.000
 120248777.496 7  93700179.88645  22882548.656    22882561.332    22882549.304
        45.000          34.0004
 111201751.510 8  86650760.49747  21160973.187    21160977.914    21160972.505
        50.000          45.0004
 130292405.206 6 101526706.77443  24793840.026    24793850.729    24793840.764
        39.000          22.0004
 128610290.154 6 100215653.02242  24473701.861    24473718.321    24473702.119
        36.000          14.0004
 104204531.279 8  81047985.124 7  19473096.778    19473101.177    19473095.843
        51.000          45.000
 125168059.726 7  97352992.242 7  23456406.618    23456417.987    23456407.127
        42.000          44.000
 124678061.776 6  96971872.810 6  23381048.470    23381054.849    23381048.208
        41.000          39.000
 119733342.916 7  93125917.924 7  22430096.161    22430108.249    22430095.324
        47.000          45.000
 116695421.191 8  90931578.25546  22206347.918    22206354.612    22206347.738
        48.000          38.0004
 105859290.139 8  82487828.09547  20144317.382    20144325.324    20144317.099
        52.000          46.0004
 11 10  1  0 20  0.0000000  0 20G17R12R13R24G15G27G09G07G08R14G05G02
                                G12G10R17R02R03R18G04G26
 126069269.216 6  98235667.46344  23990111.326    23990116.320    23990110.469
        39.000          25.0004
 125728663.516 7  97788978.901 7  23536668.576    23536676.673    23536667.969
        44.000          42.000
 118269307.540 8  91987262.037 7  22148012.108    22148015.309    22148011.681
        48.000          46.000
 112615684.312 8  87590003.397 7  21059658.332    21059662.944    21059658.527
        50.000          47.000
 114423102.701 8  89160905.58946  21773979.377    21773987.138    21773979.493
        49.000          41.0004
 123067487.215 6  95896782.19544  23418949.649    23418956.412    23418949.431
        41.000          24.0004
 135326067.181 6 105448903.66042  25751696.323    25751703.782    25751698.628
        38.000          13.0004
 134119461.423 5 104508680.99341  25522092.758    25522103.504    25522092.995
        33.000          11.0004
 126864882.696 7  98855763.38144  24141586.795    24141596.173    24141586.070
        43.000          28.0004
 125460729.590 6                  23536107.316
        41.000
 120267254.216 8  93714577.17747  22886065.569    22886077.495    22886065.702
        48.000          42.0004
 111147834.900 8  86608747.53047  21150713.123    21150718.079    21150712.660
        52.000          45.0004
 130305507.744 7 101536916.19544  24796334.015    24796344.967    24796334.061
        43.000          24.0004
 128652470.217 5 100248520.60542  24481730.741    24481746.091    24481728.266
        35.000          16.0004
 104193370.267 8  81039304.776 7  19471011.222    19471015.109    19471009.995
        53.000          47.000
 125223857.276 7  97396390.044 6  23466864.732    23466874.869    23466864.704
        42.000          41.000
 124593828.008 7  96906357.945 6  23365252.874    23365257.869    23365251.615
        42.000          39.000
 119626420.453 7  93042755.930 7  22410064.996    22410077.736    22410064.787
        46.000          45.000
 116714727.782 7  90946622.93046  22210021.503    22210028.035    22210021.458
        47.000          38.0004
 105846899.564 8  82478173.09647  20141959.681    20141967.661    20141959.346
        53.000          46.0004
