     2.11           OBSERVATION DATA    M (MIXED)           RINEX VERSION / TYPE
teqc  2016Apr1                          20160930 07:51:15UTCPGM / RUN BY / DATE
Linux 2.4.20-8|Pentium IV|gcc|Linux|486/DX+                 COMMENT
teqc  2016Apr1                          20160816 03:27:16UTCCOMMENT
teqc  2010Mar17     gpsops              20111002 00:11:18UTCCOMMENT
Linux 2.4.21-27.ELsmp|Opteron|gcc -static|Linux x86_64|=+   COMMENT
BIT 2 OF LLI FLAGS DATA COLLECTED UNDER A/S CONDITION       COMMENT
                                                            COMMENT
This data is provided as a public service by NASA/JPL.      COMMENT
No warranty is expressed or implied regarding suitability   COMMENT
for use.  For further information, contact:                 COMMENT
Dave Stowers, NASA/JPL m/s 238-600                          COMMENT
4800 Oak Grove Drive, Pasadena CA 91109 USA                 COMMENT
                                                            COMMENT
Forced Modulo Decimation to 30 seconds                      COMMENT
 SNR is mapped to RINEX snr flag value [0-9]                COMMENT
  L1 & L2: min(max(int(snr_dBHz/6), 0), 9)                  COMMENT
pseudorange smoothing corrections not applied               COMMENT
FAIV                                                        MARKER NAME
NONE                                                        MARKER NUMBER
GDGPS               JPL                                     OBSERVER / AGENCY
2327                JPS EGGDT           2.7.0               REC # / TYPE / VERS
0220364766          TRM29659.00                             ANT # / TYPE
 -2281592.7713 -1453617.9528  5756973.5737                  APPROX POSITION XYZ
        0.0800        0.0000        0.0000                  ANTENNA: DELTA H/E/N
     1     1                                                WAVELENGTH FACT L1/2
     7    L1    L2    P1    P2    C1    S1    S2            # / TYPES OF OBSERV
    30.0000                                                 INTERVAL
teqc windowed: start @ 2011 Oct  1 00:10:00.000             COMMENT
teqc windowed:  end  @ 2011 Oct  1 00:20:00.000             COMMENT
  2011    10     1     0    10    0.0000000     GPS         TIME OF FIRST OBS
    15                                                      LEAP SECONDS
                                                            END OF HEADER
 11 10  1  0 10  0.0000000  0 18G06R11R18R09G13G02G10G16R10G25G31G21
                                R19R02R20G05G30G29
 131661246.821 6 102593212.12143  25054306.141    25054311.849    25054304.725
        36.000          18.0004
 123607745.575 6  96139389.260 5  23131501.371    23131512.104    23131502.405
        36.000          33.000
 108498984.621 9  84388127.147 8  20325507.071    20325513.323    20325507.415
        55.000          48.000
 115676363.076 8  89970501.980 7  21662465.445    21662471.786    21662465.496
        50.000          45.000
 125666230.830 7  97921759.79143  23913491.470    23913497.710    23913492.159
        42.000          21.0004
 126468678.341 4                                                  24066177.824
        25.000
 128599936.916 5 100207760.34042  24471755.473    24471761.821    24471756.675
        35.000          12.0004
 123465385.355 7  96206786.28045  23494675.236    23494680.171    23494676.295
        44.000          30.0004
 109974594.309 9  85535828.692 7  20630951.652    20630957.780    20630952.053
        54.000          44.000
 125985469.488 7  98170496.11145  23974243.691    23974251.456    23974244.907
        46.000          31.0004
 126265803.111 7  98388946.88045  24027590.310    24027595.762    24027590.473
        45.000          32.0004
 119895308.816 8  93424936.40146  22815306.610    22815309.836    22815307.470
        50.000          37.0004
 104026357.192 9  80909415.825 8  19446618.042    19446622.099    19446618.523
        54.000          49.000
 113999777.970 8  88666518.870 7  21363497.591    21363503.403    21363498.796
        52.000          47.000
 123137884.336 6  95773920.361 7  23027400.213    23027410.008    23027398.072
        39.000          42.000
 116451214.417 8  90741235.13746  22159921.879    22159925.380    22159921.060
        50.000          41.0004
 113835170.189 8  88702753.72147  21662112.133    21662116.929    21662112.718
        51.000          42.0004
 108126052.453 9  84254106.61948  20575695.130    20575698.263    20575694.788
        54.000          48.0004
 11 10  1  0 10 30.0000000  0 18G06R11R18R09G13G02G10G16R10G25G31G21
                                R19R02R20G05G30G29
 131552754.063 6 102508672.30243  25033660.222    25033667.342    25033660.591
        37.000          19.0004
 123495146.689 6  96051812.491 5  23110429.722    23110438.735    23110430.812
        36.000          32.000
 108580083.693 9  84451204.168 8  20340699.252    20340705.652    20340699.606
        54.000          49.000
 115784065.653 8  90054270.546 7  21682634.684    21682642.224    21682634.257
        50.000          46.000
 125705989.661 6  97952740.85343  23921057.125    23921063.921    23921058.428
        40.000          20.0004
 126571801.909 4                                                  24085800.196
        26.000
 128694407.631 6 100281374.12141  24489732.976    24489737.010    24489737.903
        36.000          10.0004
 123369953.242 7  96132423.62245  23476515.296    23476521.069    23476516.418
        43.000          31.0004
 109968149.855 8  85530816.365 7  20629742.786    20629749.209    20629743.230
        53.000          44.000
 126100926.963 7  98260462.85145  23996214.851    23996222.974    23996215.190
        46.000          31.0004
 126361499.521 7  98463515.38545  24045801.444    24045806.251    24045800.265
        45.000          32.0004
 119809866.469 8  93358357.97846  22799047.500    22799051.320    22799048.120
        50.000          38.0004
 103986155.043 9  80878147.523 8  19439102.322    19439106.576    19439102.304
        54.000          52.000
 114048664.396 8  88704541.713 8  21372659.497    21372664.492    21372660.722
        52.000          49.000
 123016252.682 6  95679318.073 7  23004653.844    23004663.594    23004653.989
        40.000          42.000
 116448888.654 8  90739422.84746  22159479.160    22159482.742    22159478.486
        49.000          41.0004
 113921557.640 8  88770068.55047  21678551.938    21678556.061    21678551.899
        50.000          42.0004
 108164101.055 8  84283754.83148  20582935.770    20582938.872    20582935.398
        53.000          48.0004
 11 10  1  0 11  0.0000000  0 18G06R11R18R09G13G02G10G16R10G25G31G21
                                R19R02R20G05G30G29
 131444331.768 5 102424187.44742  25013025.747    25013033.964    25013025.465
        35.000          17.0004
 123382994.806 5  95964583.539 5  23089441.678    23089452.075    23089441.922
        35.000          32.000
 108661620.858 9  84514621.908 7  20355974.090    20355980.313    20355974.423
        54.000          47.000
 115892279.980 8  90138437.135 7  21702900.432    21702907.984    21702900.267
        49.000          45.000
 125746348.973 6  97984189.80443  23928736.385    23928743.844    23928736.435
        37.000          19.0004
 126675112.768 4                                                  24105483.275
        26.000
 128789232.367 5 100355263.52641  24507776.366    24507782.954    24507776.172
        33.000           9.0004
 123274827.094 7  96058299.36145  23458413.598    23458418.610    23458413.738
        44.000          30.0004
 109962590.826 8  85526492.703 7  20628699.513    20628706.468    20628699.889
        53.000          44.000
 126216533.596 7  98350545.84245  24018213.647    24018222.135    24018213.397
        45.000          30.0004
 126457451.718 7  98538283.16345  24064059.907    24064064.674    24064060.070
        45.000          31.0004
 119724686.344 8  93291983.84946  22782838.615    22782842.452    22782839.416
        51.000          38.0004
 103946541.005 9  80847336.628 8  19431697.141    19431701.133    19431697.580
        55.000          49.000
 114098332.200 8  88743172.274 7  21381965.989    21381972.546    21381966.671
        52.000          47.000
 122894767.884 6  95584829.967 7  22981936.995    22981945.017    22981936.206
        41.000          42.000
 116447200.433 8  90738107.34446  22159157.590    22159161.649    22159157.361
        50.000          40.0004
 114008403.979 8  88837740.95146  21695077.279    21695081.924    21695077.592
        50.000          41.0004
 108202623.283 9  84313772.09848  20590266.401    20590269.406    20590266.166
        54.000          48.0004
 11 10  1  0 11 30.0000000  0 17G06R11R18R09G13G10G16R10G25G31G21R19
                                R02R20G05G30G29
 131335987.711 6 102339763.41442  24992409.684    24992418.051    24992413.274
        38.000          17.0004
 123271299.871 6  95877709.848 5  23068540.724    23068550.078    23068541.556
        36.000          32.000
 108743600.819 9  84578384.065 8  20371331.659    20371337.760    20371331.856
        54.000          49.000
 116001008.249 8  90223003.462 7  21723261.545    21723268.734    21723261.145
        49.000          46.000
 125787313.826 6  98016110.81743  23936532.141    23936538.812    23936532.792
        39.000          18.0004
 128884415.009 5 100429431.82741  24525889.382    24525896.735    24525891.190
        35.000          10.0004
 123180015.793 7  95984420.37844  23440371.203    23440375.540    23440370.414
        43.000          29.0004
 109957924.269 8  85522863.167 7  20627823.446    20627830.697    20627824.435
        53.000          44.000
 126332293.676 7  98440748.35445  24040243.084    24040250.778    24040243.483
        46.000          31.0004
 126553663.351 7  98613253.19345  24082368.189    24082372.265    24082369.448
        46.000          30.0004
 119639776.896 8  93225820.65646  22766680.848    22766684.610    22766681.388
        50.000          38.0004
 103907522.902 9  80816989.291 8  19424402.868    19424407.187    19424403.685
        55.000          52.000
 114148785.350 8  88782413.599 8  21391420.281    21391427.083    21391421.018
        51.000          48.000
 122773437.764 6  95490462.187 7  22959247.025    22959256.717    22959247.835
        41.000          43.000
 116446156.028 8  90737293.50346  22158959.234    22158962.845    22158958.539
        49.000          41.0004
 114095713.023 8  88905773.89546  21711691.056    21711696.179    21711692.398
        49.000          40.0004
 108241624.725 8  84344162.78848  20597688.345    20597691.105    20597688.291
        53.000          48.0004
 11 10  1  0 12  0.0000000  0 17G06R11R18R09G13G10G16R10G25G31G21R19
                                R02R20G05G30G29
 131227715.812 6 102255395.72943  24971808.461    24971812.923    24971809.833
        39.000          19.0004
 123160058.712 5  95791189.172 5  23047723.099    23047729.332    23047722.677
        34.000          31.000
 108826012.995 9  84642482.356 7  20386770.927    20386776.828    20386771.618
        55.000          46.000
 116110238.425 8  90307960.162 7  21743716.902    21743722.829    21743716.255
        49.000          44.000
 125828874.276 6  98048495.89643  23944440.445    23944447.361    23944439.137
        38.000          19.0004
 128979945.023 5 100503870.74041  24544068.421    24544073.260    24544070.492
        35.000           9.0004
 123085514.135 7  95910782.64444  23422388.019    23422392.992    23422386.776
        43.000          28.0004
 109954142.981 8  85519922.138 7  20627115.018    20627121.547    20627115.122
        53.000          43.000
 126448197.066 7  98531062.53844  24062297.736    24062306.369    24062299.063
        46.000          29.0004
 126650123.935 7  98688417.16744  24100724.350    24100729.120    24100723.221
        43.000          29.0004
 119555131.953 8  93159863.57346  22750573.325    22750576.921    22750574.562
        51.000          38.0004
 103869093.625 9  80787099.944 8  19417218.696    19417223.207    19417219.251
        54.000          49.000
 114200014.042 8  88822258.170 7  21401021.521    21401027.197    21401022.030
        51.000          46.000
 122652256.581 6  95396210.282 7  22936584.914    22936595.859    22936587.392
        41.000          43.000
 116445747.470 8  90736975.10146  22158881.596    22158884.444    22158881.028
        48.000          40.0004
 114183474.628 8  88974159.49546  21728392.522    21728397.126    21728393.186
        50.000          41.0004
 108281096.599 9  84374920.04048  20605199.587    20605202.511    20605199.520
        54.000          48.0004
 11 10  1  0 12 30.0000000  0 17G06R11R18R09G13G10G16R10G25G31G21R19
                                R02R20G05G30G29
 131119513.007 6 102171081.85743  24951217.189    24951224.286    24951216.792
        38.000          19.0004
 123049270.756 6  95705020.883 4  23026990.202    23026996.564    23026991.389
        36.000          29.000
 108908851.331 9  84706912.126 8  20402289.317    20402294.883    20402289.889
        55.000          49.000
 116219961.981 8  90393300.591 7  21764264.618    21764271.263    21764264.103
        49.000          46.000
 125871024.355 6  98081340.36843  23952462.239    23952466.900    23952460.621
        41.000          19.0004
 129075815.169 6 100578574.82441  24562312.620    24562320.300    24562314.453
        36.000           9.0004
 122991320.560 7  95837385.02244  23404463.391    23404468.630    23404463.111
        43.000          29.0004
 109951242.653 8  85517666.288 7  20626570.729    20626576.925    20626571.471
        53.000          43.000
 126564237.162 7  98621483.26644  24084378.478    24084387.737    24084379.812
        44.000          27.0004
 126746826.243 7  98763769.44844  24119127.325    24119130.312    24119128.253
        45.000          29.0004
 119470748.325 8  93094110.13946  22734515.493    22734518.970    22734516.053
        50.000          37.0004
 103831249.983 9  80757666.035 8  19410144.535    19410148.291    19410145.139
        55.000          51.000
 114252010.830 8  88862700.100 8  21410765.718    21410771.462    21410766.664
        52.000          49.000
 122531222.183 6  95302072.470 7  22913950.068    22913960.823    22913950.083
        39.000          43.000
 116445970.498 8  90737148.84146  22158924.009    22158927.210    22158923.637
        50.000          41.0004
 114271681.893 8  89042892.32746  21745178.241    21745182.551    21745178.943
        51.000          41.0004
 108321033.633 9  84406039.76648  20612799.342    20612802.210    20612799.225
        55.000          48.0004
 11 10  1  0 13  0.0000000  0 17G06R11R18R09G13G10G16R10G25G31G21R19
                                R02R20G05G30G29
 131011397.927 6 102086836.34643  24930642.818    24930651.056    24930643.680
        37.000          20.0004
 122938957.725 5  95619222.109 4  23006344.331    23006355.135    23006342.220
        34.000          28.000
 108992131.388 9  84771685.453 8  20417890.302    20417895.699    20417891.103
        55.000          48.000
 116330191.952 8  90479034.877 7  21784907.751    21784914.813    21784908.105
        50.000          45.000
 125913778.143 6  98114654.77943  23960598.370    23960602.724    23960596.693
        39.000          18.0004
 129172039.276 5 100653554.4654   24580620.826    24580626.464    24580624.631
        32.000           2.0004
 122897454.275 7  95764242.44845  23386602.445    23386606.147    23386602.097
        46.000          31.0004
 109949240.485 9  85516109.000 7  20626195.057    20626201.072    20626196.282
        54.000          43.000
 126680428.544 6  98712021.86844  24106490.420    24106498.875    24106488.311
        41.000          27.0004
 126843784.107 7  98839320.89845  24137577.657    24137581.596    24137576.010
        44.000          30.0004
 119386644.694 8  93028574.86446  22718511.009    22718513.922    22718511.202
        49.000          37.0004
 103794010.594 9  80728702.132 8  19403183.249    19403187.020    19403183.508
        55.000          49.000
 114304790.570 8  88903750.994 7  21420657.010    21420663.160    21420657.468
        52.000          47.000
 122410353.539 6  95208063.589 7  22891347.610    22891355.357    22891345.746
        39.000          42.000
 116446842.315 8  90737828.11846  22159090.008    22159093.215    22159089.611
        52.000          41.0004
 114360349.160 8  89111983.64146  21762050.169    21762055.436    21762051.026
        50.000          41.0004
 108361451.838 9  84437534.44348  20620490.595    20620493.361    20620490.742
        54.000          48.0004
 11 10  1  0 13 30.0000000  0 17G06R11R18R09G13G10G16R10G25G31G21R19
                                R02R20G05G30G29
 130903347.635 6 102002641.34443  24910082.288    24910090.251    24910081.883
        38.000          19.0004
 122829099.029 6  95533776.725 5  22985786.247    22985795.943    22985785.677
        36.000          30.000
 109075825.499 9  84836780.825 8  20433568.775    20433575.121    20433569.754
        54.000          50.000
 116440899.712 8  90565140.771 7  21805639.781    21805646.311    21805641.071
        49.000          46.000
 125957111.744 6  98148421.44942  23968843.793    23968849.400    23968842.592
        41.000          17.0004
 129268588.345 4                                                  24598992.106
        26.000
 122803893.568 7  95691338.00145  23368798.401    23368803.016    23368799.002
        46.000          32.0004
 109948112.477 8  85515231.661 7  20625983.370    20625990.034    20625984.930
        53.000          44.000
 126796744.723 7  98802657.71244  24128625.077    24128633.104    24128627.062
        44.000          27.0004
 126940970.559 7  98915050.46844  24156070.196    24156075.513    24156069.242
        42.000          28.0004
 119302797.933 8  92963239.75646  22702555.393    22702558.200    22702555.278
        50.000          37.0004
 103757351.680 9  80700189.756 8  19396330.205    19396333.702    19396330.616
        55.000          51.000
 114358326.128 8  88945389.736 8  21430689.340    21430695.505    21430690.113
        52.000          49.000
 122289628.096 6  95114166.082 7  22868768.799    22868781.126    22868765.127
        37.000          43.000
 116448338.434 8  90738993.92046  22159374.783    22159378.483    22159374.552
        50.000          41.0004
 114449449.509 8  89181412.45046  21779005.237    21779010.536    21779004.892
        49.000          40.0004
 108402326.382 8  84469384.73048  20628268.740    20628271.537    20628268.312
        53.000          48.0004
 11 10  1  0 14  0.0000000  0 17G06R11R18R09G13G10G16R10G25G31G21R19
                                R02R20G05G30G29
 130795383.089 6 101918513.14543  24889537.422    24889543.943    24889541.462
        39.000          20.0004
 122719718.040 6  95448702.832 5  22965318.149    22965326.209    22965318.240
        39.000          31.000
 109159951.707 8  84902212.271 8  20449328.144    20449334.985    20449329.196
        53.000          48.000
 116552100.215 8  90651629.921 7  21826463.003    21826471.051    21826463.189
        48.000          45.000
 126001041.981 6  98182653.11943  23977203.008    23977207.855    23977202.619
        41.000          19.0004
 129365481.130 4                                                  24617438.426
        29.000
 122710659.811 7  95618688.32845  23351056.988    23351061.540    23351057.273
        45.000          32.0004
 109947878.324 8  85515049.543 7  20625939.361    20625946.367    20625939.459
        53.000          44.000
 126913202.589 7  98893403.94944  24150785.178    24150794.694    24150786.311
        42.000          27.0004
 127038402.033 7  98990971.01944  24174611.730    24174617.183    24174613.044
        44.000          29.0004
 119219229.067 8  92898121.18246  22686652.425    22686655.902    22686652.953
        49.000          37.0004
 103721293.912 9  80672144.912 8  19389589.806    19389593.236    19389590.277
        55.000          49.000
 114412634.896 8  88987629.906 7  21440867.304    21440872.659    21440868.083
        52.000          47.000
 122169067.883 6  95020397.063 7  22846226.801    22846235.197    22846227.142
        41.000          42.000
 116450477.905 8  90740661.05146  22159782.053    22159785.056    22159781.601
        49.000          40.0004
 114538999.661 8  89251191.69946  21796047.160    21796051.636    21796047.467
        50.000          41.0004
 108443675.083 9  84501604.46047  20636137.221    20636140.036    20636137.027
        55.000          47.0004
 11 10  1  0 14 30.0000000  0 17G06R11R18R09G13G10G16R10G25G31G21R19
                                R02R20G05G30G29
 130687493.967 6 101834443.72943  24869007.462    24869013.290    24869006.271
        39.000          20.0004
 122610807.626 6  95363994.872 5  22944937.199    22944945.947    22944935.816
        40.000          31.000
 109244496.048 8  84967968.970 8  20465166.030    20465172.989    20465166.727
        53.000          50.000
 116663777.603 8  90738490.007 7  21847377.570    21847385.324    21847378.718
        50.000          46.000
 126045554.968 6  98217338.79243  23985672.456    23985679.898    23985674.071
        40.000          19.0004
 129462701.737 4                                                  24635935.645
        29.000
 122617744.163 7  95546286.46845  23333375.033    23333379.276    23333375.601
        46.000          31.0004
 109948526.068 8  85515553.310 7  20626060.195    20626067.489    20626060.608
        53.000          44.000
 127029788.131 6  98984249.65844  24172970.410    24172979.952    24172970.612
        41.000          26.0004
 127136063.956 7  99067071.04844  24193196.355    24193201.909    24193194.568
        42.000          28.0004
 119135928.088 8  92833211.35146  22670800.994    22670804.752    22670801.767
        50.000          38.0004
 103685826.378 9  80644559.060 8  19382959.349    19382963.042    19382959.749
        55.000          52.000
 114467702.125 8  89030459.995 8  21451186.090    21451192.382    21451187.407
        52.000          48.000
 122048662.395 6  94926748.420 7  22823709.299    22823718.620    22823708.094
        39.000          42.000
 116453249.109 8  90742820.46346  22160309.015    22160312.519    22160308.712
        49.000          40.0004
 114628985.513 8  89321310.45546  21813170.671    21813175.941    21813171.727
        50.000          41.0004
 108485485.420 8  84534183.91647  20644093.370    20644096.244    20644093.296
        53.000          47.0004
 11 10  1  0 15  0.0000000  0 16G06R11R18R09G13G16R10G25G31G21R19R02
                                R20G05G30G29
 130579686.413 6 101750437.89243  24848489.582    24848498.343    24848491.299
        38.000          21.0004
 122502376.013 6  95279659.192 5  22924645.489    22924654.425    22924646.856
        40.000          32.000
 109329461.197 8  85034052.947 8  20481083.196    20481089.864    20481083.616
        53.000          48.000
 116775932.226 8  90825721.281 7  21868380.873    21868387.828    21868381.493
        50.000          45.000
 126090652.964 6  98252480.11243  23994255.174    23994260.773    23994255.082
        39.000          18.0004
 122525153.534 7  95474137.95545  23315754.760    23315760.812    23315754.282
        45.000          31.0004
 109950060.360 8  85516746.629 7  20626348.823    20626355.802    20626349.501
        53.000          43.000
 127146503.513 7  99075196.52844  24195182.357    24195190.099    24195183.034
        45.000          28.0004
 127233957.701 7  99143351.76544  24211824.751    24211830.622    24211824.215
        43.000          28.0004
 119052900.493 8  92768514.54446  22655001.590    22655005.201    22655001.642
        51.000          39.0004
 103650954.634 9  80617436.547 8  19376440.236    19376444.010    19376440.602
        55.000          49.000
 114523529.468 8  89073881.288 7  21461648.796    21461654.593    21461650.311
        52.000          47.000
 121928418.619 6  94833225.554 7  22801224.412    22801232.467    22801223.739
        40.000          42.000
 116456656.270 8  90745475.39746  22160957.309    22160960.938    22160957.159
        51.000          41.0004
 114719408.619 8  89391769.95846  21830376.594    21830382.954    21830377.752
        49.000          40.0004
 108527761.219 9  84567126.06747  20652138.153    20652141.362    20652138.030
        54.000          47.0004
 11 10  1  0 15 30.0000000  0 16G06R11R18R09G13G16R10G25G31G21R19R02
                                R20G05G30G29
 130471962.204 6 101666496.90743  24827990.214    24828000.255    24827991.326
        38.000          21.0004
 122394428.320 6  95195700.058 5  22904445.016    22904452.910    22904445.652
        40.000          33.000
 109414844.781 8  85100462.362 8  20497078.653    20497084.659    20497078.770
        53.000          49.000
 116888560.057 8  90913320.580 7  21889473.130    21889479.486    21889473.887
        50.000          46.000
 126136334.485 6  98288076.18543  24002947.596    24002952.836    24002947.709
        41.000          18.0004
 122432890.944 7  95402245.02745  23298198.872    23298203.189    23298199.031
        45.000          32.0004
 109952481.583 8  85518629.801 7  20626803.571    20626809.391    20626804.342
        53.000          43.000
 127263346.740 7  99166243.05144  24217416.656    24217425.343    24217417.245
        44.000          29.0004
 127332080.660 7  99219811.06344  24230496.922    24230503.141    24230497.057
        43.000          28.0004
 118970148.554 8  92704032.53946  22639254.634    22639257.834    22639255.133
        50.000          39.0004
 103616680.003 9  80590778.405 8  19370033.373    19370036.758    19370033.229
        55.000          51.000
 114580115.112 8  89117892.380 8  21472252.384    21472258.410    21472253.336
        51.000          48.000
 121808337.958 6  94739829.575 7  22778768.892    22778776.952    22778770.485
        41.000          43.000
 116460699.485 8  90748625.92846  22161726.887    22161730.864    22161726.700
        49.000          41.0004
 114810267.002 8  89462568.61346  21847666.938    21847672.563    21847667.809
        48.000          40.0004
 108570501.655 8  84600430.28347  20660271.507    20660274.783    20660271.571
        53.000          47.0004
 11 10  1  0 16  0.0000000  0 16G06R11R18R09G13G16R10G25G31G21R19R02
                                R20G05G30G29
 130364329.410 6 101582627.24843  24807510.019    24807517.689    24807511.221
        39.000          22.0004
 122286975.020 6  95112125.476 5  22884336.423    22884344.008    22884337.921
        40.000          33.000
 109500651.210 9  85167200.654 7  20513153.295    20513159.148    20513153.794
        54.000          47.000
 117001663.487 8  91001289.773 7  21910653.228    21910659.980    21910655.006
        50.000          45.000
 126182604.784 7  98324130.95343  24011753.437    24011757.538    24011753.106
        42.000          19.0004
 122340965.175 7  95330614.55145  23280705.847    23280710.365    23280706.315
        46.000          31.0004
 109955796.483 8  85521208.016 7  20627424.379    20627430.982    20627424.155
        53.000          43.000
 127380322.037 7  99257392.46844  24239675.544    24239685.125    24239674.368
        43.000          29.0004
 127430436.740 6  99296452.01544  24249212.861    24249218.750    24249210.543
        40.000          28.0004
 118887680.171 8  92639771.47946  22623561.423    22623564.161    22623561.846
        51.000          39.0004
 103583010.173 9  80564590.656 8  19363739.112    19363742.552    19363739.425
        55.000          49.000
 114637462.762 8  89162496.084 7  21482998.804    21483005.247    21482999.220
        50.000          47.000
 121688429.720 6  94646567.665 7  22756344.217    22756354.159    22756344.111
        40.000          44.000
 116465385.633 8  90752277.41346  22162618.312    22162622.586    22162618.178
        48.000          41.0004
 114901564.420 8  89533709.34846  21865041.240    21865045.460    21865041.605
        50.000          39.0004
 108613712.073 8  84634100.69948  20668494.335    20668497.434    20668494.045
        53.000          48.0004
 11 10  1  0 16 30.0000000  0 16G06R11R18R09G13G16R10G25G31G21R19R02
                                R20G05G30G29
 130256777.683 6 101498820.74643  24787044.311    24787050.767    24787045.506
        39.000          21.0004
 122180007.964 6  95028928.942 5  22864317.870    22864326.026    22864319.195
        40.000          32.000
 109586867.302 9  85234257.574 8  20529304.356    20529310.312    20529304.879
        54.000          48.000
 117115226.476 8  91089616.411 7  21931920.041    21931927.058    21931920.317
        50.000          45.000
 126229450.292 7  98360633.95443  24020667.583    24020671.654    24020668.307
        42.000          19.0004
 122249366.733 7  95259239.15845  23263275.101    23263279.224    23263274.705
        45.000          32.0004
 109959993.082 8  85524472.019 7  20628211.920    20628218.881    20628212.662
        52.000          44.000
 127497415.366 7  99348633.87745  24261958.525    24261967.448    24261959.329
        45.000          31.0004
 127529011.235 7  99373263.17244  24267971.990    24267976.949    24267972.661
        43.000          28.0004
 118805485.173 8  92575723.46246  22607919.813    22607922.559    22607921.065
        51.000          38.0004
 103549934.759 9  80538865.294 8  19357555.824    19357559.766    19357556.010
        55.000          51.000
 114695557.739 8  89207681.079 8  21493886.578    21493892.710    21493887.641
        50.000          48.000
 121568683.965 6  94553432.122 7  22733951.802    22733960.510    22733954.419
        41.000          43.000
 116470702.028 8  90756419.99746  22163630.452    22163634.512    22163629.782
        49.000          41.0004
 114993286.560 8  89605181.05946  21882494.592    21882499.635    21882495.380
        48.000          39.0004
 108657379.983 8  84668127.61348  20676804.030    20676807.350    20676803.713
        53.000          48.0004
 11 10  1  0 17  0.0000000  0 16G06R11R18R09G13G16R10G25G31G21R19R02
                                R20G05G30G29
 130149316.977 6 101415085.13043  24766594.457    24766602.541    24766595.718
        39.000          21.0004
 122073540.537 6  94946121.132 5  22844394.995    22844401.405    22844395.068
        40.000          34.000
 109673499.353 9  85301638.003 7  20545533.567    20545539.394    20545533.917
        54.000          47.000
 117229253.316 8  91178303.818 7  21953274.137    21953280.860    21953275.152
        50.000          45.000
 126276877.517 7  98397590.21643  24029692.545    24029698.860    24029691.606
        42.000          19.0004
 122158107.152 7  95188127.84345  23245909.415    23245913.163    23245909.051
        47.000          31.0004
 109965079.494 8  85528428.105 7  20629166.362    20629173.733    20629166.943
        53.000          44.000
 127614632.987 7  99439972.07645  24284264.706    24284273.328    24284265.651
        45.000          31.0004
 127627809.701 6  99450248.89644  24286772.260    24286778.633    24286770.158
        41.000          28.0004
 118723573.437 8  92511896.14946  22592332.560    22592335.634    22592333.167
        52.000          39.0004
 103517462.845 9  80513609.320 8  19351485.532    19351489.625    19351485.995
        55.000          50.000
 114754405.978 8  89253451.917 7  21504914.161    21504920.226    21504915.570
        51.000          47.000
 121449111.426 7  94460431.356 7  22711592.611    22711599.758    22711594.139
        42.000          43.000
 116476657.235 8  90761060.36047  22164763.850    22164767.872    22164763.440
        51.000          42.0004
 115085439.174 7  89676988.22946  21900030.115    21900036.006    21900030.890
        47.000          39.0004
 108701512.803 9  84702516.79748  20685202.086    20685205.516    20685201.817
        54.000          48.0004
 11 10  1  0 17 30.0000000  0 16G06R11R18R09G13G16R10G25G31G21R19R02
                                R20G05G30G29
 130041942.156 6 101331416.44843  24746161.537    24746169.258    24746159.576
        37.000          22.0004
 121967570.217 6  94863700.231 5  22824562.565    22824570.471    22824563.118
        41.000          34.000
 109760538.080 8  85369334.759 8  20561838.623    20561844.370    20561839.057
        53.000          48.000
 117343732.879 8  91267343.368 7  21974711.588    21974719.854    21974711.933
        49.000          46.000
 126324877.454 6  98434992.72143  24038826.466    24038831.908    24038826.936
        40.000          21.0004
 122067181.500 7  95117276.69545  23228606.859    23228610.809    23228606.567
        46.000          32.0004
 109971048.991 9  85533071.026 7  20630286.132    20630293.854    20630287.213
        54.000          45.000
 127731965.687 6  99531399.99344  24306591.209    24306601.698    24306589.950
        41.000          29.0004
 127726822.534 7  99527401.61544  24305614.809    24305619.817    24305614.226
        45.000          28.0004
 118641939.601 8  92448285.40346  22576798.432    22576801.822    22576798.728
        51.000          39.0004
 103485588.686 9  80488818.288 8  19345527.128    19345531.288    19345527.459
        55.000          52.000
 114813998.015 8  89299801.357 8  21516082.096    21516088.455    21516083.207
        51.000          48.000
 121329707.430 6  94367561.644 7  22689260.972    22689270.814    22689262.353
        40.000          43.000
 116483244.278 8  90766193.08247  22166017.081    22166021.433    22166016.843
        50.000          42.0004
 115178012.934 8  89749123.53946  21917647.438    21917652.379    21917648.110
        49.000          40.0004
 108746102.937 9  84737262.31648  20693687.417    20693690.621    20693687.213
        54.000          48.0004
 11 10  1  0 18  0.0000000  0 16G06R11R18R09G13G16R10G25G31G21R19R02
                                R20G05G30G29
 129934658.919 6 101247819.12143  24725746.218    24725753.573    24725745.733
        38.000          22.0004
 121862104.247 6  94781671.359 5  22804824.741    22804834.659    22804825.798
        41.000          35.000
 109847985.123 9  85437349.070 7  20578220.560    20578226.296    20578221.180
        54.000          47.000
 117458665.004 8  91356734.885 7  21996235.062    21996243.272    21996235.126
        49.000          45.000
 126373451.206 6  98472842.05843  24048070.770    24048076.097    24048070.992
        40.000          20.0004
 121976596.470 7  95046691.01245  23211368.316    23211373.538    23211368.647
        45.000          32.0004
 109977905.558 8  85538403.886 7  20631572.231    20631579.916    20631572.475
        53.000          44.000
 127849415.253 7  99622919.00944  24328940.968    24328952.258    24328941.604
        42.000          27.0004
 127826050.637 7  99604722.10944  24324497.980    24324501.867    24324497.893
        45.000          29.0004
 118560589.135 8  92384895.46846  22561318.134    22561321.802    22561318.468
        50.000          40.0004
 103454317.225 9  80464495.986 8  19339681.341    19339685.573    19339681.489
        55.000          49.000
 114874334.660 8  89346729.861 7  21527388.706    21527396.007    21527389.213
        50.000          47.000
 121210478.188 6  94274827.872 7  22666964.561    22666974.181    22666967.116
        41.000          43.000
 116490466.635 8  90771820.87346  22167391.655    22167395.535    22167391.348
        49.000          41.0004
 115271009.242 8  89821588.12746  21935344.523    21935349.218    21935344.512
        50.000          40.0004
 108791153.160 9  84772366.36548  20702260.350    20702263.454    20702260.189
        54.000          48.0004
 11 10  1  0 18 30.0000000  0 16G06R11R18R09G13G16R10G25G31G21R19R02
                                R20G05G30G29
 129827471.045 6 101164296.14143  24705349.690    24705356.591    24705348.540
        40.000          23.0004
 121757149.211 6  94700039.634 6  22785185.321    22785193.526    22785185.648
        41.000          36.000
 109935841.421 8  85505681.664 8  20594678.526    20594685.161    20594678.941
        52.000          48.000
 117574047.776 8  91446476.913 7  22017842.945    22017851.180    22017841.883
        49.000          46.000
 126422600.809 6  98511140.27343  24057422.933    24057428.986    24057421.723
        39.000          20.0004
 121886356.883 7  94976374.48745  23194196.161    23194201.433    23194196.316
        47.000          32.0004
 109985650.849 8  85544427.965 7  20633026.125    20633032.502    20633027.101
        53.000          44.000
 127966981.635 7  99714528.99544  24351314.630    24351324.899    24351316.989
        43.000          25.0004
 127925493.261 7  99682209.70545  24343421.286    24343425.342    24343421.450
        44.000          30.0004
 118479525.892 8  92321729.33446  22545892.064    22545896.232    22545891.906
        50.000          40.0004
 103423651.772 9  80440645.021 8  19333948.522    19333953.050    19333948.727
        55.000          52.000
 114935415.519 8  89394237.166 8  21538835.420    21538842.040    21538836.217
        50.000          48.000
 121091427.372 6  94182232.849 7  22644701.832    22644710.289    22644701.508
        41.000          43.000
 116498326.302 8  90777945.24846  22168887.086    22168890.823    22168886.357
        50.000          40.0004
 115364427.620 8  89894381.59846  21953120.805    21953126.066    21953120.868
        49.000          39.0004
 108836664.586 9  84807829.79148  20710920.929    20710923.823    20710921.087
        55.000          48.0004
 11 10  1  0 19  0.0000000  0 16G06R11R18R09G13G16R10G25G31G21R19R02
                                R20G05G30G29
 129720379.752 6 101080848.37943  24684970.638    24684978.135    24684970.367
        41.000          23.0004
 121652709.152 6  94618808.489 6  22765639.957    22765650.513    22765640.855
        41.000          37.000
 110024104.058 8  85574330.342 8  20611213.730    20611219.867    20611214.539
        53.000          48.000
 117689876.445 8  91536565.762 7  22039532.858    22039541.398    22039534.824
        49.000          45.000
 126472323.770 6  98549885.35443  24066885.484    24066890.273    24066885.988
        41.000          20.0004
 121796464.997 7  94906328.87845  23177090.301    23177095.706    23177091.146
        45.000          33.0004
 109994284.928 8  85551143.330 7  20634644.519    20634651.874    20634644.785
        52.000          43.000
 128084662.358 6  99806228.05643  24373709.446    24373718.398    24373708.805
        41.000          22.0004
 128025147.654 7  99759862.32244  24362383.314    24362389.236    24362382.556
        43.000          29.0004
 118398751.207 8  92258788.04846  22530520.616    22530524.984    22530520.325
        50.000          40.0004
 103393592.967 9  80417265.857 8  19328329.514    19328333.685    19328329.682
        54.000          50.000
 114997237.612 8  89442320.983 7  21550420.941    21550426.832    21550421.688
        50.000          47.000
 120972557.438 6  94089778.549 7  22622471.794    22622480.949    22622470.692
        40.000          43.000
 116506823.133 8  90784566.16146  22170503.571    22170507.771    22170502.935
        50.000          39.0004
 115458265.224 8  89967501.72746  21970977.680    21970982.050    21970978.412
        50.000          40.0004
 108882636.218 9  84843651.80148  20719669.149    20719672.029    20719669.248
        56.000          48.0004
 11 10  1  0 19 30.0000000  0 16G06R11R18R09G13G16R10G25G31G21R19R02
                                R20G05G30G29
 129613381.661 6 100997473.22443  24664608.746    24664617.692    24664608.801
        39.000          23.0004
 121548783.447 7  94537977.356 6  22746193.630    22746201.128    22746195.220
        42.000          37.000
 110112765.881 8  85643289.494 8  20627822.962    20627829.844    20627823.600
        53.000          49.000
 117806141.923 8  91626994.330 7  22061306.136    22061313.744    22061306.473
        48.000          45.000
 126522612.419 6  98589071.27543  24076454.868    24076459.912    24076455.190
        41.000          20.0004
 121706918.397 7  94836552.32745  23160050.387    23160055.931    23160051.468
        47.000          33.0004
 110003801.910 8  85558545.406 7  20636430.449    20636437.152    20636430.564
        53.000          43.000
 128202450.051 6  99898010.50342  24396123.373    24396132.561    24396122.047
        38.000          17.0004
 128125005.891 7  99837673.79844  24381385.859    24381391.853    24381385.880
        43.000          28.0004
 118318261.408 8  92196068.75846  22515203.534    22515207.543    22515203.934
        50.000          39.0004
 103364136.539 9  80394355.185 8  19322822.848    19322827.203    19322823.045
        54.000          52.000
 115059793.137 8  89490975.264 8  21562143.617    21562149.874    21562144.112
        49.000          48.000
 120853864.591 7  93997461.948 7  22600276.938    22600285.031    22600277.666
        42.000          44.000
 116515951.252 8  90791679.00846  22172240.790    22172244.950    22172240.920
        49.000          40.0004
 115552514.337 8  90040942.51846  21988913.052    21988917.443    21988913.657
        50.000          39.0004
 108929061.834 9  84879827.57448  20728503.713    20728506.484    20728503.499
        54.000          48.0004
 11 10  1  0 20  0.0000000  0 16G06R11R18R09G13G16R10G25G31G21R19R02
                                R20G05G30G29
 129506476.207 6 100914170.27943  24644266.086    24644274.759    24644265.994
        38.000          22.0004
 121445374.356 7  94457548.251 6  22726839.858    22726848.477    22726841.193
        42.000          37.000
 110201823.610 8  85712556.570 7  20644506.121    20644512.872    20644506.118
        53.000          47.000
 117922838.041 8  91717757.841 7  22083160.095    22083167.508    22083161.600
        50.000          44.000
 126573462.584 6  98628694.46743  24086130.771    24086138.423    24086130.681
        40.000          20.0004
 121617717.172 7  94767044.90345  23143076.410    23143080.277    23143076.774
        47.000          33.0004
 110014199.601 8  85566632.482 7  20638381.647    20638388.627    20638382.626
        53.000          43.000
 128320340.621 5  99989873.16042  24418555.564    24418566.862    24418555.047
        34.000          13.0004
 128225063.136 7  99915640.35444  24400426.927    24400432.408    24400428.933
        44.000          29.0004
 118238055.876 8  92133570.99546  22499940.931    22499944.563    22499941.832
        50.000          39.0004
 103335281.981 9  80371912.687 8  19317429.157    19317432.939    19317429.216
        54.000          49.000
 115123077.125 8  89540196.128 7  21574003.371    21574009.633    21574004.258
        49.000          47.000
 120735349.401 7  93905283.550 7  22578113.155    22578121.725    22578113.994
        42.000          42.000
 116525708.602 7  90799282.13846  22174097.351    22174101.893    22174097.506
        47.000          40.0004
 115647170.501 8  90114700.47346  22006925.621    22006930.259    22006925.271
        49.000          40.0004
 108975938.743 8  84916355.00747  20737423.971    20737426.819    20737424.176
        53.000          47.0004
