     2.11           OBSERVATION DATA    M (MIXED)           RINEX VERSION / TYPE
teqc  2016Apr1                          20160930 07:51:16UTCPGM / RUN BY / DATE
Linux 2.4.20-8|Pentium IV|gcc|Linux|486/DX+                 COMMENT
teqc  2016Apr1                          20160816 03:31:24UTCCOMMENT
teqc  2010Mar17                         20111002 00:01:16UTCCOMMENT
BIT 2 OF LLI FLAGS DATA COLLECTED UNDER A/S CONDITION       COMMENT
                                                            COMMENT
This data is provided as a public service by Regional GPS   COMMENT
Data Acquisition/Analysis Center (RDAAC), Moscow, RUSSIA.   COMMENT
No warranty is expressed or implied regarding suitability   COMMENT
for use. For further information, contact:                  COMMENT
Grigory M. Steblov (steblov@gps.gsras.ru)                   COMMENT
                                                            COMMENT
 SNR is mapped to RINEX snr flag value [0-9]                COMMENT
  L1 & L2: min(max(int(snr_dBHz/6), 0), 9)                  COMMENT
pseudorange smoothing corrections not applied               COMMENT
MOBJ                                                        MARKER NAME
12365M002                                                   MARKER NUMBER
FDI                 RDAAC                                   OBSERVER / AGENCY
MT302240425         JPS LEGACY          2.6.1 Jan,10,2008   REC # / TYPE / VERS
RA0033              JPSREGANT_SD_E  NONE                    ANT # / TYPE
  2936423.7564  2178373.6545  5208857.4685                  APPROX POSITION XYZ
        0.1312        0.0000        0.0000                  ANTENNA: DELTA H/E/N
     1     1                                                WAVELENGTH FACT L1/2
     7    L1    L2    C1    P1    P2    S1    S2            # / TYPES OF OBSERV
    30.0000                                                 INTERVAL
teqc windowed: start @ 2011 Oct  1 00:10:00.000             COMMENT
teqc windowed:  end  @ 2011 Oct  1 00:20:00.000             COMMENT
  2011    10     1     0    10    0.0000000     GPS         TIME OF FIRST OBS
    15                                                      LEAP SECONDS
                                                            END OF HEADER
 11 10  1  0 10  0.0000000  0 16G13R10R12G10G02R08G05G23R02G08R01G16
                                R11R19G07G04
 106464421.678 8  82959330.23547  20259503.100    20259503.761    20259505.403
        52.000          44.0004
 115614811.378 7  89922653.633 6  21689037.633    21689036.592    21689041.761
        47.000          37.000
 116323587.489 7  90473946.624 6  21776020.594    21776019.850    21776024.309
        47.000          41.000
 109528045.039 8  85346544.29446  20842492.268    20842491.410    20842494.237
        51.000          40.0004
 122222140.982 6  95238057.58744  23258099.223    23258099.137    23258099.004
        39.000          25.0004
 122641503.003 5  95387860.557 5  22902434.884    22902435.056    22902439.253
        34.000          31.000
 127515435.753 5                  24265370.116
        32.000
 112948793.796 8  88012063.14946  21493432.928    21493433.454    21493433.274
        49.000          37.0004
 110535672.427 8  85972211.250 7  20714335.126    20714335.047    20714337.875
        51.000          44.000
 123279126.802 6  96061681.71144  23459235.963    23459236.871    23459240.500
        41.000          25.0004
 104570286.060 9  81332488.037 6  19562035.410    19562034.854    19562037.706
        54.000          41.000
 116461529.057 8  90749262.09045  22161888.492    22161888.191    22161890.239
        48.000          34.0004
 102793516.062 8  79950538.556 7  19236398.051    19236397.397    19236401.262
        52.000          43.000
 124139190.404 6  96552727.148 6  23206510.792    23206510.459    23206513.042
        40.000          36.000
 111758447.842 8  87084523.61846  21266919.625    21266920.712    21266922.345
        52.000          41.0004
 127791820.565 6  99578043.11743  24317970.309    24317970.241    24317973.977
        38.000          19.0004
 11 10  1  0 10 30.0000000  0 16G13R10R12G10G02R08G05G23R02G08R01G16
                                R11R19G07G04
 106362959.699 8  82880268.95747  20240196.021    20240196.367    20240197.998
        52.000          44.0004
 115592213.274 7  89905077.310 6  21684796.717    21684797.124    21684804.194
        47.000          37.000
 116079201.028 8  90283868.298 7  21730271.369    21730270.167    21730276.337
        48.000          42.000
 109390502.207 8  85239368.05546  20816317.975    20816317.605    20816321.030
        50.000          40.0004
 122120070.741 6  95158522.33443  23238677.319    23238676.047    23238675.112
        38.000          22.0004
 122636816.052 5  95384215.027 4  22901561.818    22901559.857    22901562.024
        31.000          28.000
 127285612.642 5  99183575.85742  24221639.474    24221638.561    24221643.305
        34.000          12.0004
 112889615.878 8  87965950.47346  21482171.573    21482171.994    21482171.505
        48.000          36.0004
 110318513.469 8  85803309.853 7  20673640.251    20673639.523    20673642.179
        51.000          44.000
 123048500.418 6  95881972.85644  23415349.659    23415349.359    23415353.860
        41.000          26.0004
 104482936.076 9  81264549.154 6  19545694.860    19545694.426    19545697.222
        55.000          41.000
 116344724.574 7  90658245.62145  22139660.549    22139660.689    22139663.769
        47.000          34.0004
 102663706.666 8  79849575.698 7  19212106.047    19212105.246    19212108.962
        51.000          43.000
 123976731.868 6  96426370.406 6  23176138.933    23176139.730    23176144.406
        39.000          37.000
 111562235.994 8  86931631.29546  21229581.757    21229582.705    21229584.283
        52.000          41.0004
 127756909.349 6  99550839.54843  24311325.828    24311328.329    24311331.906
        38.000          18.0004
 11 10  1  0 11  0.0000000  0 16G13R10R12G10G02R08G05G23R02G08R01G16
                                R11R19G07G04
 106261934.537 8  82801548.05047  20220971.026    20220971.808    20220973.439
        52.000          44.0004
 115569910.742 7  89887730.893 6  21680614.782    21680614.019    21680619.787
        46.000          37.000
 115835165.533 7  90094062.931 6  21684586.839    21684586.259    21684590.965
        47.000          41.000
 109253562.476 8  85132661.76846  20790259.284    20790259.100    20790262.250
        50.000          40.0004
 122018560.895 6  95079423.75244  23219358.943    23219358.830    23219359.761
        39.000          24.0004
 122632344.985 5  95380737.414 4  22900727.093    22900724.727    22900730.262
        31.000          27.000
 127056022.470 5  99004674.41242  24177947.619    24177949.286    24177951.672
        33.000          13.0004
 112830763.065 8  87920091.15346  21470972.583    21470972.918    21470972.343
        49.000          36.0004
 110101848.755 8  85634792.870 7  20633036.811    20633036.486    20633038.057
        51.000          43.000
 122818067.058 7  95702414.39944  23371500.391    23371500.491    23371504.344
        42.000          27.0004
 104396282.675 8  81197152.054 6  19529484.170    19529483.813    19529486.658
        53.000          41.000
 116228564.071 7  90567730.95445  22117556.276    22117556.330    22117558.544
        47.000          35.0004
 102534609.360 8  79749166.695 7  19187946.978    19187946.287    19187950.134
        51.000          43.000
 123815048.127 6  96300616.312 5  23145917.133    23145916.621    23145917.498
        41.000          35.000
 111366430.460 8  86779055.57346  21192321.492    21192322.070    21192323.697
        51.000          41.0004
 127722188.032 6  99523783.93143  24304720.873    24304721.049    24304723.604
        39.000          18.0004
 11 10  1  0 11 30.0000000  0 15G13R10R12G10G02G05G23R02G08R01G16R11
                                R19G07G04
 106161342.845 8  82723164.91047  20201828.958    20201829.674    20201831.557
        52.000          44.0004
 115547897.468 7  89870609.445 6  21676485.798    21676484.177    21676489.140
        47.000          36.000
 115591480.241 8  89904529.966 7  21638968.650    21638967.411    21638973.419
        48.000          42.000
 109117222.929 8  85026423.15746  20764314.827    20764314.339    20764317.926
        52.000          41.0004
 121917607.603 6  95000758.83544  23200148.195    23200147.861    23200149.097
        40.000          24.0004
 126826664.513 5  98825953.98342  24134304.083    24134304.001    24134306.071
        34.000          16.0004
 112772231.538 8  87874482.15846  21459834.028    21459834.172    21459834.257
        49.000          36.0004
 109885678.583 8  85466660.522 7  20592526.815    20592525.988    20592529.592
        51.000          44.000
 122587824.861 6  95523004.91044  23327687.095    23327686.855    23327690.081
        41.000          26.0004
 104310321.958 9  81130293.710 7  19513403.826    19513403.310    19513405.954
        54.000          42.000
 116113044.260 7  90477715.51845  22095574.039    22095573.729    22095575.536
        47.000          35.0004
 102406219.878 8  79649308.218 7  19163920.905    19163920.114    19163923.571
        51.000          43.000
 123654137.788 6  96175463.884 6  23115838.202    23115837.428    23115838.919
        41.000          36.000
 111171029.044 8  86626794.74246  21155137.910    21155138.644    21155139.935
        51.000          41.0004
 127687650.359 6  99496871.46443  24298147.190    24298148.745    24298152.480
        39.000          19.0004
 11 10  1  0 12  0.0000000  0 15G13R10R12G10G02G05G23R02G08R01G16R11
                                R19G07G04
 106061186.294 8  82645120.84747  20182770.226    20182770.652    20182772.216
        52.000          43.0004
 115526172.816 7  89853712.499 6  21672408.828    21672408.323    21672414.898
        46.000          36.000
 115348149.900 8  89715273.073 6  21593416.913    21593416.422    21593420.189
        48.000          41.000
 108981486.513 8  84920654.52346  20738485.090    20738484.590    20738488.159
        51.000          41.0004
 121817211.362 7  94922527.99144  23181043.588    23181043.432    23181044.126
        42.000          25.0004
 126597543.381 6  98647418.02942  24090704.213    24090704.932    24090705.733
        37.000          17.0004
 112714022.625 7  87829124.55145  21448756.684    21448756.371    21448757.229
        47.000          35.0004
 109670009.035 8  85298917.535 7  20552110.044    20552109.446    20552112.415
        50.000          43.000
 122357777.738 6  95343747.46844  23283909.016    23283909.298    23283913.689
        41.000          26.0004
 104225055.505 9  81063975.353 6  19497452.865    19497452.399    19497455.243
        54.000          41.000
 115998166.839 8  90388200.66245  22073713.007    22073713.283    22073714.873
        48.000          34.0004
 102278539.401 8  79550001.184 7  19140027.474    19140026.726    19140029.975
        51.000          43.000
 123494003.962 6  96050915.382 6  23085900.422    23085901.306    23085902.090
        40.000          36.000
 110976035.498 8  86474851.73946  21118031.239    21118032.247    21118034.098
        50.000          41.0004
 127653295.487 6  99470101.38042  24291608.677    24291609.576    24291613.640
        37.000          17.0004
 11 10  1  0 12 30.0000000  0 15G13R10R12G10G02G05G23R02G08R01G16R11
                                R19G07G04
 105961458.684 8  82567411.01947  20163792.160    20163793.057    20163794.836
        52.000          44.0004
 115504727.302 7  89837032.652 6  21668384.057    21668383.965    21668391.536
        45.000          36.000
 115105170.991 7  89526289.507 6  21547930.218    21547929.826    21547935.275
        47.000          41.000
 108846347.454 8  84815351.35246  20712768.699    20712768.302    20712771.465
        51.000          41.0004
 121717364.739 6  94844725.42244  23162043.046    23162042.817    23162043.856
        41.000          25.0004
 126368655.833 6  98469064.11743  24047146.087    24047147.990    24047150.626
        37.000          19.0004
 112656129.119 8  87784012.71445  21437740.456    21437740.509    21437740.221
        48.000          35.0004
 109454837.050 8  85131561.556 7  20511787.190    20511787.119    20511789.761
        51.000          44.000
 122127921.461 7  95164638.69444  23240170.368    23240169.804    23240173.319
        43.000          28.0004
 104140475.830 9  80998191.140 7  19481630.171    19481629.862    19481632.802
        54.000          42.000
 115883925.362 7  90299181.32645  22051972.981    22051973.302    22051975.436
        47.000          34.0004
 102151560.934 8  79451240.165 7  19116265.226    19116264.369    19116267.433
        53.000          43.000
 123334642.581 6  95926967.675 6  23056112.071    23056110.393    23056113.697
        40.000          37.000
 110781445.050 8  86323222.83646  21081002.447    21081003.008    21081004.974
        51.000          41.0004
 127619114.668 6  99443467.00342  24285106.332    24285106.868    24285109.613
        36.000          17.0004
 11 10  1  0 13  0.0000000  0 15G13R10R12G10G02G05G23R02G08R01G16R11
                                R19G07G04
 105862173.376 8  82490045.85047  20144898.685    20144899.594    20144901.354
        53.000          44.0004
 115483571.449 7  89820578.086 6  21664417.763    21664416.615    21664422.122
        46.000          36.000
 114862560.123 8  89337592.213 6  21502513.204    21502512.488    21502517.158
        49.000          41.000
 108711820.667 8  84710525.28546  20687169.420    20687168.886    20687172.261
        52.000          41.0004
 121618080.394 6  94767360.99644  23143149.070    23143150.002    23143151.518
        40.000          25.0004
 126140018.506 6  98290905.16743  24003640.120    24003640.000    24003641.666
        39.000          19.0004
 112598564.388 8  87739157.07545  21426785.092    21426785.580    21426786.985
        49.000          35.0004
 109240180.264 8  84964606.304 7  20471561.046    20471560.415    20471562.760
        50.000          43.000
 121898271.582 6  94985690.74044  23196468.698    23196468.572    23196472.093
        41.000          26.0004
 104056596.584 9  80932951.726 6  19465939.215    19465938.740    19465941.306
        54.000          41.000
 115770333.126 8  90210667.88845  22030358.692    22030358.406    22030359.890
        48.000          34.0004
 102025297.315 8  79353035.141 7  19092636.303    19092635.681    19092639.194
        51.000          43.000
 123176069.614 6  95803633.235 6  23026463.835    23026464.813    23026468.654
        38.000          36.000
 110587272.856 8  86171919.84646  21044051.967    21044053.183    21044055.379
        50.000          41.0004
 127585118.750 6  99416976.62443  24278637.930    24278637.503    24278641.669
        38.000          18.0004
 11 10  1  0 13 30.0000000  0 15G13R10R12G10G02G05G23R02G08R01G16R11
                                R19G07G04
 105763313.254 8  82413011.98747  20126086.856    20126087.360    20126089.160
        53.000          45.0004
 115462685.395 7  89804333.355 5  21660499.352    21660498.496    21660503.704
        47.000          35.000
 114620302.485 7  89149169.630 6  21457160.625    21457160.163    21457165.756
        47.000          41.000
 108577889.477 8  84606163.32346  20661683.240    20661682.891    20661685.958
        51.000          41.0004
 121519340.099 6  94690420.49544  23124358.828    23124360.322    23124360.908
        37.000          24.0004
 125911616.769 6  98112929.81543  23960176.989    23960177.927    23960178.641
        37.000          20.0004
 112541310.342 8  87694543.50246  21415890.690    21415891.811    21415891.539
        49.000          36.0004
 109026025.041 8  84798041.132 7  20431428.142    20431427.802    20431429.582
        51.000          43.000
 121668812.499 7  94806891.49444  23152803.236    23152803.950    23152808.361
        42.000          27.0004
 103973399.398 9  80868242.787 6  19450375.341    19450374.871    19450377.832
        54.000          41.000
 115657372.658 7  90122646.75745  22008862.456    22008862.278    22008864.806
        46.000          34.0004
 101899730.444 8  79255372.030 7  19069138.229    19069137.633    19069140.871
        51.000          43.000
 123018268.755 6  95680899.286 6  22996966.862    22996966.421    22996970.303
        40.000          37.000
 110393502.856 8  86020930.25546  21007178.940    21007180.090    21007182.174
        50.000          41.0004
 127551287.981 6  99390614.96143  24272198.961    24272198.891    24272204.043
        39.000          19.0004
 11 10  1  0 14  0.0000000  0 15G13R10R12G10G02G05G23R02G08R01G16R11
                                R19G07G04
 105664885.920 8  82336315.36747  20107356.947    20107357.169    20107358.940
        52.000          44.0004
 115442073.828 7  89788302.126 6  21656632.291    21656631.411    21656637.164
        47.000          36.000
 114378408.488 8  88961029.903 7  21411880.060    21411879.414    21411883.152
        48.000          42.000
 108444562.299 8  84502272.01246  20636311.691    20636311.217    20636314.453
        53.000          41.0004
 121421150.127 6  94613908.81743  23105674.909    23105675.348    23105676.420
        38.000          23.0004
 125683461.007 6  97935146.11343  23916758.723    23916759.275    23916762.028
        37.000          19.0004
 112484374.126 8  87650177.62946  21405057.116    21405057.619    21405056.542
        49.000          36.0004
 108812383.032 8  84631875.136 7  20391391.582    20391390.917    20391393.861
        50.000          43.000
 121439553.974 7  94628248.49044  23109177.809    23109177.670    23109182.145
        42.000          28.0004
 103890891.464 9  80804069.941 6  19434940.396    19434939.998    19434942.786
        54.000          41.000
 115545050.907 7  90035123.32545  21987487.148    21987487.611    21987490.086
        45.000          33.0004
 101774866.782 8  79158255.852 7  19045771.789    19045770.985    19045774.354
        51.000          43.000
 122861249.427 6  95558772.936 6  22967614.642    22967614.659    22967617.114
        41.000          36.000
 110200144.377 8  85870261.33246  20970384.535    20970385.197    20970387.269
        51.000          41.0004
 127517627.035 6  99364385.59643  24265794.246    24265794.807    24265798.754
        38.000          20.0004
 11 10  1  0 14 30.0000000  0 15G13R10R12G10G02G05G23R02G08R01G16R11
                                R19G07G04
 105566886.674 8  82259952.30847  20088707.720    20088708.579    20088710.119
        53.000          44.0004
 115421729.126 7  89772478.469 5  21652817.032    21652815.657    21652821.191
        47.000          35.000
 114136876.319 8  88773171.604 7  21366663.335    21366662.810    21366668.374
        48.000          43.000
 108311835.524 8  84398848.54446  20611054.567    20611054.108    20611057.630
        52.000          41.0004
 121323504.814 6  94537821.58044  23087093.981    23087093.529    23087095.151
        39.000          24.0004
 125455549.641 6  97757552.90043  23873390.548    23873390.344    23873392.625
        37.000          22.0004
 112427750.597 7  87606055.38746  21394281.748    21394281.685    21394282.145
        47.000          36.0004
 108599253.325 8  84466107.588 7  20351450.125    20351449.948    20351453.386
        50.000          43.000
 121210492.968 7  94449759.45544  23065588.705    23065588.439    23065592.570
        42.000          27.0004
 103809067.511 8  80740429.072 7  19419633.935    19419633.302    19419636.180
        53.000          42.000
 115433363.413 7  89948094.12045  21966233.890    21966234.230    21966236.330
        46.000          33.0004
 101650701.269 9  79061682.675 7  19022535.962    19022535.287    19022538.290
        54.000          43.000
 122705009.134 6  95437252.536 6  22938407.802    22938407.718    22938408.805
        41.000          36.000
 110007194.230 8  85719910.57946  20933667.523    20933668.093    20933669.743
        51.000          41.0004
 127484128.994 6  99338283.27143  24259417.681    24259419.455    24259425.176
        37.000          20.0004
 11 10  1  0 15  0.0000000  0 15G13R10R12G10G02G05G23R02G08R01G16R11
                                R19G07G04
 107044738.198 9  83411524.92447  20369933.576    20369934.440    20369936.136
        54.000          44.0004
 116999711.211 7  90999797.853 5  21948840.812    21948840.513    21948846.280
        46.000          35.000
 115497153.796 8  89831165.274 7  21621310.040    21621309.357    21621314.973
        48.000          43.000
 109755133.638 8  85523496.42246  20885704.867    20885704.585    20885708.326
        52.000          41.0004
 122801825.918 6  95689760.10644  23368408.772    23368409.331    23368409.452
        41.000          25.0004
 126803312.980 6  98807758.09343  24129860.363    24129861.213    24129862.375
        38.000          21.0004
 113946860.344 8  88789777.24546  21683358.770    21683358.751    21683358.584
        48.000          36.0004
 109986396.067 8  85544996.410 7  20611400.474    20611399.788    20611402.992
        50.000          42.000
 122557058.615 7  95499031.41344  23321830.738    23321831.206    23321835.035
        43.000          26.0004
 105330491.329 9  81923758.699 7  19704247.517    19704247.048    19704250.083
        54.000          42.000
 116897733.003 8  91089161.33745  22244895.249    22244894.974    22244896.980
        49.000          34.0004
 103129236.583 8  80211654.597 7  19299223.426    19299222.761    19299226.505
        52.000          43.000
 124153242.198 6  96563656.022 6  23209138.147    23209138.885    23209140.565
        40.000          37.000
 111390079.800 8  86797483.77146  21196821.473    21196822.387    21196824.128
        51.000          41.0004
 129026211.694 6 100539906.10243  24552868.649    24552868.613    24552872.952
        39.000          20.0004
 11 10  1  0 15 30.0000000  0 15G13R10R12G10G02G05G23R02G08R01G16R11
                                R19G07G04
 106947595.383 8  83335829.22447  20351447.941    20351448.510    20351450.207
        52.000          43.0004
 116979892.769 8  90984383.514 5  21945123.219    21945123.124    21945128.338
        48.000          35.000
 115256354.628 7  89643877.060 7  21576230.524    21576230.524    21576236.664
        47.000          42.000
 109623610.214 8  85421010.64247  20860677.409    20860676.805    20860679.538
        53.000          42.0004
 122705267.586 6  95614519.84644  23350034.500    23350034.323    23350035.524
        40.000          26.0004
 126575900.381 6  98630553.52543  24086585.200    24086586.473    24086588.157
        38.000          21.0004
 113890860.956 8  88746141.36145  21672702.020    21672702.179    21672701.995
        48.000          35.0004
 109774303.260 8  85380035.335 7  20571655.090    20571654.707    20571656.580
        51.000          42.000
 122328399.744 7  95320855.69444  23278318.801    23278318.697    23278322.910
        43.000          27.0004
 105250033.701 9  81861180.542 6  19689196.627    19689195.764    19689198.637
        54.000          41.000
 116787314.016 7  91003120.57145  22223883.206    22223883.065    22223884.524
        46.000          34.0004
 103006465.471 8  80116165.966 7  19276248.885    19276248.072    19276251.229
        53.000          42.000
 123998566.440 6  96443352.753 6  23180225.247    23180223.480    23180225.365
        39.000          36.000
 111197951.490 8  86647773.41646  21160261.065    21160261.399    21160263.805
        52.000          41.0004
 128993032.340 6 100514052.02243  24546553.817    24546553.696    24546557.603
        40.000          18.0004
 11 10  1  0 16  0.0000000  0 15G13R10R12G10G02G05G23R02G08R01G16R11
                                R19G07G04
 106850878.520 8  83260465.43247  20333043.163    20333043.930    20333045.851
        52.000          44.0004
 116960330.812 8  90969168.649 5  21941454.219    21941454.020    21941457.225
        48.000          34.000
 115015923.071 8  89456874.802 7  21531221.848    21531221.702    21531227.261
        48.000          43.000
 109492686.978 8  85318992.53947  20835763.358    20835762.834    20835765.884
        52.000          42.0004
 122609248.214 6  95539699.54444  23331761.602    23331762.719    23331763.971
        38.000          26.0004
 126348739.434 6  98453544.94743  24043357.327    24043359.048    24043360.179
        38.000          21.0004
 113835170.191 8  88702745.93046  21662104.308    21662104.375    21662104.603
        48.000          36.0004
 109562731.827 8  85215479.773 7  20532006.808    20532006.051    20532008.991
        51.000          42.000
 122099941.955 7  95142836.64444  23234844.490    23234844.740    23234849.535
        42.000          26.0004
 105170255.595 8  81799130.898 7  19674271.846    19674271.418    19674274.398
        53.000          42.000
 116677525.993 7  90917571.44945  22202990.593    22202991.012    22202992.160
        47.000          33.0004
 102884387.474 8  80021216.424 7  19253403.648    19253402.864    19253406.047
        52.000          43.000
 123844672.503 6  96323657.591 6  23151455.294    23151454.790    23151457.019
        41.000          37.000
 111006233.849 8  86498383.06346  21123777.447    21123778.695    21123780.633
        50.000          41.0004
 128960005.737 6 100488316.97042  24540268.799    24540271.182    24540275.505
        37.000          17.0004
 11 10  1  0 16 30.0000000  0 15G13R10R12G10G02G05G23R02G08R01G16R11
                                R19G07G04
 106754596.252 8  83185440.27547  20314721.328    20314722.024    20314723.827
        53.000          44.0004
 116941031.331 7  90954157.951 5  21937833.944    21937833.288    21937836.639
        47.000          33.000
 114775871.426 7  89270167.982 7  21486283.612    21486283.208    21486288.732
        47.000          43.000
 109362373.725 8  85217449.74647  20810965.447    20810964.779    20810968.173
        51.000          42.0004
 122513775.703 5  95465305.37743  23313593.915    23313594.628    23313595.889
        35.000          23.0004
 126121840.968 6  98276740.99543  24000181.597    24000181.393    24000183.247
        38.000          20.0004
 113779796.265 8  88659597.40846  21651567.163    21651568.008    21651567.650
        49.000          36.0004
 109351694.498 8  85051339.642 7  20492458.890    20492458.473    20492461.290
        51.000          43.000
 121871696.187 7  94964982.86944  23191410.554    23191411.245    23191415.674
        42.000          27.0004
 105091164.964 9  81737615.959 7  19659477.004    19659476.156    19659478.686
        54.000          42.000
 116568377.106 7  90832520.38145  22182220.206    22182220.160    22182221.878
        47.000          33.0004
 102763010.602 8  79926812.201 7  19230689.618    19230688.816    19230692.245
        53.000          43.000
 123691570.838 6  96204578.485 6  23122833.659    23122832.377    23122836.634
        39.000          38.000
 110814937.029 8  86349320.62246  21087375.532    21087376.325    21087378.003
        51.000          41.0004
 128927138.202 6 100462705.87642  24534014.472    24534014.252    24534018.896
        36.000          17.0004
 11 10  1  0 17  0.0000000  0 15G13R10R12G10G02G05G23R02G08R01G16R11
                                R19G07G04
 106658750.105 8  83110754.96847  20296482.806    20296483.187    20296485.047
        53.000          44.0004
 116921992.731 7  90939350.161 5  21934262.300    21934261.358    21934266.284
        47.000          34.000
 114536203.736 8  89083759.811 7  21441418.676    21441417.586    21441422.928
        48.000          43.000
 109232672.567 8  85116383.90647  20786284.040    20786283.617    20786287.092
        51.000          42.0004
 122418849.842 6  95391337.17544  23295530.910    23295531.424    23295531.649
        40.000          24.0004
 125895209.843 6  98100145.32043  23957053.621    23957053.863    23957057.138
        37.000          20.0004
 113724740.029 8  88616696.44346  21641090.400    21641090.853    21641090.747
        49.000          36.0004
 109141196.693 8  84887619.144 7  20453010.604    20453010.658    20453013.752
        50.000          43.000
 121643665.701 6  94787296.80844  23148018.085    23148018.492    23148022.989
        41.000          28.0004
 105012762.773 8  81676636.474 7  19644809.502    19644809.237    19644812.284
        53.000          42.000
 116459869.142 7  90747968.71845  22161572.020    22161572.014    22161573.776
        46.000          33.0004
 102642335.437 8  79832953.751 7  19208106.542    19208105.846    19208109.507
        53.000          43.000
 123539264.586 6  96086117.951 6  23094360.860    23094361.816    23094364.350
        39.000          37.000
 110624063.794 8  86200588.24346  21051053.591    21051054.495    21051056.231
        51.000          41.0004
 128894428.722 6 100437217.90642  24527789.490    24527791.647    24527793.856
        36.000          12.0004
 11 10  1  0 17 30.0000000  0 15G13R10R12G10G02G05G23R02G08R01G16R11
                                R19G07G04
 106563333.680 8  83036404.50547  20278325.785    20278326.208    20278327.555
        53.000          44.0004
 116903206.369 7  90924738.519 5  21930738.212    21930736.892    21930742.216
        47.000          34.000
 114296916.345 8  88897647.437 7  21396622.548    21396622.151    21396626.974
        49.000          43.000
 109103577.941 8  85015790.68747  20761717.795    20761717.688    20761720.950
        52.000          42.0004
 122324463.579 6  95317789.40744  23277569.753    23277569.707    23277571.010
        41.000          24.0004
 125668842.976 6  97923755.53643  23913975.741    23913977.916    23913979.933
        38.000          20.0004
 113669994.766 8  88574037.78646  21630672.358    21630673.012    21630673.369
        48.000          36.0004
 108931236.033 8  84724316.405 7  20413664.457    20413663.534    20413666.467
        50.000          42.000
 121415846.348 7  94609775.28344  23104666.427    23104665.398    23104670.334
        42.000          27.0004
 104935042.036 8  81616186.999 7  19630270.759    19630269.977    19630273.232
        53.000          42.000
 116351994.843 7  90663910.82545  22141043.955    22141044.548    22141046.172
        46.000          33.0004
 102522354.711 9  79739635.414 7  19185654.034    19185653.179    19185656.707
        54.000          43.000
 123387749.083 6  95968272.434 6  23066039.686    23066038.444    23066039.872
        41.000          37.000
 110433609.807 8  86052182.55147  21014811.255    21014812.109    21014813.922
        50.000          42.0004
 128861868.623 6 100411846.39042  24521594.480    24521594.086    24521596.753
        36.000          13.0004
 11 10  1  0 18  0.0000000  0 15G13R10R12G10G02G05G23R02G08R01G16R11
                                R19G07G04
 106468342.065 8  82962385.06447  20260249.358    20260249.784    20260251.434
        53.000          44.0004
 116884665.027 7  90910317.467 5  21927259.439    21927258.398    21927262.699
        46.000          33.000
 114058007.800 8  88711829.690 7  21351898.578    21351897.845    21351902.629
        49.000          44.000
 108975086.084 8  84915667.16247  20737266.946    20737266.621    20737269.855
        53.000          43.0004
 122230611.256 6  95244657.70544  23259709.899    23259710.728    23259711.137
        41.000          25.0004
 125442738.508 6  97747570.24243  23870950.743    23870951.715    23870954.204
        39.000          22.0004
 113615555.490 7  88531617.56045  21620313.310    21620313.192    21620314.155
        47.000          35.0004
 108721811.490 8  84561430.648 7  20374418.120    20374417.909    20374420.749
        51.000          43.000
 121188235.677 7  94432416.34944  23061353.306    23061353.094    23061356.578
        42.000          27.0004
 104857997.167 8  81556263.207 7  19615857.586    19615857.413    19615860.315
        52.000          42.000
 116244749.502 7  90580343.01045  22120635.864    22120636.026    22120637.772
        47.000          33.0004
 102403063.075 8  79646853.039 7  19163330.511    19163329.522    19163333.072
        53.000          42.000
 123237021.396 6  95851039.606 6  23037861.384    23037861.726    23037863.265
        39.000          38.000
 110243572.035 8  85904101.18846  20978648.470    20978649.068    20978650.871
        51.000          41.0004
 128829450.652 6 100386585.60342  24515424.913    24515424.416    24515430.512
        37.000          16.0004
 11 10  1  0 18 30.0000000  0 15G13R10R12G10G02G05G23R02G08R01G16R11
                                R19G07G04
 106373781.374 8  82888701.40847  20242255.025    20242255.622    20242257.063
        52.000          44.0004
 116866371.187 7  90896088.889 5  21923827.848    21923826.918    21923831.725
        47.000          34.000
 113819486.048 8  88526312.793 7  21307246.565    21307245.862    21307251.687
        48.000          44.000
 108847203.260 8  84816018.20547  20712931.332    20712931.327    20712934.625
        51.000          42.0004
 122137297.006 6  95171945.32544  23241953.524    23241953.670    23241954.741
        38.000          26.0004
 125216905.020 6  97571596.11943  23827975.752    23827977.604    23827979.989
        38.000          23.0004
 113561426.983 8  88489439.49545  21610012.247    21610012.708    21610013.407
        48.000          35.0004
 108512932.467 8  84398969.208 7  20335274.719    20335273.863    20335277.440
        50.000          43.000
 120960840.613 7  94255225.43444  23018081.622    23018081.592    23018084.815
        42.000          28.0004
 104781632.807 8  81496868.701 6  19601572.195    19601571.761    19601574.528
        51.000          41.000
 116138138.187 7  90497269.26945  22100347.844    22100348.075    22100350.198
        45.000          33.0004
 102284465.007 8  79554610.107 7  19141136.146    19141135.233    19141138.955
        52.000          43.000
 123087088.620 6  95734425.111 6  23009833.013    23009833.465    23009835.599
        40.000          39.000
 110053957.179 8  85756349.36347  20942565.731    20942566.338    20942568.692
        51.000          42.0004
 128797177.940 6 100361438.03642  24509284.488    24509285.620    24509289.542
        38.000          16.0004
 11 10  1  0 19  0.0000000  0 15G13R10R12G10G02G05G23R02G08R01G16R11
                                R19G07G04
 106279644.556 8  82815348.04647  20224340.900    20224341.708    20224343.397
        52.000          43.0004
 116848315.822 7  90882045.848 5  21920439.292    21920438.947    21920445.726
        46.000          34.000
 113581347.184 8  88341093.707 7  21262666.720    21262666.134    21262671.630
        48.000          44.000
 108719923.039 8  84716838.81247  20688711.162    20688710.665    20688713.815
        52.000          42.0004
 122044512.439 6  95099645.67444  23224297.532    23224297.338    23224298.374
        39.000          26.0004
 124991339.041 6  97395830.43444  23785052.547    23785053.710    23785055.528
        39.000          25.0004
 113507602.020 8  88447497.95545  21599770.248    21599770.114    21599770.748
        48.000          35.0004
 108304596.090 8  84236929.815 7  20296232.339    20296232.170    20296235.215
        49.000          43.000
 120733656.680 7  94078199.03444  22974850.621    22974850.203    22974853.636
        43.000          28.0004
 104705941.387 8  81437997.598 7  19587412.378    19587412.000    19587414.455
        52.000          42.000
 116032153.826 7  90414684.06145  22080179.424    22080180.430    22080182.384
        44.000          33.0004
 102166552.519 8  79462900.402 7  19119070.331    19119069.779    19119072.849
        51.000          43.000
 122937945.114 6  95618424.333 6  22981952.061    22981952.078    22981954.442
        40.000          37.000
 109864759.720 8  85608922.78847  20906563.267    20906563.571    20906565.466
        50.000          42.0004
 128765040.914 6 100336396.19642  24503168.402    24503167.974    24503174.153
        36.000          17.0004
 11 10  1  0 19 30.0000000  0 15G13R10R12G10G02G05G23R02G08R01G16R11
                                R19G07G04
 106185932.431 9  82742325.60747  20206508.588    20206509.188    20206510.656
        54.000          43.0004
 116830496.910 7  90868186.658 5  21917097.367    21917096.016    21917101.984
        46.000          34.000
 113343594.949 8  88156175.333 7  21218158.472    21218157.843    21218163.422
        48.000          44.000
 108593247.304 8  84618130.44247  20664605.371    20664605.022    20664608.149
        53.000          42.0004
 121952257.822 6  95027758.96444  23206741.938    23206741.724    23206742.621
        39.000          27.0004
 124766044.213 6  97220276.03844  23742180.176    23742180.460    23742183.294
        39.000          25.0004
 113454081.171 8  88405793.38345  21589585.611    21589585.785    21589586.291
        48.000          35.0004
 108096807.199 8  84075316.231 7  20257292.266    20257292.104    20257296.079
        50.000          43.000
 120506686.665 7  93901339.30944  22931658.466    22931659.018    22931663.039
        43.000          28.0004
 104630923.044 8  81379649.996 7  19573378.598    19573378.119    19573381.430
        52.000          43.000
 115926797.064 7  90332587.88045  22060131.639    22060131.480    22060133.957
        47.000          33.0004
 102049325.871 8  79371724.132 7  19097132.499    19097131.809    19097135.758
        52.000          43.000
 122789593.697 6  95503039.709 6  22954218.410    22954218.877    22954224.016
        39.000          40.000
 109675982.815 8  85461823.91347  20870639.804    20870640.681    20870642.370
        50.000          42.0004
 128733038.481 6 100311459.17342  24497080.080    24497080.976    24497082.855
        36.000          16.0004
 11 10  1  0 20  0.0000000  0 15G13R10R12G10G02G05G23R02G08R01G16R11
                                R19G07G04
 106092643.191 9  82669632.68947  20188756.502    20188756.710    20188758.484
        54.000          43.0004
 116812910.107 7  90854508.042 5  21913797.660    21913797.506    21913803.062
        45.000          33.000
 113106230.696 8  87971558.723 7  21173724.077    21173723.175    21173728.806
        49.000          45.000
 108467174.836 9  84519892.15347  20640614.297    20640614.189    20640617.728
        54.000          43.0004
 121860530.163 6  94956282.86244  23189285.452    23189286.673    23189288.326
        40.000          26.0004
 124541022.094 6  97044934.11344  23699359.917    23699360.711    23699363.232
        39.000          25.0004
 113400861.846 8  88364323.79346  21579459.304    21579459.228    21579459.448
        48.000          36.0004
 107889567.870 8  83914130.084 7  20218456.970    20218456.080    20218457.961
        50.000          42.000
 120279930.868 7  93724646.48844  22888508.209    22888507.927    22888512.912
        42.000          28.0004
 104556575.242 8  81321823.917 7  19559470.497    19559469.846    19559472.970
        52.000          42.000
 115822065.162 7  90250978.60545  22040203.018    22040202.455    22040204.040
        47.000          33.0004
 101932782.111 8  79281078.989 7  19075323.556    19075322.526    19075325.908
        52.000          43.000
 122642034.322 6  95388271.233 6  22926632.010    22926633.877    22926636.816
        39.000          38.000
 109487625.755 8  85315052.19346  20834796.226    20834797.291    20834799.140
        50.000          41.0004
 128701166.146 5 100286623.58242  24491013.302    24491013.926    24491018.883
        35.000          14.0004
