     2.11           OBSERVATION DATA    G (GPS)             RINEX VERSION / TYPE
teqc  2016Apr1                          20160930 07:51:16UTCPGM / RUN BY / DATE
Linux 2.4.20-8|Pentium IV|gcc|Linux|486/DX+                 COMMENT
teqc  2016Apr1                          20160816 03:21:47UTCCOMMENT
teqc  2010Oct21                         20111002 00:03:04UTCCOMMENT
Solaris 5.9|UltraSparc IIe|cc SC5.8|=+-|*Sparc              COMMENT
teqc  2010Oct21                         20111001 01:03:21UTCCOMMENT
teqc  2010Oct21                         20111001 00:17:18UTCCOMMENT
teqc  2010Oct21                         20111001 00:16:01UTCCOMMENT
Linux 2.4.20-8|Pentium IV|gcc -static|Linux|486/DX+         COMMENT
BIT 2 OF LLI FLAGS DATA COLLECTED UNDER A/S CONDITION       COMMENT
 SNR is mapped to RINEX snr flag value [0-9]                COMMENT
  L1 & L2: min(max(int(snr_dBHz/6), 0), 9)                  COMMENT
Forced Modulo Decimation to 30 seconds                      COMMENT
Forced Modulo Decimation to 30 seconds                      COMMENT
teqc.bin edited: all SBAS satellites excluded               COMMENT
VILL                                                        MARKER NAME
13406M001                                                   MARKER NUMBER
AUTOMATIC           ESA/ESOC                                OBSERVER / AGENCY
UC1200347003        ASHTECH UZ-12       NAV CD00            REC # / TYPE / VERS
CR620045041         AOAD/M_T        NONE                    ANT # / TYPE
  4849833.7962  -335049.1807  4116014.8247                  APPROX POSITION XYZ
        0.0437        0.0000        0.0000                  ANTENNA: DELTA H/E/N
     1     1                                                WAVELENGTH FACT L1/2
     7    L1    L2    C1    P2    P1    S1    S2            # / TYPES OF OBSERV
    30.0000                                                 INTERVAL
teqc windowed: start @ 2011 Oct  1 00:10:00.000             COMMENT
teqc windowed:  end  @ 2011 Oct  1 00:20:00.000             COMMENT
  2011    10     1     0    10    0.0000000     GPS         TIME OF FIRST OBS
                                                            END OF HEADER
 11 10  1  0 10  0.0000000  0  8G04G23G05G13G08G07G10G02
 113538083.82549  88471219.83048  21605591.7284   21605595.3454   21605592.0934
        55.0004         48.0004
 127091754.43147  99032515.09646  24184764.9544   24184767.4234   24184765.9954
        42.0004         38.0004
 120435586.17448  93845894.45947  22918143.6184   22918147.8804   22918143.9224
        50.0004         45.0004
 115943279.00948  90345396.95047  22063285.3884   22063287.9794   22063286.8314
        53.0004         45.0004
 113660853.33149  88566887.76748  21628949.7664   21628954.3674   21628949.6354
        55.0004         49.0004
 109107341.77449  85018697.00448  20762444.9694   20762448.4144   20762445.4944
        56.0004         51.0004
 106174300.64649  82733207.59048  20204308.4434   20204312.5724   20204308.0754
        56.0004         51.0004
 110495597.27949  86100453.78948  21026620.9644   21026622.3244   21026620.5864
        56.0004         49.0004
 11 10  1  0 10 30.0000000  0  8G04G23G05G13G08G07G10G02
 113617622.58349  88533198.05048  21620727.1314   21620731.6514   21620727.3054
        55.0004         48.0004
 127180827.56347  99101922.75446  24201714.2704   24201718.4194   24201715.6514
        43.0004         39.0004
 120351047.53148  93780020.20947  22902057.2474   22902060.0594   22902056.9604
        51.0004         45.0004
 116021799.51648  90406581.74647  22078227.4604   22078229.7984   22078226.9704
        52.0004         45.0004
 113588169.46649  88510251.00048  21615118.2034   21615122.9624   21615118.1444
        55.0004         48.0004
 109092437.22049  85007083.07748  20759608.6634   20759612.3844   20759608.8514
        56.0004         51.0004
 106175765.63549  82734349.14048  20204587.5124   20204591.5354   20204586.8744
        56.0004         51.0004
 110478888.79049  86087434.18348  21023441.3814   21023443.2594   21023441.1664
        56.0004         49.0004
 11 10  1  0 11  0.0000000  0  8G04G23G05G13G08G07G10G02
 113697543.89549  88595474.37748  21635935.6254   21635939.9334   21635935.4854
        55.0004         48.0004
 127269921.42547  99171346.51046  24218668.7634   24218671.5854   24218669.5124
        44.0004         39.0004
 120266617.15648  93714230.30647  22885990.2174   22885993.2284   22885990.2144
        51.0004         45.0004
 116100469.64148  90467883.13847  22093196.5794   22093201.2554   22093197.4414
        52.0004         45.0004
 113515904.57449  88453940.69648  21601366.9024   21601371.2434   21601366.0814
        55.0004         48.0004
 109078119.71249  84995926.58448  20756884.0734   20756887.7314   20756884.4914
        56.0004         51.0004
 106177611.20949  82735787.24748  20204938.8124   20204942.4024   20204938.0534
        57.0004         51.0004
 110462793.47649  86074892.38748  21020378.4174   21020380.3934   21020378.2824
        56.0004         49.0004
 11 10  1  0 11 30.0000000  0  8G04G23G05G13G08G07G10G02
 113777844.05149  88658045.90948  21651214.6624   21651220.7644   21651215.5264
        54.0004         48.0004
 127359034.23147  99240785.04046  24235630.2734   24235629.1544   24235626.9354
        44.0004         39.0004
 120182295.03348  93648524.76847  22869943.8124   22869947.3644   22869943.6734
        50.0004         45.0004
 116179286.80748  90529299.10747  22108196.3504   22108200.8984   22108196.8064
        53.0004         45.0004
 113444059.22649  88397957.32448  21587695.0694   21587698.8694   21587694.9544
        55.0004         49.0004
 109064387.97649  84985226.53648  20754271.0114   20754274.7834   20754271.4914
        56.0004         51.0004
 106179836.43149  82737521.18248  20205362.1474   20205365.8344   20205361.3484
        57.0004         51.0004
 110447311.28749  86062828.33348  21017432.3534   21017433.9484   21017432.0414
        56.0004         49.0004
 11 10  1  0 12  0.0000000  0  8G04G23G05G13G08G07G10G02
 113858514.71549  88720906.15848  21666566.5614   21666571.5264   21666567.0334
        55.0004         48.0004
 127448159.37647  99310233.16446  24252588.0544   24252589.4244   24252590.5314
        44.0004         39.0004
 120098076.74148  93582900.14547  22853917.0214   22853921.5764   22853917.6844
        50.0004         45.0004
 116258243.61148  90590823.87947  22123221.3114   22123225.3114   22123221.4704
        52.0004         45.0004
 113372629.94349  88342298.15448  21574103.2744   21574106.3684   21574102.7894
        55.0004         49.0004
 109051236.86449  84974978.92748  20751768.1404   20751771.7954   20751768.7444
        56.0004         51.0004
 106182436.39749  82739547.13348  20205857.0834   20205860.8864   20205856.3664
        56.0004         51.0004
 110432436.90349  86051237.89648  21014601.9764   21014603.4474   21014601.9604
        56.0004         49.0004
 11 10  1  0 12 30.0000000  0  8G04G23G05G13G08G07G10G02
 113939561.09149  88784059.15348  21681990.3074   21681994.2504   21681990.8504
        56.0004         48.0004
 127537303.11047  99379695.80746  24269553.6984   24269553.6784   24269551.9294
        43.0004         38.0004
 120013971.14948  93517363.33147  22837912.8054   22837916.8854   22837913.0614
        51.0004         45.0004
 116337346.03148  90652462.12547  22138273.2984   22138276.0284   22138273.8624
        51.0004         45.0004
 113301626.24249  88286970.61748  21560591.9324   21560595.3474   21560590.6594
        55.0004         49.0004
 109038673.97749  84965189.67348  20749377.8964   20749381.0914   20749378.2284
        56.0004         51.0004
 106185418.89249  82741871.15248  20206424.7554   20206428.2264   20206423.7404
        57.0004         51.0004
 110418178.33349  86040127.32448  21011888.2604   21011890.3024   21011888.0114
        55.0004         49.0004
 11 10  1  0 13  0.0000000  0  8G04G23G05G13G08G07G10G02
 114020975.57849  88847498.98748  21697483.8274   21697487.0024   21697483.8424
        55.0004         48.0004
 127626460.21847  99449168.81546  24286515.8934   24286519.5894   24286517.5124
        42.0004         38.0004
 119929975.04048  93451911.82447  22821928.7274   22821932.2714   22821929.1304
        50.0004         45.0004
 116416587.49748  90714208.72347  22153351.6154   22153355.6334   22153352.2404
        51.0004         44.0004
 113231045.42049  88231972.59448  21547159.1874   21547164.2474   21547159.1024
        55.0004         49.0004
 109026694.58749  84955855.08848  20747098.3214   20747101.3994   20747098.4554
        56.0004         51.0004
 106188780.03849  82744490.21848  20207063.6464   20207067.5964   20207063.0664
        56.0004         51.0004
 110404531.39049  86029493.33448  21009291.6924   21009293.3804   21009291.0034
        56.0004         49.0004
 11 10  1  0 13 30.0000000  0  8G04G23G05G13G08G07G10G02
 114102758.03149  88911225.53948  21713045.9274   21713050.1044   21713046.1454
        54.0004         48.0004
 127715631.47247  99518652.92446  24303484.1634   24303487.5084   24303485.3384
        43.0004         38.0004
 119846091.65848  93386548.16447  22805966.2504   22805971.1964   22805966.8014
        50.0004         44.0004
 116495968.73848  90776064.21747  22168459.4204   22168461.4974   22168459.1864
        53.0004         44.0004
 113160891.41349  88177307.13648  21533810.2714   21533814.4144   21533809.9524
        55.0004         49.0004
 109015300.60849  84946976.67348  20744929.5034   20744933.2744   20744930.4324
        56.0004         51.0004
 106192522.32249  82747406.28048  20207776.0214   20207780.0934   20207775.4864
        57.0004         51.0004
 110391498.86449  86019338.11048  21006811.4674   21006813.5504   21006811.6854
        56.0004         49.0004
 11 10  1  0 14  0.0000000  0  8G04G23G05G13G08G07G10G02
 114184908.99948  88975239.26847  21728676.1184   21728683.3234   21728676.5324
        53.0004         47.0004
 127804819.84647  99588150.37046  24320459.1474   24320459.8644   24320459.0034
        45.0004         38.0004
 119762325.70848  93321276.01147  22790025.9414   22790030.0894   22790026.8614
        50.0004         45.0004
 116575491.85248  90838030.27347  22183592.6854   22183594.7234   22183593.0874
        52.0004         45.0004
 113091169.74949  88122978.58748  21520542.6114   21520546.6404   21520542.4704
        55.0004         49.0004
 109004495.85849  84938557.39548  20742873.9664   20742877.2564   20742874.3524
        56.0004         51.0004
 106196649.88449  82750622.55948  20208561.8134   20208564.8524   20208560.9264
        57.0004         51.0004
 110379084.61349  86009664.67048  21004448.8494   21004450.8344   21004448.9134
        55.0004         49.0004
 11 10  1  0 14 30.0000000  0  8G04G23G05G13G08G07G10G02
 114267419.80449  89039533.38447  21744377.8534   21744383.6134   21744378.7234
        54.0004         47.0004
 127894018.01847  99657655.39646  24337433.2514   24337433.9824   24337433.7024
        46.0004         39.0004
 119678672.33848  93256091.57447  22774107.3984   22774110.3374   22774107.8294
        50.0004         45.0004
 116655148.73548  90900100.54847  22198749.7704   22198754.3574   22198750.1464
        52.0004         45.0004
 113021875.71049  88068983.24748  21507356.5664   21507360.1744   21507356.2034
        56.0004         49.0004
 108994273.79149  84930592.15048  20740928.4114   20740932.1104   20740929.0424
        56.0004         51.0004
 106201156.96249  82754134.56248  20209419.0644   20209422.9954   20209418.3084
        57.0004         51.0004
 110367282.73349  86000468.39648  21002203.3164   21002205.1204   21002203.4664
        56.0004         49.0004
                            4  1
other post-header comments skipped                          COMMENT
 11 10  1  0 15  0.0000000  0  8G04G23G05G13G08G07G10G02
 114350291.16549  89104108.44648  21760150.5184   21760153.6104   21760150.1254
        55.0004         48.0004
 127983228.43247  99727169.99546  24354408.2674   24354410.6904   24354409.2224
        45.0004         39.0004
 119595136.54348  93190998.76947  22758210.8454   22758213.7814   22758211.8484
        50.0004         45.0004
 116734941.35248  90962276.61547  22213931.9174   22213938.3534   22213932.9874
        51.0004         44.0004
 112953014.87049  88015325.47448  21494252.4854   21494256.2714   21494251.9084
        55.0004         49.0004
 108984637.89749  84923083.67048  20739095.3034   20739098.2784   20739095.5864
        56.0004         51.0004
 106206047.44449  82757945.32948  20210349.9574   20210354.0744   20210349.2614
        57.0004         51.0004
 110356097.28749  85991752.45748  21000074.4844   21000076.5244   21000074.4754
        55.0004         49.0004
 11 10  1  0 15 30.0000000  0  8G04G23G05G13G08G07G10G02
 114433520.98649  89168962.81448  21775988.7514   21775992.0334   21775989.0994
        55.0004         48.0004
 128072450.54847  99796693.72546  24371387.1694   24371387.8994   24371386.9834
        46.0004         39.0004
 119511719.88548  93125998.78347  22742338.1984   22742341.2934   22742337.5024
        50.0004         45.0004
 116814867.99048  91024557.11447  22229142.1364   22229145.9114   22229143.6394
        51.0004         44.0004
 112884589.59449  87962007.09648  21481230.5464   21481236.5334   21481230.9314
        55.0004         49.0004
 108975588.31449  84916032.05448  20737373.1424   20737376.4284   20737373.3504
        56.0004         51.0004
 106211321.92449  82762055.30648  20211353.8414   20211357.5974   20211353.0624
        57.0004         51.0004
 110345528.98149  85983517.40848  20998063.2964   20998065.6724   20998063.4524
        55.0004         49.0004
 11 10  1  0 16  0.0000000  0  8G04G23G05G13G08G07G10G02
 114517105.06449  89234093.25147  21791892.8194   21791897.6594   21791892.8744
        54.0004         47.0004
 128161682.18447  99866224.87046  24388368.0064   24388369.0724   24388367.0904
        45.0004         39.0004
 119428422.79048  93061091.97047  22726486.4434   22726490.0754   22726486.6214
        50.0004         45.0004
 116894926.37848  91086940.26647  22244378.2124   22244380.0734   22244378.1744
        52.0004         44.0004
 112816600.09649  87909028.27948  21468293.8004   21468297.9204   21468293.4694
        55.0004         49.0004
 108967123.74549  84909436.29348  20735761.9594   20735765.6844   20735762.2804
        56.0004         51.0004
 106216979.63649  82766463.91148  20212430.3184   20212434.1424   20212429.7764
        57.0004         51.0004
 110335576.66249  85975762.35848  20996170.0564   20996171.3184   20996170.0414
        56.0004         49.0004
 11 10  1  0 16 30.0000000  0  8G04G23G05G13G08G07G10G02
 114601042.83549  89299499.29847  21807865.1444   21807870.4704   21807864.9034
        54.0004         47.0004
 128250924.36247  99935764.19246  24405348.2594   24405349.0494   24405348.4764
        45.0004         39.0004
 119345247.77148  92996280.28147  22710659.0524   22710663.0224   22710658.9684
        50.0004         45.0004
 116975116.79248  91149426.27747  22259639.5074   22259640.4964   22259639.2074
        53.0004         44.0004
 112749050.32149  87856392.11048  21455439.6194   21455443.5384   21455439.3234
        55.0004         49.0004
 108959245.89249  84903297.71748  20734262.7314   20734266.4494   20734263.3484
        56.0004         51.0004
 106223023.20649  82771173.18148  20213580.7204   20213584.4014   20213579.8924
        57.0004         51.0004
 110326242.76249  85968489.17748  20994393.8734   20994395.4564   20994393.2974
        56.0004         49.0004
 11 10  1  0 17  0.0000000  0  8G04G23G05G13G08G07G10G02
 114685332.67049  89365179.66547  21823905.6144   21823910.1964   21823905.6384
        54.0004         47.0004
 128340177.14047 100005311.82246  24422333.0394   24422334.7104   24422333.1974
        47.0004         39.0004
 119262197.59148  92931565.86947  22694853.5364   22694858.8864   22694855.0464
        50.0004         45.0004
 117055438.78148  91212014.83147  22274922.6854   22274925.2234   22274922.4304
        52.0004         44.0004
 112681942.95249  87804100.67248  21442668.7994   21442673.0434   21442668.3094
        55.0004         49.0004
 108951955.41849  84897616.83348  20732875.9314   20732878.9544   20732876.0244
        56.0004         51.0004
 106229454.10949  82776184.27548  20214803.8234   20214807.7784   20214803.2714
        56.0004         51.0004
 110317528.27549  85961698.67148  20992735.6914   20992737.2694   20992735.5174
        56.0004         49.0004
 11 10  1  0 17 30.0000000  0  8G04G23G05G13G08G07G10G02
 114769965.90949  89431127.62347  21840011.3624   21840015.7424   21840011.1884
        54.0004         47.0004
 128429433.71848 100074862.39046  24439319.9314   24439320.7914   24439318.4734
        48.0004         40.0004
 119179267.76448  92866945.24047  22679074.3064   22679077.4494   22679073.2964
        51.0004         45.0004
 117135884.64948  91274699.92247  22290229.4934   22290233.9144   22290230.9574
        51.0004         44.0004
 112615273.91549  87752150.78548  21429982.2514   21429986.0114   21429982.1734
        56.0004         49.0004
 108945246.53049  84892389.13248  20731598.8284   20731602.4244   20731599.5244
        56.0004         51.0004
 106236266.72749  82781492.80048  20216100.8634   20216104.6364   20216099.9864
        57.0004         51.0004
 110309427.72849  85955386.54548  20991193.8264   20991195.5274   20991193.8464
        56.0004         49.0004
 11 10  1  0 18  0.0000000  0  8G04G23G05G13G08G07G10G02
 114854946.67249  89497346.36347  21856182.0574   21856186.6924   21856182.5294
        54.0004         47.0004
 128518700.04048 100144420.57346  24456306.3254   24456307.7524   24456305.5884
        48.0004         40.0004
 119096466.03748  92802424.43147  22663317.6234   22663321.0444   22663317.7054
        51.0004         45.0004
 117216459.18648  91337485.28947  22305562.5784   22305567.9034   22305564.0904
        51.0004         44.0004
 112549051.91349  87700549.24448  21417380.8054   21417385.2494   21417380.5864
        55.0004         49.0004
 108939125.78149  84887619.72648  20730434.1924   20730437.6214   20730434.5044
        56.0004         51.0004
 106243468.24649  82787104.37048  20217470.2124   20217474.6014   20217470.0654
        56.0004         51.0004
 110301948.24149  85949558.37248  20989770.8314   20989772.8104   20989770.5704
        56.0004         49.0004
 11 10  1  0 18 30.0000000  0  8G04G23G05G13G08G07G10G02
 114940268.30149  89563830.73947  21872417.7734   21872423.1024   21872417.7114
        54.0004         47.0004
 128607971.15148 100213982.44346  24473293.7974   24473294.7954   24473292.4484
        48.0004         39.0004
 119013789.94348  92738001.51447  22647584.1764   22647587.1344   22647584.8454
        51.0004         46.0004
 117297157.63748  91400367.18847  22320920.7254   22320924.2794   22320919.2294
        51.0004         44.0004
 112483274.25849  87649293.95348  21404863.3564   21404868.2424   21404863.6964
        56.0004         49.0004
 108933588.71249  84883305.13248  20729380.6094   20729384.0224   20729381.2284
        56.0004         51.0004
 106251055.37649  82793016.42248  20218914.8874   20218918.8924   20218913.6994
        57.0004         51.0004
 110295085.94849  85944211.12748  20988464.2114   20988466.2964   20988464.6594
        56.0004         49.0004
 11 10  1  0 19  0.0000000  0  8G04G23G05G13G08G07G10G02
 115025955.24649  89630599.76647  21888724.3154   21888728.6444   21888724.1904
        54.0004         47.0004
 128697273.56747 100283568.74246  24490286.8094   24490288.2774   24490286.7394
        47.0004         38.0004
 118931268.55448  92673699.13847  22631880.7034   22631885.0854   22631881.5964
        51.0004         46.0004
 117378005.53048  91463365.54147  22336305.3864   22336308.3454   22336306.2164
        52.0004         44.0004
 112417970.31849  87598407.76948  21392437.4144   21392441.0824   21392437.0224
        56.0004         49.0004
 108928662.14449  84879466.25248  20728443.1234   20728446.3394   20728443.6694
        56.0004         51.0004
 106259055.47549  82799250.25848  20220437.4134   20220440.9664   20220436.7564
        57.0004         51.0004
 110288868.01849  85939365.98048  20987281.0044   20987283.0814   20987281.0914
        55.0004         49.0004
 11 10  1  0 19 30.0000000  0  8G04G23G05G13G08G07G10G02
 115111951.00949  89697609.41347  21905088.8024   21905092.9404   21905088.4834
        54.0004         47.0004
 128786552.52447 100353136.74846  24507277.0324   24507278.4814   24507279.3694
        46.0004         38.0004
 118848848.75348  92609475.94147  22616197.3894   22616200.9664   22616197.0744
        52.0004         46.0004
 117458947.14048  91526436.89847  22351708.5684   22351711.2284   22351707.8234
        51.0004         44.0004
 112353087.68049  87547849.89048  21380089.9024   21380094.0584   21380089.5924
        56.0004         49.0004
 108924292.45049  84876061.30448  20727611.5044   20727614.9314   20727612.1814
        56.0004         51.0004
 106267415.18049  82805764.31548  20222027.6054   20222031.8534   20222027.0454
        56.0004         51.0004
 110283241.03249  85934981.30448  20986210.5834   20986212.5394   20986210.6114
        56.0004         49.0004
 11 10  1  0 20  0.0000000  0  8G04G23G05G13G08G07G10G02
 115198287.93949  89764884.92847  21921517.5674   21921522.7954   21921517.6394
        54.0004         47.0004
 128875842.07547 100422713.05446  24524268.2484   24524269.4124   24524268.9554
        47.0004         38.0004
 118766567.39448  92545360.60747  22600539.3724   22600542.2484   22600540.4104
        51.0004         46.0004
 117540016.07448  91589607.49247  22367133.6464   22367138.0074   22367134.7254
        51.0004         44.0004
 112288663.26849  87497649.06848  21367830.0474   21367834.5084   21367829.9044
        55.0004         49.0004
 108920514.05749  84873117.11648  20726892.3834   20726896.0564   20726893.1264
        56.0004         51.0004
 106276169.94649  82812586.21248  20223694.0774   20223697.7594   20223693.1884
        57.0004         51.0004
 110278240.30149  85931084.63248  20985259.2074   20985261.3974   20985259.0594
        55.0004         49.0004
