     2.11           OBSERVATION DATA    M (MIXED)           RINEX VERSION / TYPE
teqc  2016Apr1                          20160930 07:51:15UTCPGM / RUN BY / DATE
Linux 2.4.20-8|Pentium IV|gcc|Linux|486/DX+                 COMMENT
teqc  2016Apr1                          20160816 03:25:27UTCCOMMENT
teqc  2010Mar17     gpsops              20111002 00:13:06UTCCOMMENT
Linux 2.4.21-27.ELsmp|Opteron|gcc -static|Linux x86_64|=+   COMMENT
BIT 2 OF LLI FLAGS DATA COLLECTED UNDER A/S CONDITION       COMMENT
                                                            COMMENT
This data is provided as a public service by NASA/JPL.      COMMENT
No warranty is expressed or implied regarding suitability   COMMENT
for use.  For further information, contact:                 COMMENT
Dave Stowers, NASA/JPL m/s 238-600                          COMMENT
4800 Oak Grove Drive, Pasadena CA 91109 USA                 COMMENT
                                                            COMMENT
Forced Modulo Decimation to 30 seconds                      COMMENT
 SNR is mapped to RINEX snr flag value [0-9]                COMMENT
  L1 & L2: min(max(int(snr_dBHz/6), 0), 9)                  COMMENT
pseudorange smoothing corrections not applied               COMMENT
DGAV                                                        MARKER NAME
30802M001                                                   MARKER NUMBER
GGN                 JPL                                     OBSERVER / AGENCY
2370                JPS EGGDT           2.5.0               REC # / TYPE / VERS
CR620024214         ASH701945E_M    NONE                    ANT # / TYPE
  1916269.3430  6029977.6890  -801719.8210                  APPROX POSITION XYZ
        0.0814        0.0000        0.0000                  ANTENNA: DELTA H/E/N
     1     1                                                WAVELENGTH FACT L1/2
     7    L1    L2    P1    P2    C1    S1    S2            # / TYPES OF OBSERV
    30.0000                                                 INTERVAL
teqc windowed: start @ 2011 Oct  1 00:10:00.000             COMMENT
teqc windowed:  end  @ 2011 Oct  1 00:20:00.000             COMMENT
  2011    10     1     0    10    0.0000000     GPS         TIME OF FIRST OBS
    15                                                      LEAP SECONDS
                                                            END OF HEADER
 11 10  1  0 10  0.0000000  0 15G20G23G28R08R21G11G03G32G13R01R07G16
                                G19G07G06
 107505617.669 8  83770633.09047  20457628.717    20457633.087    20457629.517
        50.000          43.0004
 117416499.037 7  91493391.16945  22343612.282    22343614.814    22343612.273
        47.000          34.0004
 123231977.580 6  96024934.81543  23450264.238    23450268.218    23450265.041
        41.000          23.0004
 103542918.201 8  80533379.371 8  19335903.776    19335903.846    19335904.180
        50.000          48.000
 115115694.988 7  89534358.930 7  21512097.718    21512098.863    21512097.982
        45.000          43.000
 119084226.134 7  92792935.29345  22660962.024    22660965.560    22660962.808
        47.000          33.0004
 115968442.119 7  90365059.55345  22068036.336    22068041.837    22068036.840
        45.000          32.0004
 109895722.377 8  85633057.19247  20912451.420    20912456.848    20912452.057
        52.000          42.0004
 126072093.164 6  98238012.96543  23990718.431    23990722.381    23990717.911
        40.000          21.0004
 121207527.488 6  94272522.388 5  22674369.382    22674371.858    22674369.744
        40.000          34.000
 108491413.894 8  84382235.104 4  20267098.130    20267096.332    20267099.320
        48.000          24.000
 126835129.936 6  98832589.93644  24135915.032    24135919.465    24135914.826
        41.000          24.0004
 112724967.306 8  87837704.54446  21450814.091    21450817.347    21450815.401
        51.000          40.0004
 129575256.927 6 100967745.47443  24657345.470    24657349.792    24657344.898
        40.000          23.0004
 125444604.510 6  97749057.56843  23871301.859    23871307.362    23871303.545
        41.000          22.0004
 11 10  1  0 10 30.0000000  0 15G20G23G28R08R21G11G03G32G13R01R07G16
                                G19G07G06
 107520776.853 8  83782445.43247  20460513.410    20460517.748    20460514.250
        49.000          44.0004
 117336918.825 8  91431380.60645  22328468.774    22328471.129    22328469.664
        48.000          34.0004
 123159485.891 7  95968447.76044  23436469.817    23436473.306    23436470.980
        42.000          24.0004
 103517995.763 8  80513995.241 7  19331249.972    19331250.044    19331250.424
        50.000          47.000
 115106807.238 7  89527446.214 7  21510437.334    21510438.427    21510437.972
        45.000          43.000
 119075869.318 7  92786423.49145  22659371.481    22659375.548    22659372.040
        47.000          33.0004
 116015209.329 7  90401501.50845  22076935.945    22076941.492    22076936.518
        44.000          32.0004
 109941400.088 8  85668650.20447  20921143.699    20921149.105    20921144.400
        51.000          42.0004
 125989263.729 6  98173470.56943  23974957.862    23974961.003    23974957.512
        41.000          21.0004
 121094183.917 6  94184366.291 5  22653164.950    22653167.789    22653165.893
        40.000          34.000
 108575866.606 7  84447920.529 4  20282873.806    20282872.920    20282875.285
        47.000          27.000
 126943505.890 6  98917038.68643  24156537.682    24156541.972    24156538.500
        40.000          23.0004
 112720818.752 8  87834471.87746  21450024.698    21450027.996    21450025.530
        49.000          41.0004
 129592522.125 6 100981198.86343  24660630.812    24660635.247    24660630.874
        40.000          22.0004
 125511948.126 6  97801533.06243  23884116.525    23884122.617    23884117.067
        40.000          22.0004
 11 10  1  0 11  0.0000000  0 15G20G23G28R08R21G11G03G32G13R01R07G16
                                G19G07G06
 107536396.588 8  83794616.65347  20463485.829    20463490.178    20463486.711
        51.000          44.0004
 117257399.981 8  91369417.86145  22313336.630    22313339.076    22313336.971
        48.000          34.0004
 123087398.692 6  95912275.93944  23422751.748    23422756.410    23422752.288
        41.000          24.0004
 103493839.900 8  80495207.349 7  19326739.076    19326738.878    19326739.319
        50.000          47.000
 115098296.555 7  89520826.778 7  21508846.696    21508848.017    21508847.194
        45.000          42.000
 119067405.737 7  92779828.48045  22657761.059    22657764.791    22657761.604
        45.000          33.0004
 116062407.530 7  90438279.30145  22085917.725    22085923.192    22085918.587
        46.000          32.0004
 109987493.462 8  85704567.12247  20929915.073    20929920.507    20929916.138
        52.000          42.0004
 125906278.074 6  98108806.45243  23959164.890    23959169.525    23959164.840
        40.000          21.0004
 120981166.367 6  94096463.794 5  22632021.599    22632026.697    22632021.367
        38.000          34.000
 108660810.647 7  84513988.126 4  20298742.258    20298740.442    20298743.572
        47.000          28.000
 127051873.694 6  99001481.11043  24177159.179    24177163.516    24177160.359
        41.000          21.0004
 112717031.597 8  87831520.82746  21449303.851    21449307.458    21449304.925
        48.000          40.0004
 129609663.354 6 100994555.67943  24663892.786    24663897.601    24663893.303
        41.000          23.0004
 125579611.034 6  97854257.36944  23896992.598    23896998.862    23896993.115
        41.000          24.0004
 11 10  1  0 11 30.0000000  0 15G20G23G28R08R21G11G03G32G13R01R07G16
                                G19G07G06
 107552472.726 8  83807143.51947  20466544.860    20466549.318    20466545.469
        50.000          44.0004
 117177942.919 7  91307503.26945  22298216.522    22298219.094    22298216.810
        47.000          34.0004
 123015715.202 6  95856418.72543  23409110.656    23409115.486    23409111.110
        40.000          23.0004
 103470448.604 8  80477014.123 8  19322370.778    19322370.742    19322371.018
        50.000          48.000
 115090162.495 7  89514500.275 7  21507326.714    21507327.963    21507326.700
        46.000          42.000
 119058833.324 8  92773148.67045  22656129.883    22656133.929    22656130.097
        48.000          33.0004
 116110033.610 7  90475390.52245  22094980.573    22094985.927    22094981.120
        45.000          32.0004
 110033997.694 8  85740804.19447  20938764.651    20938769.886    20938765.058
        52.000          42.0004
 125823135.544 6  98044020.07543  23943344.180    23943348.110    23943345.171
        41.000          21.0004
 120868475.714 6  94008815.534 5  22610941.450    22610944.484    22610940.797
        40.000          34.000
 108746238.784 7  84580432.231 3  20314700.940    20314700.028    20314702.306
        47.000          22.000
 127160228.011 6  99085913.06343  24197778.816    24197783.059    24197779.698
        41.000          21.0004
 112713605.016 8  87828850.74446  21448651.969    21448655.267    21448653.005
        48.000          41.0004
 129626675.603 6 101007812.01244  24667130.560    24667134.782    24667129.981
        39.000          24.0004
 125647589.493 6  97907227.55144  23909928.661    23909934.701    23909930.059
        41.000          24.0004
 11 10  1  0 12  0.0000000  0 15G20G23G28R08R21G11G03G32G13R01R07G16
                                G19G07G06
 107569014.244 8  83820033.00347  20469692.684    20469697.243    20469693.357
        49.000          44.0004
 117098560.911 8  91245647.14745  22283110.701    22283113.438    22283111.455
        48.000          34.0004
 122944447.863 7  95800885.74043  23395549.246    23395552.909    23395549.298
        42.000          23.0004
 103447833.299 8  80459424.434 8  19318147.674    19318147.700    19318148.534
        50.000          48.000
 115082418.592 7  89508477.202 7  21505879.443    21505880.612    21505879.868
        45.000          42.000
 119050163.242 7  92766392.73345  22654479.668    22654483.719    22654479.957
        46.000          33.0004
 116158098.091 7  90512843.32845  22104126.914    22104132.515    22104127.895
        44.000          32.0004
 110080921.266 8  85777368.01447  20947694.148    20947699.142    20947695.088
        51.000          42.0004
 125739848.468 6  97979121.05143  23927494.833    23927498.759    23927495.526
        40.000          22.0004
 120756126.438 6  93921432.770 5  22589923.653    22589927.360    22589924.188
        40.000          34.000
 108832159.179 7  84647259.201 3  20330751.910    20330750.741    20330752.596
        47.000          23.000
 127268576.666 6  99170340.56843  24218396.115    24218401.633    24218397.600
        40.000          20.0004
 112710550.971 8  87826470.94046  21448070.940    21448074.080    21448071.599
        48.000          40.0004
 129643567.775 6 101020974.79143  24670344.659    24670348.429    24670344.397
        39.000          23.0004
 125715893.304 6  97960451.26044  23922926.068    23922932.125    23922926.397
        40.000          24.0004
 11 10  1  0 12 30.0000000  0 15G20G23G28R08R21G11G03G32G13R01R07G16
                                G19G07G06
 107586010.562 8  83833276.88147  20472927.101    20472931.476    20472927.713
        50.000          43.0004
 117019247.881 7  91183844.78245  22268017.995    22268020.627    22268018.507
        47.000          34.0004
 122873589.223 7  95745671.21543  23382064.727    23382068.704    23382066.015
        42.000          23.0004
 103425984.994 8  80442431.307 8  19314067.602    19314067.627    19314068.590
        50.000          48.000
 115075058.332 7  89502752.535 7  21504504.454    21504505.334    21504504.020
        45.000          43.000
 119041387.030 7  92759554.12545  22652810.034    22652813.885    22652809.593
        46.000          33.0004
 116206591.557 7  90550630.43145  22113354.995    22113360.681    22113355.340
        45.000          32.0004
 110128253.192 8  85814250.02947  20956700.798    20956706.272    20956701.335
        51.000          42.0004
 125656410.193 6  97914104.22143  23911617.149    23911621.016    23911616.195
        40.000          21.0004
 120644112.675 6  93834310.990 5  22568969.269    22568973.325    22568969.033
        40.000          34.000
 108918557.583 7  84714457.959 3  20346891.780    20346890.323    20346893.416
        47.000          23.000
 127376908.232 6  99254754.76943  24239010.741    24239016.124    24239011.565
        41.000          20.0004
 112707862.642 8  87824376.11246  21447559.340    21447562.465    21447560.124
        49.000          40.0004
 129660329.250 6 101034035.64743  24673533.831    24673538.706    24673533.782
        41.000          23.0004
 125784512.577 6  98013920.77444  23935984.552    23935990.666    23935984.542
        41.000          24.0004
 11 10  1  0 13  0.0000000  0 15G20G23G28R08R21G11G03G32G13R01R07G16
                                G19G07G06
 107603460.212 8  83846874.02047  20476247.463    20476251.967    20476248.151
        50.000          44.0004
 116940007.111 8  91122098.73245  22252938.790    22252941.037    22252939.483
        48.000          34.0004
 122803141.433 6  95690776.83844  23368659.146    23368662.929    23368659.454
        41.000          24.0004
 103404904.101 8  80426035.064 7  19310130.713    19310130.674    19310131.281
        50.000          47.000
 115068084.830 7  89497328.683 7  21503200.807    21503202.074    21503201.072
        46.000          43.000
 119032505.555 7  92752633.48945  22651119.234    22651123.589    22651119.661
        47.000          33.0004
 116255514.038 7  90588751.83345  22122664.327    22122670.079    22122664.756
        46.000          31.0004
 110175991.445 8  85851448.68147  20965785.101    20965790.303    20965785.976
        52.000          42.0004
 125572822.675 6  97848971.09843  23895711.205    23895714.823    23895710.471
        41.000          21.0004
 120532438.455 6  93747453.277 5  22548078.166    22548081.725    22548078.328
        40.000          33.000
 109005430.648 7  84782025.906 4  20363120.153    20363118.713    20363122.127
        47.000          26.000
 127485219.985 6  99339153.52743  24259622.534    24259626.955    24259624.400
        39.000          20.0004
 112705541.799 8  87822567.64346  21447117.675    21447120.783    21447118.732
        50.000          41.0004
 129676958.121 6 101046993.21344  24676699.102    24676702.910    24676698.651
        40.000          24.0004
 125853446.665 7  98067635.63043  23949101.719    23949107.881    23949102.066
        42.000          22.0004
 11 10  1  0 13 30.0000000  0 15G20G23G28R08R21G11G03G32G13R01R07G16
                                G19G07G06
 107621369.602 8  83860829.39147  20479655.560    20479660.116    20479656.199
        50.000          43.0004
 116860849.423 7  91060417.40845  22237875.497    22237877.596    22237875.489
        47.000          34.0004
 122733114.496 6  95636210.39543  23355333.403    23355337.645    23355334.061
        41.000          23.0004
 103384599.396 8  80410242.515 8  19306338.941    19306339.023    19306339.456
        50.000          48.000
 115061508.642 7  89492213.850 7  21501972.060    21501973.261    21501972.395
        45.000          42.000
 119023527.626 8  92745637.68245  22649411.149    22649414.920    22649411.114
        48.000          33.0004
 116304872.946 7  90627213.29045  22132057.463    22132063.123    22132058.159
        45.000          32.0004
 110224142.196 8  85888968.74147  20974947.421    20974953.142    20974948.047
        51.000          42.0004
 125489096.341 6  97783729.78843  23879777.565    23879782.739    23879777.804
        40.000          22.0004
 120421115.432 6  93660868.717 5  22527253.665    22527256.319    22527253.887
        41.000          34.000
 109092782.116 7  84849965.937 4  20379438.181    20379437.380    20379439.781
        47.000          24.000
 127593517.386 6  99423541.04443  24280231.366    24280235.177    24280231.900
        40.000          20.0004
 112703598.397 8  87821053.27446  21446747.871    21446751.087    21446748.893
        51.000          40.0004
 129693460.481 6 101059852.19943  24679837.976    24679843.507    24679838.187
        39.000          23.0004
 125922702.683 7  98121601.32443  23962281.583    23962286.827    23962282.918
        42.000          22.0004
 11 10  1  0 14  0.0000000  0 15G20G23G28R08R21G11G03G32G13R01R07G16
                                G19G07G06
 107639734.678 8  83875139.82447  20483150.475    20483154.675    20483151.238
        50.000          44.0004
 116781775.203 8  90998801.11345  22222828.357    22222830.560    22222828.382
        48.000          34.0004
 122663507.495 7  95581971.16943  23342087.749    23342092.189    23342088.843
        42.000          23.0004
 103365068.456 8  80395051.767 8  19302691.917    19302692.024    19302692.130
        49.000          48.000
 115055329.722 7  89487407.984 7  21500817.405    21500818.337    21500818.004
        46.000          42.000
 119014451.013 7  92738565.00245  22647684.252    22647687.953    22647684.418
        47.000          33.0004
 116354665.230 7  90666012.43245  22141532.513    22141538.180    22141532.968
        46.000          32.0004
 110272700.280 8  85926806.20547  20984188.010    20984193.544    20984188.970
        51.000          42.0004
 125405230.535 6  97718379.81243  23863819.477    23863823.190    23863819.770
        41.000          21.0004
 120310144.505 6  93574558.002 5  22506494.700    22506497.036    22506494.488
        41.000          34.000
 109180604.662 7  84918272.358 5  20395844.471    20395842.978    20395845.982
        47.000          32.000
 127701794.573 6  99507912.83743  24300835.642    24300839.863    24300835.531
        39.000          20.0004
 112702031.374 8  87819832.19046  21446449.613    21446452.963    21446450.246
        49.000          40.0004
 129709831.859 6 101072609.12943  24682954.061    24682958.222    24682953.659
        41.000          23.0004
 125992277.123 6  98175815.12243  23975520.710    23975526.475    23975521.049
        40.000          21.0004
 11 10  1  0 14 30.0000000  0 15G20G23G28R08R21G11G03G32G13R01R07G16
                                G19G07G06
 107658546.603 8  83889798.46847  20486730.094    20486734.538    20486730.820
        50.000          43.0004
 116702780.325 8  90937246.66245  22207795.877    22207798.269    22207796.616
        49.000          34.0004
 122594315.283 6  95528055.16344  23328920.827    23328925.221    23328920.940
        41.000          24.0004
 103346303.918 8  80380457.133 8  19299187.618    19299187.771    19299187.798
        49.000          48.000
 115049543.338 7  89482907.443 7  21499735.944    21499737.456    21499736.621
        45.000          43.000
 119005269.049 7  92731410.21245  22645936.718    22645940.801    22645936.827
        46.000          33.0004
 116404883.424 7  90705143.47845  22151088.809    22151094.650    22151089.893
        45.000          32.0004
 110321656.700 8  85964954.06247  20993503.647    20993509.607    20993504.392
        50.000          42.0004
 125321220.301 6  97652917.31043  23847831.434    23847836.552    23847832.414
        40.000          22.0004
 120199522.111 6  93488518.379 5  22485799.826    22485802.528    22485799.243
        40.000          34.000
 109268886.849 7  84986936.284 7  20412336.413    20412334.661    20412337.311
        47.000          42.000
 127810042.221 6  99592261.64543  24321435.159    24321437.997    24321435.870
        40.000          20.0004
 112700835.151 8  87818900.05446  21446221.986    21446225.387    21446222.978
        50.000          40.0004
 129726063.254 6 101085257.00444  24686042.880    24686046.896    24686042.785
        41.000          24.0004
 126062161.869 6  98230270.73643  23988819.799    23988824.640    23988819.187
        40.000          21.0004
 11 10  1  0 15  0.0000000  0 15G20G23G28R08R21G11G03G32G13R01R07G16
                                G19G07G06
 107677813.140 8  83904811.34447  20490396.464    20490400.855    20490397.332
        50.000          44.0004
 116623876.895 8  90875763.46345  22192781.290    22192783.625    22192781.963
        48.000          34.0004
 122525548.841 6  95474470.93044  23315835.167    23315839.317    23315835.622
        41.000          24.0004
 103328315.855 8  80366466.413 7  19295828.598    19295828.664    19295829.017
        49.000          47.000
 115044161.756 7  89478721.735 7  21498729.884    21498731.927    21498729.589
        45.000          43.000
 118995991.881 7  92724181.23645  22644171.610    22644175.515    22644171.542
        47.000          33.0004
 116455536.332 7  90744613.23545  22160727.709    22160733.678    22160728.574
        46.000          32.0004
 110371018.677 8  86003417.93747  21002897.776    21002902.866    21002898.538
        52.000          42.0004
 125237076.973 6  97587351.13143  23831820.613    23831824.247    23831819.723
        39.000          21.0004
 120089261.064 6  93402759.807 5  22465173.364    22465176.913    22465173.570
        41.000          35.000
 109357634.452 7  85055962.190 7  20428914.982    20428913.794    20428916.823
        47.000          42.000
 127918267.043 6  99676592.64043  24342028.538    24342032.594    24342029.247
        38.000          19.0004
 112700021.437 8  87818265.96446  21446067.184    21446070.698    21446068.019
        50.000          40.0004
 129742162.081 6 101097801.55544  24689105.771    24689110.480    24689106.435
        41.000          24.0004
 126132365.491 6  98284974.80143  24002178.504    24002185.009    24002179.578
        40.000          22.0004
 11 10  1  0 15 30.0000000  0 15G20G23G28R08R21G11G03G32G13R01R07G16
                                G19G07G06
 107697520.326 8  83920167.59247  20494146.573    20494151.008    20494147.459
        50.000          44.0004
 116545055.649 8  90814344.30145  22177782.358    22177784.272    22177782.739
        48.000          35.0004
 122457197.499 6  95421210.16544  23302827.917    23302832.173    23302828.664
        41.000          24.0004
 103311091.676 8  80353069.827 7  19292612.091    19292611.856    19292612.327
        50.000          47.000
 115039175.024 7  89474843.153 7  21497798.066    21497800.040    21497798.191
        45.000          42.000
 118986607.848 7  92716868.99745  22642385.622    22642389.100    22642386.590
        46.000          33.0004
 116506611.346 7  90784411.92045  22170446.918    22170452.747    22170448.217
        47.000          32.0004
 110420771.740 8  86042186.56847  21012365.070    21012370.590    21012365.663
        52.000          42.0004
 125152789.997 6  97521672.97843  23815781.170    23815786.138    23815781.585
        41.000          21.0004
 119979352.421 6  93317275.321 5  22444612.893    22444615.424    22444613.871
        41.000          34.000
 109446831.046 7  85125337.328 7  20445577.791    20445576.324    20445578.850
        47.000          42.000
 128026454.255 6  99760894.36643  24362616.128    24362619.872    24362616.651
        40.000          19.0004
 112699579.305 8  87817921.42646  21445983.096    21445986.390    21445984.374
        50.000          40.0004
 129758114.140 6 101110231.74144  24692142.023    24692146.217    24692141.152
        40.000          24.0004
 126202874.685 6  98339916.99744  24015596.719    24015602.177    24015597.702
        41.000          24.0004
 11 10  1  0 16  0.0000000  0 15G20G23G28R08R21G11G03G32G13R01R07G16
                                G19G07G06
 107717684.775 8  83935880.14247  20497983.803    20497988.234    20497984.603
        51.000          43.0004
 116466337.928 8  90753005.80945  22162802.360    22162805.404    22162802.970
        48.000          34.0004
 122389281.400 6  95368288.52244  23289904.265    23289907.813    23289904.768
        41.000          24.0004
 103294650.036 8  80340281.874 8  19289541.705    19289541.720    19289542.455
        49.000          48.000
 115034604.320 7  89471288.124 7  21496944.181    21496945.753    21496944.316
        45.000          43.000
 118977135.838 7  92709488.20145  22640583.315    22640587.051    22640583.870
        46.000          33.0004
 116558126.465 7  90824553.55245  22180250.061    22180255.579    22180250.743
        45.000          31.0004
 110470931.983 8  86081272.46347  21021910.872    21021915.910    21021911.773
        52.000          42.0004
 125068380.487 6  97455899.34443  23799718.593    23799722.581    23799718.809
        41.000          21.0004
 119869818.511 6  93232082.302 5  22424122.191    22424125.473    22424122.610
        41.000          35.000
 109536490.718 7  85195072.608 7  20462326.842    20462324.990    20462328.310
        46.000          42.000
 128134619.318 6  99845178.79443  24383199.409    24383203.710    24383199.881
        39.000          19.0004
 112699528.635 8  87817881.90946  21445973.542    21445976.968    21445974.608
        50.000          41.0004
 129773936.156 6 101122560.59643  24695153.036    24695157.278    24695152.493
        40.000          23.0004
 126273706.985 6  98395110.93643  24029074.873    24029081.329    24029076.153
        41.000          23.0004
 11 10  1  0 16 30.0000000  0 15G20G23G28R08R21G11G03G32G13R01R07G16
                                G19G07G06
 107738287.957 8  83951934.56747  20501904.472    20501908.791    20501905.406
        51.000          44.0004
 116387709.748 8  90691737.08745  22147840.261    22147842.411    22147840.583
        49.000          35.0004
 122321785.557 6  95315694.39243  23277059.771    23277063.749    23277060.640
        41.000          23.0004
 103278974.050 8  80328089.438 8  19286614.395    19286614.493    19286615.394
        50.000          48.000
 115030434.902 7  89468045.219 7  21496164.843    21496166.919    21496164.700
        45.000          43.000
 118967559.601 7  92702026.19945  22638760.896    22638764.617    22638761.286
        46.000          33.0004
 116610064.202 7  90865024.48445  22190133.448    22190139.137    22190134.216
        44.000          31.0004
 110521480.295 8  86120660.76647  21031529.435    21031534.678    21031530.064
        50.000          42.0004
 124983833.487 6  97390018.59143  23783629.271    23783633.593    23783629.151
        39.000          21.0004
 119760645.321 6  93147169.829 5  22403698.488    22403701.737    22403698.402
        40.000          34.000
 109626591.886 7  85265151.302 7  20479158.842    20479157.311    20479160.266
        47.000          42.000
 128242742.352 6  99929430.48643  24403775.063    24403778.665    24403775.196
        39.000          20.0004
 112699854.399 8  87818135.73446  21446035.552    21446038.817    21446036.731
        51.000          40.0004
 129789609.193 6 101134773.37843  24698134.923    24698140.610    24698134.342
        38.000          23.0004
 126344844.132 6  98450542.43043  24042612.922    24042618.963    24042614.081
        40.000          22.0004
 11 10  1  0 17  0.0000000  0 15G20G23G28R08R21G11G03G32G13R01R07G16
                                G19G07G06
 107759334.472 8  83968334.45247  20505909.360    20505913.909    20505910.050
        49.000          43.0004
 116309180.296 8  90630545.30545  22132896.585    22132898.944    22132897.188
        48.000          35.0004
 122254717.946 6  95263433.92844  23264297.108    23264302.032    23264298.215
        41.000          24.0004
 103264070.063 8  80316497.453 7  19283831.041    19283831.216    19283831.336
        50.000          47.000
 115026675.711 7  89465121.384 7  21495462.241    21495463.528    21495462.188
        45.000          42.000
 118957886.167 7  92694488.44545  22636920.390    22636923.931    22636920.702
        46.000          33.0004
 116662430.383 7  90905829.28645  22200098.610    22200103.717    22200098.423
        45.000          31.0004
 110572420.817 8  86160354.67947  21041223.134    21041228.582    21041223.747
        51.000          42.0004
 124899157.634 6  97324037.43743  23767516.861    23767520.918    23767517.184
        40.000          22.0004
 119651843.053 6  93062545.868 5  22383344.616    22383348.233    22383344.443
        40.000          35.000
 109717136.910 7  85335575.207 7  20496073.010    20496071.744    20496074.531
        47.000          42.000
 128350827.680 6 100013652.78943  24424341.761    24424346.766    24424342.298
        39.000          20.0004
 112700564.453 8  87818688.99946  21446170.677    21446174.077    21446171.842
        50.000          40.0004
 129805137.511 6 101146873.40843  24701089.767    24701094.764    24701089.124
        38.000          22.0004
 126416291.630 6  98506215.76143  24056207.618    24056214.822    24056207.777
        39.000          23.0004
 11 10  1  0 17 30.0000000  0 15G20G23G28R08R21G11G03G32G13R01R07G16
                                G19G07G06
 107780823.655 8  83985079.27147  20509998.537    20510003.092    20509999.320
        50.000          43.0004
 116230754.048 8  90569433.92645  22117972.869    22117974.785    22117973.776
        49.000          35.0004
 122188081.579 7  95211509.48944  23251617.524    23251621.565    23251617.610
        42.000          25.0004
 103249939.604 8  80305507.088 8  19281192.186    19281192.570    19281192.578
        49.000          48.000
 115023330.619 7  89462519.616 7  21494837.153    21494838.559    21494837.694
        45.000          42.000
 118948117.698 7  92686876.65845  22635061.219    22635064.982    22635061.824
        45.000          33.0004
 116715225.944 7  90946968.65845  22210144.991    22210150.768    22210146.285
        45.000          31.0004
 110623752.642 8  86200353.50347  21050990.868    21050996.418    21050991.416
        51.000          42.0004
 124814356.343 6  97257958.54943  23751379.812    23751383.379    23751379.213
        41.000          22.0004
 119543416.720 6  92978214.291 5  22363061.412    22363064.629    22363060.746
        41.000          35.000
 109808122.908 7  85406342.105 7  20513070.052    20513068.277    20513071.582
        47.000          42.000
 128458873.498 6 100097844.28043  24444902.733    24444907.689    24444903.176
        39.000          19.0004
 112701661.700 8  87819543.96946  21446379.312    21446382.791    21446380.178
        49.000          41.0004
 129820521.157 6 101158860.67543  24704017.488    24704021.867    24704017.252
        40.000          21.0004
 126488049.932 6  98562131.24343  24069863.250    24069869.656    24069864.415
        41.000          22.0004
 11 10  1  0 18  0.0000000  0 15G20G23G28R08R21G11G03G32G13R01R07G16
                                G19G07G06
 107802758.630 8  84002171.45747  20514172.762    20514177.130    20514173.398
        51.000          43.0004
 116152438.668 8  90508408.95245  22103069.654    22103072.288    22103069.952
        49.000          35.0004
 122121882.834 7  95159926.04944  23239020.310    23239024.229    23239020.866
        42.000          25.0004
 103236587.049 8  80295121.759 8  19278698.608    19278699.069    19278698.872
        50.000          48.000
 115020406.938 7  89460245.616 7  21494291.139    21494292.825    21494291.995
        45.000          43.000
 118938259.519 7  92679194.93545  22633185.428    22633188.909    22633185.918
        47.000          33.0004
 116768454.786 7  90988445.64545  22220274.066    22220280.088    22220274.603
        46.000          31.0004
 110675478.424 8  86240659.29346  21060834.246    21060839.567    21060835.223
        52.000          41.0004
 124729435.996 6  97191786.87943  23735220.013    23735223.745    23735219.975
        40.000          22.0004
 119435374.289 6  92894181.296 5  22342849.922    22342853.897    22342851.186
        41.000          35.000
 109899551.909 7  85477453.526 7  20530149.427    20530148.426    20530150.440
        47.000          42.000
 128566881.911 6 100182006.62943  24465456.375    24465461.348    24465456.552
        39.000          19.0004
 112703152.725 8  87820705.77546  21446663.276    21446666.683    21446664.239
        50.000          40.0004
 129835762.858 6 101170737.36943  24706917.962    24706922.145    24706917.757
        38.000          22.0004
 126560122.663 6  98618291.76043  24083578.483    24083583.264    24083577.956
        38.000          22.0004
 11 10  1  0 18 30.0000000  0 15G20G23G28R08R21G11G03G32G13R01R07G16
                                G19G07G06
 107825123.740 8  84019598.81847  20518428.735    20518433.229    20518429.569
        51.000          44.0004
 116074223.120 8  90447461.76445  22088185.520    22088188.268    22088185.970
        48.000          35.0004
 122056109.252 6  95108673.89943  23226503.312    23226507.974    23226503.377
        40.000          23.0004
 103223998.347 8  80285330.548 8  19276348.016    19276348.044    19276348.297
        50.000          48.000
 115017892.740 7  89458290.104 7  21493821.688    21493822.920    21493822.198
        45.000          43.000
 118928298.167 8  92671432.85545  22631290.293    22631293.746    22631290.349
        48.000          33.0004
 116822102.401 7  91030248.94745  22230483.082    22230488.951    22230483.992
        47.000          31.0004
 110727581.837 8  86281259.36147  21070748.911    21070754.649    21070749.669
        52.000          42.0004
 124644385.523 6  97125513.81343  23719034.975    23719038.884    23719034.666
        40.000          22.0004
 119327705.005 7  92810438.538 5  22322708.213    22322711.580    22322709.697
        42.000          35.000
 109991402.612 7  85548892.957 7  20547308.411    20547306.786    20547309.978
        46.000          42.000
 128674836.524 6 100266127.05843  24485999.359    24486003.281    24486000.367
        39.000          19.0004
 112705024.879 8  87822164.57746  21447019.544    21447022.876    21447020.554
        50.000          40.0004
 129850846.671 6 101182491.00943  24709788.106    24709792.052    24709788.910
        41.000          23.0004
 126632495.017 6  98674685.75643  24097350.250    24097356.517    24097350.929
        40.000          20.0004
 11 10  1  0 19  0.0000000  0 15G20G23G28R08R21G11G03G32G13R01R07G16
                                G19G07G06
 107847928.187 8  84037368.50947  20522768.192    20522772.631    20522769.259
        51.000          44.0004
 115996121.309 8  90386603.18845  22073323.430    22073325.697    22073324.186
        48.000          35.0004
 121990773.519 6  95057762.97243  23214070.514    23214075.623    23214071.014
        41.000          23.0004
 103212184.436 8  80276141.947 8  19274141.952    19274142.030    19274142.504
        50.000          48.000
 115015801.893 7  89456663.855 7  21493430.660    21493432.411    21493431.386
        45.000          43.000
 118918245.414 8  92663599.53645  22629376.787    22629380.819    22629377.283
        48.000          33.0004
 116876179.116 7  91072386.61245  22240773.440    22240779.639    22240774.072
        46.000          32.0004
 110780071.620 8  86322160.48347  21080737.831    21080743.069    21080738.840
        51.000          42.0004
 124559217.765 6  97059149.32343  23702827.934    23702831.392    23702828.454
        40.000          22.0004
 119220423.489 7  92726997.379 5  22302639.204    22302641.821    22302638.485
        42.000          35.000
 110083683.489 7  85620666.971 6  20564546.990    20564545.260    20564548.322
        47.000          41.000
 128782745.618 6 100350212.07543  24506532.829    24506538.557    24506534.573
        39.000          18.0004
 112707290.705 8  87823930.12246  21447450.812    21447453.991    21447451.970
        50.000          40.0004
 129865781.443 6 101194128.51643  24712629.915    24712634.440    24712630.988
        40.000          22.0004
 126705176.567 6  98731320.66743  24111181.161    24111187.809    24111181.702
        38.000          20.0004
 11 10  1  0 19 30.0000000  0 15G20G23G28R08R21G11G03G32G13R01R07G16
                                G19G07G06
 107871167.717 8  84055477.23047  20527190.457    20527195.107    20527190.962
        51.000          43.0004
 115918133.997 8  90325833.85445  22058483.175    22058485.334    22058483.689
        49.000          35.0004
 121925874.692 7  95007192.45344  23201720.418    23201725.178    23201721.328
        42.000          25.0004
 103201142.106 8  80267553.460 8  19272079.745    19272079.955    19272080.502
        50.000          48.000
 115014134.207 7  89455366.745 7  21493119.402    21493120.699    21493119.529
        45.000          43.000
 118908099.542 8  92655693.64145  22627446.136    22627449.452    22627446.627
        48.000          33.0004
 116930682.362 7  91114856.64445  22251145.192    22251150.994    22251145.551
        46.000          31.0004
 110832942.981 8  86363358.94947  21090798.965    21090804.212    21090799.580
        51.000          42.0004
 124473932.353 6  96992693.16743  23686598.382    23686602.621    23686598.117
        41.000          23.0004
 119113530.759 7  92643858.597 5  22282643.129    22282646.023    22282643.096
        42.000          35.000
 110176388.693 7  85692771.015 7  20581865.326    20581864.192    20581866.768
        46.000          42.000
 128890604.462 6 100434257.89242  24527058.551    24527063.985    24527059.276
        38.000          17.0004
 112709949.771 8  87826002.10046  21447956.746    21447960.198    21447957.843
        48.000          41.0004
 129880563.660 6 101205647.16643  24715443.375    24715447.547    24715443.390
        40.000          22.0004
 126778164.106 6  98788194.03043  24125069.973    24125075.977    24125071.042
        40.000          19.0004
 11 10  1  0 20  0.0000000  0 15G20G23G28R08R21G11G03G32G13R01R07G16
                                G19G07G06
 107894839.961 8  84073923.14447  20531695.162    20531699.650    20531695.807
        51.000          43.0004
 115840263.537 8  90265155.56645  22043664.584    22043666.858    22043665.353
        49.000          35.0004
 121861414.449 7  94956963.71044  23189454.390    23189458.807    23189454.999
        42.000          26.0004
 103190871.383 8  80259565.126 8  19270161.851    19270161.992    19270162.274
        50.000          48.000
 115012891.723 7  89454400.336 7  21492887.006    21492888.420    21492887.378
        45.000          43.000
 118897860.998 7  92647715.56545  22625498.037    22625501.633    22625498.374
        46.000          33.0004
 116985610.547 7  91157657.80945  22261598.112    22261603.525    22261598.403
        46.000          31.0004
 110886193.467 8  86404852.84247  21100932.014    21100937.363    21100932.702
        51.000          42.0004
 124388531.166 6  96926146.79443  23670347.583    23670351.898    23670347.399
        41.000          23.0004
 119007030.062 7  92561024.733 5  22262719.888    22262722.630    22262720.580
        42.000          35.000
 110269512.131 7  85765200.361 7  20599261.136    20599260.334    20599262.407
        47.000          42.000
 128998409.559 6 100518261.82342  24547573.243    24547577.923    24547574.098
        37.000          17.0004
 112713002.628 8  87828380.92346  21448537.730    21448541.019    21448538.513
        48.000          41.0004
 129895190.811 6 101217044.96043  24718227.233    24718230.601    24718226.504
        38.000          21.0004
 126851455.959 6  98845304.54443  24139016.783    24139022.743    24139017.183
        40.000          20.0004
