     2.11           OBSERVATION DATA    G (GPS)             RINEX VERSION / TYPE
teqc  2016Apr1                          20160930 07:51:16UTCPGM / RUN BY / DATE
Linux 2.4.20-8|Pentium IV|gcc|Linux|486/DX+                 COMMENT
teqc  2016Apr1                          20160816 03:14:42UTCCOMMENT
teqc  2010Mar17     gpsops              20111002 00:07:38UTCCOMMENT
Linux 2.4.21-27.ELsmp|Opteron|gcc -static|Linux x86_64|=+   COMMENT
     2.10           OBSERVATION DATA    GPS                 COMMENT
soc2rnx ver 1.20    gpsops               2-Oct-2011 00:07:38COMMENT
S1, if present, is the SNR for the C/A data stream on L1.   COMMENT
 SNR is mapped to RINEX snr flag value [1,4-9]              COMMENT
    SNR:   >316  >100  >31.6  >10  >3.2    >0 bad=0         COMMENT
L1 & L2:      9     8     7     6     5     4     1         COMMENT
                                                            COMMENT
This data is provided as a public service by NASA/JPL.      COMMENT
No warranty is expressed or implied regarding suitability   COMMENT
for use.  For further information, contact:                 COMMENT
Dave Stowers, NASA/JPL m/s 238-600                          COMMENT
4800 Oak Grove Drive, Pasadena CA 91109 USA                 COMMENT
                                                            COMMENT
Forced Modulo Decimation to 30 seconds                      COMMENT
MKEA                                                        MARKER NAME
40477M001                                                   MARKER NUMBER
GGN                 JPL                                     OBSERVER / AGENCY
IR2200714001        ASHTECH UZ-12       CQ00                REC # / TYPE / VERS
482                 AOAD/M_T        NONE                    ANT # / TYPE
 -5464105.2490 -2495166.1330  2148291.3150                  APPROX POSITION XYZ
        0.0060        0.0000        0.0000                  ANTENNA: DELTA H/E/N
     1     1                                                WAVELENGTH FACT L1/2
     7    L1    L2    P1    P2    C1    S1    S2            # / TYPES OF OBSERV
    30.0000                                                 INTERVAL
teqc windowed: start @ 2011 Oct  1 00:10:00.000             COMMENT
teqc windowed:  end  @ 2011 Oct  1 00:20:00.000             COMMENT
  2011    10     1     0    10    0.0000000     GPS         TIME OF FIRST OBS
                                                            END OF HEADER
 11 10  1  0 10  0.0000000  0  8G18G25G21G31G12G05G30G29
 116720725.05847  90951167.12247  22211250.4854   22211261.5164   22211251.1624
        49.000          44.000
 110422348.12547  86043361.47347  21012695.4504   21012706.3434   21012695.7324
        56.000          50.000
 109743033.24147  85514032.05147  20883418.8254   20883425.1654   20883419.3194
        54.000          50.000
 116911429.99647  91099775.73847  22247536.6574   22247545.6884   22247536.6054
        51.000          46.000
 123006853.44047  95849439.87347  23407469.5574   23407482.8984   23407469.1854
        49.000          43.000
 142008991.32357  92864108.16857  25120506.7975   25120518.1775   25120505.8045
        43.000          37.000
 105510089.61747  82215621.63147  20077926.9224   20077934.4484   20077927.5224
        55.000          50.000
 115526780.79747  90020833.68447  21984042.7374   21984050.3624   21984042.6144
        51.000          47.000
 11 10  1  0 10 30.0000000  0  9G18G25G22G21G31G12G05G30G29
 116649423.73247  90895607.74847  22197682.8794   22197693.2164   22197682.9274
        50.000          44.000
 110464707.63447  86076368.80447  21020756.2204   21020767.2004   21020756.3884
        56.000          50.000
 138938780.67057  90471698.03557  24536294.3325   24536313.7725   24536295.7235
        43.000          40.000
 109749261.90647  85518885.57247  20884604.0344   20884610.3174   20884604.5504
        54.000          50.000
 116916182.03747  91103478.54847  22248440.8304   22248450.0954   22248440.4624
        51.000          46.000
 123086831.17247  95911759.87047  23422688.8584   23422702.6994   23422688.3384
        49.000          43.000
 142080762.61347  92920033.91147  25134164.8654   25134176.4134   25134164.6454
        44.000          38.000
 105495414.90447  82204186.77247  20075134.4094   20075141.8904   20075135.0064
        55.000          50.000
 115545976.29447  90035791.17047  21987695.5974   21987703.1914   21987695.2954
        51.000          47.000
 11 10  1  0 11  0.0000000  0  9G18G25G22G21G31G12G05G30G29
 116578317.08447  90840200.17947  22184150.6374   22184161.6894   22184151.1314
        51.000          44.000
 110507520.83547  86109729.65747  21028903.2674   21028914.3564   21028903.4964
        56.000          50.000
 118843495.78357 110397438.84057  24518169.1115   24518190.8675   24518171.9435
        40.000          38.000
 109755842.48547  85524013.30947  20885856.2874   20885862.6614   20885856.8354
        54.000          50.000
 116921415.61847  91107556.57747  22249437.2554   22249446.1194   22249436.7554
        51.000          46.000
 123167096.95047  95974304.30547  23437963.0024   23437976.7914   23437962.9994
        48.000          42.000
 142152890.50347  92976237.54347  25147890.3524   25147901.6584   25147889.9364
        44.000          38.000
 105481261.77347  82193158.33747  20072441.1124   20072448.6814   20072441.6784
        55.000          50.000
 115565163.53147  90050742.21847  21991346.8724   21991354.5084   21991346.6864
        51.000          47.000
 11 10  1  0 11 30.0000000  0  8G18G25G21G31G12G05G30G29
 116507430.84847  90784964.35847  22170661.1434   22170672.2814   22170661.5154
        51.000          44.000
 110550810.07147  86143461.43447  21037140.9984   21037152.1244   21037141.2624
        56.000          50.000
 109762796.64547  85529432.14747  20887179.6924   20887185.9604   20887179.9384
        54.000          50.000
 116927152.29647  91112026.63547  22250528.9204   22250538.0304   22250528.5124
        51.000          46.000
 123247672.07347  96037089.76247  23453296.1724   23453310.3394   23453295.8394
        47.000          43.000
 142225395.52347  93032735.08047  25161687.3574   25161698.2754   25161686.7044
        42.000          36.000
 105467654.06347  82182554.91247  20069851.6724   20069859.2494   20069852.2244
        55.000          50.000
 115584365.39547  90065704.66847  21995000.8974   21995008.6024   21995000.7234
        51.000          47.000
 11 10  1  0 12  0.0000000  0  8G18G25G21G31G12G05G30G29
 116436733.07347  90729875.34047  22157207.9414   22157219.0854   22157208.5764
        50.000          44.000
 110594540.46447  86177536.97847  21045462.5554   21045473.8304   21045462.7834
        56.000          50.000
 109770088.45247  85535114.09347  20888567.2514   20888573.5104   20888567.7884
        54.000          50.000
 116933356.35647  91116860.88247  22251709.3784   22251718.6074   22251708.9804
        51.000          46.000
 123328520.56647  96100088.25547  23468681.0294   23468695.2604   23468680.6954
        46.000          42.000
 142298241.15747  93089498.02747  25175549.2304   25175559.4834   25175548.2524
        39.000          34.000
 105454558.44847  82172350.52147  20067359.7144   20067367.2174   20067360.2864
        55.000          50.000
 115603547.48147  90080651.70147  21998651.1214   21998658.7854   21998650.8664
        51.000          47.000
 11 10  1  0 12 30.0000000  0  9G18G25G22G21G31G12G05G30G29
 116366239.52547  90674945.46447  22143793.2734   22143804.4344   22143793.5634
        50.000          44.000
 110638724.66347  86211966.13247  21053870.6604   21053881.8954   21053870.7384
        56.000          50.000
 138557238.66257  90174393.07357  24463688.0075   24463707.1205   24463687.3575
        44.000          39.000
 109777729.20747  85541067.94147  20890021.1824   20890027.4754   20890021.6314
        54.000          50.000
 116940039.61747  91122068.53347  22252981.0804   22252990.4564   22252980.5724
        51.000          46.000
 123409654.21147  96163308.94847  23484120.5644   23484134.9914   23484120.3474
        46.000          42.000
 142371438.39647  93146534.93247  25189478.4674   25189489.9064   25189477.6234
        41.000          36.000
 105441989.31747  82162556.37947  20064967.8754   20064975.3734   20064968.3794
        55.000          50.000
 115622723.11947  90095593.70547  22002300.1294   22002307.8224   22002299.9124
        52.000          47.000
 11 10  1  0 13  0.0000000  0  9G18G25G22G21G31G12G05G30G29
 116295952.86147  90620176.76747  22130418.6784   22130429.1984   22130418.9094
        51.000          44.000
 110683362.75047  86246748.96547  21062365.1084   21062376.3474   21062365.3294
        56.000          50.000
 118461541.98457 110099815.34757  24445485.8285   24445506.3935   24445486.4545
        42.000          40.000
 109785718.11347  85547293.07747  20891541.4344   20891547.6944   20891541.8244
        54.000          50.000
 116947201.19447  91127648.88747  22254344.1584   22254353.4304   22254344.1774
        51.000          46.000
 123491071.98047  96226751.01447  23499613.8514   23499628.7974   23499613.8864
        46.000          42.000
 142444986.11047  93203844.81147  25203474.2084   25203485.8644   25203473.4274
        44.000          38.000
 105429948.25047  82153173.71147  20062676.4914   20062684.0834   20062677.0244
        55.000          50.000
 115641893.05047  90110531.26447  22005948.2334   22005955.6684   22005947.9744
        52.000          47.000
 11 10  1  0 13 30.0000000  0  9G18G25G22G21G31G12G05G30G29
 116225883.60647  90565577.54447  22117084.3014   22117095.1564   22117084.3854
        52.000          45.000
 110728462.20347  86281891.30447  21070947.2614   21070958.5394   21070947.5324
        56.000          50.000
 118365803.73947 110025214.09047  24427267.9164   24427288.2404   24427268.0264
        45.000          39.000
 109794061.17947  85553794.18247  20893128.9574   20893135.2924   20893129.5384
        54.000          50.000
 116954847.74847  91133607.15247  22255799.2554   22255808.5954   22255798.9404
        51.000          46.000
 123572780.41247  96290419.55747  23515163.3164   23515177.5334   23515162.8464
        47.000          42.000
 142518889.86947  93261432.24647  25217537.9714   25217548.4964   25217538.3464
        44.000          38.000
 105418444.30247  82144209.58047  20060487.4014   20060494.9354   20060488.0224
        55.000          50.000
 115661065.78547  90125471.00347  22009596.7534   22009604.2974   22009596.4474
        52.000          47.000
 11 10  1  0 14  0.0000000  0  9G18G25G22G21G31G12G05G30G29
 116156020.34247  90511138.81847  22103789.5474   22103800.3804   22103790.0354
        51.000          45.000
 110774008.62847  86317381.93147  21079614.5764   21079625.7564   21079614.8454
        56.000          50.000
 118269962.84547 109950532.76147  24409030.1764   24409050.5024   24409031.4384
        47.000          39.000
 109802743.32347  85560559.49847  20894781.1804   20894787.4654   20894781.6954
        54.000          50.000
 116962964.27647  91139931.63247  22257343.6554   22257352.9224   22257343.1974
        51.000          46.000
 123654764.13947  96354302.63147  23530764.5044   23530778.9684   23530764.5014
        48.000          42.000
 142593133.64647  93319284.57747  25231665.7714   25231677.3254   25231665.4244
        45.000          39.000
 105407464.73547  82135654.05347  20058398.1914   20058405.6444   20058398.6864
        55.000          50.000
 115680227.31447  90140402.01047  22013243.0104   22013250.7604   22013242.7584
        51.000          47.000
 11 10  1  0 14 30.0000000  0  9G18G25G22G21G31G12G05G30G29
 116086381.19447  90456874.69347  22090537.3184   22090548.1704   22090538.1504
        50.000          44.000
 110820016.88747  86353232.41947  21088369.7854   21088380.9374   21088369.9334
        56.000          50.000
 118174037.40847 109875785.41847  24390775.9004   24390796.3184   24390776.6644
        45.000          37.000
 109811778.46247  85567599.87947  20896500.4804   20896506.7914   20896501.0364
        54.000          50.000
 116971564.50747  91146633.02547  22258980.4394   22258989.7914   22258980.0604
        51.000          46.000
 123737037.13147  96418411.06047  23546420.8964   23546435.7694   23546420.7934
        49.000          42.000
 142667730.93147  93377412.44347  25245861.0214   25245872.0434   25245859.9234
        43.000          37.000
 105397026.03147  82127519.97847  20056411.7344   20056419.2574   20056412.3114
        55.000          50.000
 115699393.23947  90155336.43947  22016890.2204   22016897.8934   22016890.0914
        52.000          47.000
 11 10  1  0 15  0.0000000  0  9G18G25G22G21G31G12G05G30G29
 116016964.74247  90402784.10647  22077327.9784   22077339.0514   22077328.0974
        52.000          45.000
 110866482.54847  86389439.32647  21097211.9914   21097223.1384   21097212.3354
        56.000          50.000
 118078025.35647 109800970.72747  24372505.6354   24372525.8444   24372505.2254
        41.000          37.000
 109821160.75247  85574910.76247  20898285.8534   20898292.1464   20898286.3204
        53.000          50.000
 116980643.24347  91153707.27247  22260707.9884   22260717.5644   22260707.6294
        51.000          46.000
 123819594.29747  96482740.95047  23562131.3474   23562146.2394   23562131.2494
        48.000          43.000
 122742595.93557 113435729.26657  25260120.5625   25260134.9885   25260120.3885
        40.000          36.000
 105387125.26347  82119805.06947  20054527.6954   20054535.2164   20054528.2864
        55.000          50.000
 115718560.41947  90170271.84047  22020537.4254   22020545.4064   22020537.0474
        51.000          47.000
 11 10  1  0 15 30.0000000  0  8G18G25G22G21G31G12G30G29
 115947764.53247  90348862.07047  22064159.1354   22064170.5034   22064159.7044
        51.000          45.000
 110913396.33047  86425995.41747  21106139.4394   21106150.6694   21106139.5704
        56.000          50.000
 117981919.90147 109726083.42147  24354217.2324   24354237.6024   24354218.6594
        46.000          38.000
 109830880.37747  85582484.50247  20900135.4394   20900141.7114   20900135.8614
        54.000          50.000
 116990190.17447  91161146.35147  22262524.9574   22262534.4364   22262524.6124
        51.000          46.000
 123902425.59247  96547284.45347  23577893.5484   23577908.2434   23577893.4174
        47.000          43.000
 105377754.91647  82112503.47647  20052744.5564   20052752.1374   20052745.1334
        55.000          50.000
 115737720.05547  90185201.36447  22024183.5904   22024191.3554   22024183.3284
        51.000          47.000
 11 10  1  0 16  0.0000000  0  8G18G25G22G21G31G12G30G29
 115878787.86547  90295114.15147  22051033.3464   22051044.0114   22051033.6114
        50.000          45.000
 110960762.17647  86462903.75947  21115152.9114   21115164.1694   21115153.0354
        56.000          50.000
 117885728.05047 109651128.57047  24335912.8304   24335933.3244   24335914.8324
        47.000          36.000
 109840940.09747  85590323.25147  20902049.6844   20902056.0084   20902050.0584
        54.000          50.000
 117000208.70447  91168952.89947  22264431.4644   22264440.9744   22264431.2054
        51.000          46.000
 123985533.33347  96612043.35947  23593708.4834   23593723.3884   23593708.3814
        46.000          42.000
 105368920.34547  82105619.37247  20051063.3714   20051071.0024   20051063.9694
        55.000          50.000
 115756876.88347  90200128.70247  22027829.2064   22027836.9644   22027828.8714
        52.000          47.000
 11 10  1  0 16 30.0000000  0  9G18G25G22G21G31G12G05G30G29
 115810043.40247  90241547.16947  22037951.6944   22037962.7064   22037952.2404
        51.000          45.000
 111008585.66747  86500168.70847  21124253.4194   21124264.8394   21124253.6684
        56.000          50.000
 117789457.99547 109576112.65747  24317593.7084   24317613.1694   24317593.3994
        42.000          38.000
 109851344.64947  85598430.69747  20904029.5494   20904035.9534   20904029.9764
        54.000          50.000
 117010703.36747  91177130.46347  22266428.7634   22266438.1384   22266428.3924
        51.000          46.000
 124068922.62847  96677021.63547  23609577.1854   23609592.7494   23609576.3624
        46.000          42.000
 142969524.33857  93612572.16557  25303293.7295   25303304.8295   25303293.7035
        42.000          38.000
 105360628.79247  82099158.40247  20049485.5784   20049493.1524   20049486.1514
        55.000          50.000
 115776037.54647  90215059.02847  22031475.4174   22031483.2254   22031475.0354
        51.000          47.000
 11 10  1  0 17  0.0000000  0  9G18G25G22G21G31G12G05G30G29
 115741526.11547  90188157.23647  22024913.1634   22024923.6564   22024913.3894
        51.000          45.000
 111056858.98047  86537784.17047  21133439.7074   21133450.9964   21133439.9024
        56.000          50.000
 117693104.78447 109501032.28847  24299257.9334   24299278.5224   24299257.4444
        45.000          40.000
 109862085.10447  85606799.88347  20906073.4794   20906079.7944   20906073.9744
        54.000          50.000
 117021665.52247  91185672.32047  22268514.4734   22268524.1904   22268513.9344
        51.000          46.000
 124152584.55147  96742212.31347  23625498.0524   23625513.9704   23625497.4684
        47.000          41.000
 143045822.47747  93672025.41947  25317813.0534   25317823.8204   25317812.6614
        41.000          38.000
 105352873.97147  82093115.66347  20048009.9084   20048017.4364   20048010.3594
        55.000          50.000
 115795195.05447  90229986.88647  22035120.9334   22035128.7794   22035120.7064
        51.000          47.000
 11 10  1  0 17 30.0000000  0  8G18G25G22G21G31G12G30G29
 115673240.61747  90134947.91547  22011918.4964   22011929.5104   22011919.1034
        51.000          45.000
 111105583.41047  86575751.14147  21142711.7294   21142723.1554   21142711.8594
        56.000          50.000
 117596672.35847 109425890.08947  24280908.0334   24280928.2304   24280909.1194
        46.000          40.000
 109873161.73747  85615431.02447  20908181.3744   20908187.6444   20908181.8134
        54.000          50.000
 117033095.66347  91194578.83047  22270689.7364   22270699.4024   22270689.5324
        51.000          46.000
 124236519.87547  96807616.03547  23641471.0264   23641486.6744   23641470.7404
        47.000          42.000
 105345658.81847  82087493.44347  20046636.9174   20046644.4514   20046637.5454
        55.000          50.000
 115814351.89347  90244914.22447  22038766.3554   22038774.1314   22038766.1404
        51.000          47.000
 11 10  1  0 18  0.0000000  0  8G18G25G22G21G31G12G30G29
 115605190.80547  90081922.24247  21998968.6634   21998979.8044   21998969.2194
        50.000          45.000
 111154759.51947  86614070.07647  21152069.8204   21152081.1174   21152070.0394
        56.000          50.000
 117500164.42347 109350688.94147  24262542.5224   24262562.5564   24262546.7824
        41.000          35.000
 109884574.13647  85624323.80147  20910353.0344   20910359.3434   20910353.5464
        54.000          50.000
 117044993.26747  91203849.59447  22272953.8724   22272963.7094   22272953.8584
        51.000          46.000
 124320727.92347  96873232.33147  23657495.7034   23657510.3964   23657495.5574
        49.000          43.000
 105338985.43947  82082293.38347  20045367.1234   20045374.6464   20045367.6734
        55.000          51.000
 115833509.31147  90259842.02647  22042411.8994   22042419.7924   22042411.5004
        52.000          47.000
 11 10  1  0 18 30.0000000  0  8G18G25G22G21G31G12G30G29
 115537378.93547  90029081.95947  21986065.0334   21986075.2764   21986065.4994
        50.000          45.000
 111204386.83847  86652740.60047  21161513.6064   21161524.9374   21161513.8304
        56.000          50.000
 117403582.96747 109275430.65147  24244162.3024   24244184.6604   24244167.2174
        41.000          38.000
 109896321.09247  85633477.26447  20912588.3454   20912594.7194   20912588.8084
        54.000          50.000
 117057356.93747  91213483.53147  22275306.7524   22275316.2174   22275306.4424
        51.000          46.000
 124405207.86047  96939060.45147  23673571.9364   23673586.6084   23673571.4774
        48.000          41.000
 105332855.00247  82077516.39447  20044200.5764   20044208.0924   20044201.1614
        55.000          50.000
 115852667.82947  90274770.67147  22046057.7434   22046065.7224   22046057.5324
        52.000          47.000
 11 10  1  0 19  0.0000000  0  8G18G25G22G21G31G12G30G29
 115469806.73947  89976428.47047  21973206.1544   21973216.6474   21973206.5814
        52.000          45.000
 111254463.42047  86691761.19147  21171042.9274   21171054.3584   21171043.2504
        55.000          50.000
 117306929.51347 109200116.23647  24225771.0584   24225792.3594   24225769.9544
        38.000          38.000
 109908399.73247  85642889.18547  20914886.9344   20914893.2684   20914887.3674
        54.000          50.000
 117070184.18647  91223478.69547  22277747.8544   22277757.4434   22277747.3564
        51.000          46.000
 124489956.12447  97005097.57947  23689699.2884   23689715.8214   23689699.0414
        50.000          43.000
 105327267.07447  82073162.14347  20043137.2174   20043144.7464   20043137.6204
        55.000          50.000
 115871826.75847  90289699.63547  22049703.6494   22049711.5694   22049703.3604
        51.000          47.000
 11 10  1  0 19 30.0000000  0  7G18G25G21G31G12G30G29
 115402496.17947  89923978.86147  21960397.1864   21960407.6634   21960397.7584
        52.000          45.000
 111305008.22947  86731146.65447  21180661.3824   21180672.8374   21180661.5534
        56.000          50.000
 109920827.93647  85652573.49847  20917251.8714   20917258.1954   20917252.2124
        54.000          50.000
 117083493.07647  91233849.17147  22280280.2474   22280290.3174   22280279.9204
        51.000          46.000
 124574991.30147  97071358.40647  23705881.5934   23705896.5144   23705881.2974
        50.000          44.000
 105322242.15047  82069246.59847  20042181.0394   20042188.5514   20042181.7314
        55.000          50.000
 115891005.90247  90304644.35747  22053353.4004   22053361.2194   22053353.2344
        51.000          47.000
 11 10  1  0 20  0.0000000  0  7G18G25G21G31G12G30G29
 115335407.55547  89871702.14747  21947630.7334   21947640.9914   21947630.8574
        52.000          45.000
 111355978.60047  86770863.70147  21190360.7794   21190372.2344   21190361.0884
        56.000          50.000
 109933561.91247  85662496.07447  20919675.0184   20919681.3934   20919675.4334
        54.000          50.000
 117097240.00747  91244560.95947  22282896.5084   22282906.2584   22282896.0264
        51.000          46.000
 124660269.92447  97137808.90947  23722109.2794   23722124.7734   23722108.5184
        50.000          43.000
 105317739.23847  82065737.81347  20041324.1324   20041331.6994   20041324.6874
        55.000          50.000
 115910163.93247  90319572.62347  22056998.9714   22057006.9234   22056998.6394
        51.000          47.000
