     2.11           OBSERVATION DATA    M (MIXED)           RINEX VERSION / TYPE
teqc  2016Apr1                          20160930 07:51:16UTCPGM / RUN BY / DATE
Linux 2.4.20-8|Pentium IV|gcc|Linux|486/DX+                 COMMENT
teqc  2016Apr1                          20160816 03:36:21UTCCOMMENT
teqc  2010Mar17     gpsops              20111002 00:03:40UTCCOMMENT
Linux 2.4.21-27.ELsmp|Opteron|gcc -static|Linux x86_64|=+   COMMENT
BIT 2 OF LLI FLAGS DATA COLLECTED UNDER A/S CONDITION       COMMENT
                                                            COMMENT
This data is provided as a public service by                COMMENT
Regional GPS Data Acquisition and Analysis Center (RDAAC)   COMMENT
Geophysical Service RAS (GS RAS).                           COMMENT
The data acquisition software is provided by NASA/JPL.      COMMENT
No warranty is expressed or implied regarding suitability   COMMENT
for use.  For further information, contact:                 COMMENT
Grigory M. Steblov, GS RAS (steblov@gps.gsras.ru)           COMMENT
Dave Stowers, NASA/JPL (dstowers@jpl.nasa.gov)              COMMENT
                                                            COMMENT
Forced Modulo Decimation to 30 seconds                      COMMENT
 SNR is mapped to RINEX snr flag value [0-9]                COMMENT
  L1 & L2: min(max(int(snr_dBHz/6), 0), 9)                  COMMENT
pseudorange smoothing corrections not applied               COMMENT
TIXI                                                        MARKER NAME
12360M001                                                   MARKER NUMBER
SAM                 RDAAC                                   OBSERVER / AGENCY
8RLTBTENFGG         JPS EGGDT           2.7.0               REC # / TYPE / VERS
00263               TPSCR3_GGD      NONE                    ANT # / TYPE
 -1264872.9630  1569455.8140  6031003.3880                  APPROX POSITION XYZ
        0.0792        0.0000        0.0000                  ANTENNA: DELTA H/E/N
     1     1                                                WAVELENGTH FACT L1/2
     7    L1    L2    P1    P2    C1    S1    S2            # / TYPES OF OBSERV
    30.0000                                                 INTERVAL
teqc windowed: start @ 2011 Oct  1 00:10:00.000             COMMENT
teqc windowed:  end  @ 2011 Oct  1 00:20:00.000             COMMENT
  2011    10     1     0    10    0.0000000     GPS         TIME OF FIRST OBS
    15                                                      LEAP SECONDS
                                                            END OF HEADER
 11 10  1  0 10  0.0000000  0 19R18R11R10G31G23G05G16G29R02G06G30R20
                                R19G02R01G21G13G10R09
 119302074.200 7  92790528.218 7  22349298.546    22349304.036    22349299.187
        46.000          44.000
 112115583.319 8  87201014.252 7  20980903.957    20980906.621    20980904.242
        49.000          42.000
 102904813.042 9  80037095.901 8  19304681.786    19304685.992    19304682.451
        54.000          48.000
 125873406.952 7  98083186.53144  23952918.855    23952921.206    23952918.438
        42.000          29.0004
 115758409.553 8  90201385.31646  22028087.628    22028087.976    22028087.578
        48.000          37.0004
 125730638.243 7  97971950.23345  23925737.267    23925741.784    23925737.871
        44.000          31.0004
 110709889.215 8  86267470.74447  21067389.934    21067392.194    21067390.518
        53.000          45.0004
 119064389.619 8  92777468.21446  22657198.306    22657201.169    22657198.524
        48.000          38.0004
 114487583.993 8  89045919.819 7  21454913.712    21454915.904    21454914.344
        51.000          47.000
 120951236.411 6  94247703.66643  23016246.679    23016250.537    23016246.902
        40.000          22.0004
 124872947.489 7  97303626.70844  23762543.625    23762547.286    23762544.195
        42.000          26.0004
 115231573.407 7  89624578.811 7  21548878.094    21548881.835    21548878.904
        42.000          45.000
 106173593.791 9  82579476.782 8  19848023.661    19848024.136    19848024.282
        54.000          51.000
 131289431.497 6 102303471.41143  24983549.759    24983552.990    24983550.557
        39.000          22.0004
 118786711.873 7  92389696.775 6  22221504.084    22221505.854    22221503.939
        46.000          38.000
 128227889.258 6  99917854.03643  24400947.556    24400952.327    24400948.747
        40.000          23.0004
 112977595.237 8  88034516.60746  21498915.254    21498916.915    21498915.575
        52.000          41.0004
 123148862.669 7  95960163.77745  23434445.765    23434450.518    23434446.496
        45.000          30.0004
 117748321.360 7  91582039.918 7  22050481.053    22050485.665    22050480.766
        47.000          44.000
 11 10  1  0 10 30.0000000  0 18R18R11R10G31G23G05G16G29R02G06G30R20
                                R19R01G21G13G10R09
 119419412.672 7  92881791.580 7  22371279.951    22371285.113    22371280.330
        46.000          43.000
 112015578.112 8  87123232.480 7  20962189.310    20962192.121    20962190.166
        48.000          42.000
 102928276.012 9  80055344.865 7  19309083.374    19309087.562    19309084.371
        54.000          47.000
 125982547.800 7  98168231.27444  23973687.508    23973689.963    23973687.390
        44.000          29.0004
 115817893.948 8  90247736.77246  22039407.136    22039407.646    22039407.420
        49.000          37.0004
 125676589.731 7  97929834.54145  23915452.387    23915456.580    23915452.530
        42.000          31.0004
 110656846.570 8  86226138.81747  21057296.315    21057298.501    21057296.741
        53.000          45.0004
 119141721.208 8  92837726.55446  22671914.008    22671916.903    22671914.251
        48.000          38.0004
 114461700.896 8  89025788.614 7  21450063.266    21450065.486    21450064.579
        51.000          47.000
 120852977.503 6  94171138.33243  22997548.634    22997552.687    22997547.899
        40.000          23.0004
 124989685.547 7  97394591.30544  23784757.470    23784762.453    23784757.976
        42.000          26.0004
 115114548.817 7  89533559.727 7  21526993.650    21526997.289    21526993.075
        42.000          45.000
 106179468.501 8  82584046.005 8  19849121.740    19849122.443    19849122.542
        53.000          51.000
 118883071.382 7  92464643.037 6  22239530.218    22239532.032    22239530.402
        47.000          39.000
 128143237.957 6  99851892.04543  24384839.821    24384843.271    24384839.764
        40.000          23.0004
 112980963.664 8  88037141.41146  21499556.192    21499557.819    21499556.124
        52.000          41.0004
 123197515.448 7  95998075.13145  23443704.211    23443708.836    23443705.153
        45.000          30.0004
 117870630.418 8  91677169.114 7  22073386.074    22073390.335    22073386.174
        48.000          44.000
 11 10  1  0 11  0.0000000  0 19R18R11R10G31G23G05G16G29R02G06G30R20
                                R19G07R01G21G13G10R09
 119537131.201 7  92973350.462 7  22393332.535    22393337.424    22393332.862
        46.000          43.000
 111916022.223 8  87045800.130 7  20943558.821    20943561.464    20943558.628
        48.000          42.000
 102952480.376 9  80074170.476 7  19313623.964    19313628.380    19313624.454
        54.000          47.000
 126091851.087 6  98253402.57844  23994487.084    23994489.958    23994486.889
        41.000          28.0004
 115877929.552 8  90294517.74046  22050831.574    22050831.915    22050832.303
        49.000          36.0004
 125623074.173 7  97888134.15545  23905269.144    23905272.613    23905269.056
        45.000          31.0004
 110604314.701 8  86185204.90547  21047299.937    21047302.110    21047300.408
        53.000          46.0004
 119219480.940 8  92898318.50446  22686711.405    22686713.794    22686711.592
        48.000          37.0004
 114436658.028 8  89006310.910 8  21445370.009    21445372.772    21445370.850
        51.000          48.000
 120755022.118 6  94094809.48344  22978907.517    22978912.252    22978907.868
        40.000          24.0004
 125106598.700 7  97485692.35544  23807005.716    23807010.256    23807005.585
        42.000          26.0004
 114997970.268 6  89442887.570 7  21505193.357    21505196.638    21505193.862
        41.000          45.000
 106186182.937 9  82589268.344 8  19850376.982    19850377.641    19850377.718
        54.000          52.000
 130257608.385 6 101499451.64944  24787197.763    24787200.963    24787197.697
        41.000          24.0004
 118980002.626 7  92540033.986 6  22257663.032    22257664.662    22257663.628
        47.000          38.000
 128058850.807 6  99786135.88043  24368781.239    24368785.279    24368781.378
        39.000          22.0004
 112985014.777 8  88040298.10546  21500327.199    21500328.678    21500327.252
        53.000          41.0004
 123246741.394 7  96036433.08445  23453071.136    23453076.131    23453072.597
        45.000          30.0004
 117993230.079 7  91772524.326 7  22096344.932    22096348.978    22096344.616
        47.000          43.000
 11 10  1  0 11 30.0000000  0 19R18R11R10G31G23G05G16G29R02G06G30R20
                                R19G07R01G21G13G10R09
 119655226.474 7  93065202.354 7  22415456.541    22415460.979    22415456.833
        47.000          44.000
 111816918.923 8  86968719.796 7  20925012.946    20925015.788    20925013.053
        49.000          43.000
 102977425.819 9  80093572.464 7  19318303.702    19318308.011    19318304.434
        54.000          47.000
 126201315.180 7  98338699.16844  24015317.438    24015319.982    24015318.594
        43.000          28.0004
 115938514.792 8  90341726.99946  22062360.590    22062360.876    22062361.171
        49.000          36.0004
 125570093.696 7  97846850.81445  23895186.716    23895190.523    23895186.562
        44.000          31.0004
 110552295.230 8  86144670.27247  21037400.852    21037403.031    21037401.224
        53.000          45.0004
 119297666.656 8  92959242.39546  22701589.448    22701592.068    22701589.563
        48.000          37.0004
 114412456.602 8  88987487.584 8  21440834.792    21440837.317    21440835.321
        51.000          48.000
 120657372.440 6  94018718.85744  22960325.760    22960330.078    22960324.603
        39.000          24.0004
 125223684.930 6  97576928.26344  23829285.968    23829291.461    23829286.949
        41.000          26.0004
 114881840.810 7  89352564.694 7  21483476.029    21483479.809    21483476.116
        42.000          45.000
 106193736.625 9  82595143.448 8  19851789.156    19851789.748    19851790.114
        54.000          51.000
 130143768.748 7 101410745.56244  24765535.146    24765538.345    24765535.019
        42.000          25.0004
 119077501.899 7  92615866.786 6  22275902.509    22275904.414    22275902.689
        47.000          38.000
 127974730.747 6  99720587.83243  24352773.248    24352776.819    24352774.252
        40.000          22.0004
 112989748.933 8  88043987.07346  21501228.031    21501229.700    21501228.152
        52.000          41.0004
 123296537.953 7  96075235.51045  23462547.875    23462551.987    23462548.812
        44.000          30.0004
 118116117.439 7  91868103.309 7  22119358.163    22119361.826    22119358.057
        47.000          43.000
 11 10  1  0 12  0.0000000  0 19R18R11R10G31G23G05G16G29R02G06G30R20
                                R19G07R01G21G13G10R09
 119773699.726 7  93157348.190 7  22437650.604    22437654.588    22437651.347
        47.000          43.000
 111718276.902 8  86891998.209 7  20906553.387    20906556.180    20906553.292
        49.000          43.000
 103003117.756 9  80113555.069 7  19323123.447    19323127.844    19323123.836
        54.000          47.000
 126310943.661 7  98424123.83844  24036178.641    24036182.135    24036178.319
        42.000          28.0004
 115999652.999 8  90389367.13746  22073994.750    22073995.165    22073995.299
        50.000          36.0004
 125517655.652 7  97805990.32445  23885207.919    23885211.315    23885207.559
        45.000          31.0004
 110500795.046 8  86104540.30347  21027600.632    21027602.832    21027601.042
        53.000          45.0004
 119376281.377 8  93020500.55046  22716549.536    22716551.777    22716549.222
        48.000          37.0004
 114389103.827 8  88969324.289 8  21436458.311    21436461.182    21436458.611
        51.000          48.000
 120560036.682 7  93942872.84544  22941803.040    22941807.448    22941803.749
        42.000          24.0004
 125340947.417 6  97668301.49144  23851600.457    23851605.628    23851600.414
        41.000          27.0004
 114766169.958 7  89262598.500 7  21461845.405    21461848.737    21461846.136
        42.000          45.000
 106202134.251 9  82601674.930 8  19853358.996    19853359.707    19853359.876
        54.000          52.000
 130030054.747 6 101322137.22743  24743894.958    24743897.626    24743895.408
        41.000          23.0004
 119175570.819 7  92692142.628 6  22294247.998    22294250.066    22294248.069
        46.000          38.000
 127890885.802 6  99655254.14243  24336816.688    24336822.202    24336818.223
        38.000          21.0004
 112995171.233 8  88048212.20346  21502259.992    21502261.522    21502260.033
        52.000          41.0004
 123346909.748 7  96114486.40345  23472133.179    23472137.540    23472134.302
        46.000          30.0004
 118239295.350 7  91963908.241 7  22142425.694    22142429.334    22142426.354
        47.000          43.000
 11 10  1  0 12 30.0000000  0 19R18R11R10G31G23G05G16G29R02G06G30R20
                                R19G07R01G21G13G10R09
 119892537.929 7  93249777.914 7  22459912.854    22459917.148    22459913.634
        46.000          43.000
 111620089.988 8  86815630.656 7  20888179.157    20888181.647    20888179.957
        49.000          43.000
 103029545.718 9  80134110.133 7  19328081.478    19328085.664    19328081.976
        54.000          47.000
 126420725.039 7  98509667.65844  24057069.993    24057072.936    24057069.807
        42.000          28.0004
 116061332.452 8  90437429.03546  22085731.870    22085732.314    22085732.337
        48.000          36.0004
 125465751.758 7  97765545.70545  23875330.888    23875335.002    23875330.301
        44.000          32.0004
 110449806.036 9  86064808.65047  21017897.703    21017899.882    21017898.214
        54.000          45.0004
 119455313.172 8  93082083.66346  22731588.729    22731591.471    22731588.771
        49.000          36.0004
 114366590.906 8  88951814.224 8  21432239.496    21432242.177    21432239.714
        51.000          48.000
 120463007.396 6  93867265.64644  22923338.927    22923343.329    22923339.216
        41.000          24.0004
 125458374.524 6  97759802.98144  23873946.294    23873951.712    23873947.194
        41.000          27.0004
 114650952.017 7  89172984.582 7  21440298.915    21440302.480    21440299.707
        42.000          45.000
 106211365.708 9  82608854.954 8  19855084.833    19855085.370    19855085.818
        55.000          51.000
 129916459.016 6 101233620.95844  24722279.574    24722282.695    24722279.330
        41.000          26.0004
 119274195.078 7  92768850.247 6  22312697.815    22312699.666    22312698.403
        46.000          37.000
 127807308.551 6  99590129.04843  24320914.273    24320917.351    24320913.741
        38.000          22.0004
 113001272.188 8  88052966.10246  21503420.733    21503422.625    21503420.668
        52.000          41.0004
 123397845.171 7  96154176.82744  23481825.261    23481829.575    23481826.096
        44.000          29.0004
 118362751.494 8  92059929.586 7  22165544.781    22165548.779    22165545.265
        48.000          43.000
 11 10  1  0 13  0.0000000  0 19R18R11R10G31G23G05G16G29R02G06G30R20
                                R19G07R01G21G13G10R09
 120011740.092 7  93342490.646 7  22482243.598    22482247.569    22482244.032
        47.000          43.000
 111522363.351 8  86739621.009 7  20869891.151    20869893.685    20869891.565
        49.000          42.000
 103056711.251 9  80155238.841 7  19333177.593    19333181.844    19333178.117
        54.000          47.000
 126530659.848 6  98595331.03744  24077989.665    24077992.800    24077988.323
        41.000          28.0004
 116123553.878 8  90485913.21946  22097572.623    22097572.916    22097572.853
        48.000          36.0004
 125414387.918 7  97725522.18045  23865556.120    23865560.045    23865556.434
        45.000          31.0004
 110399331.864 8  86025478.15347  21008292.755    21008294.791    21008293.045
        52.000          45.0004
 119534762.193 7  93143991.85746  22746707.497    22746709.637    22746707.411
        47.000          36.0004
 114344921.647 8  88934960.401 8  21428178.486    21428181.389    21428178.500
        50.000          48.000
 120366289.604 6  93791901.14944  22904934.291    22904938.918    22904934.603
        41.000          25.0004
 125575966.502 6  97851432.94244  23896323.236    23896329.217    23896323.935
        41.000          27.0004
 114536193.009 7  89083727.598 7  21418838.745    21418842.176    21418839.262
        42.000          45.000
 106221432.910 9  82616684.990 8  19856966.889    19856967.345    19856967.689
        55.000          52.000
 129802986.794 6 101145201.14144  24700686.192    24700688.696    24700685.990
        41.000          24.0004
 119373373.919 7  92845989.259 6  22331250.936    22331253.478    22331251.463
        45.000          38.000
 127724004.062 6  99525216.47643  24305061.342    24305065.737    24305061.838
        38.000          21.0004
 113008054.126 8  88058250.64746  21504711.315    21504713.199    21504711.256
        50.000          41.0004
 123449343.208 7  96194305.02344  23491624.971    23491629.256    23491626.166
        44.000          29.0004
 118486485.617 7  92156167.151 7  22188716.143    22188719.813    22188715.847
        47.000          43.000
 11 10  1  0 13 30.0000000  0 19R18R11R10G31G23G05G16G29R02G06G30R20
                                R19G07R01G21G13G10R09
 120131304.693 7  93435485.357 7  22504641.832    22504646.310    22504642.868
        46.000          43.000
 111425103.604 8  86663974.529 7  20851690.342    20851692.725    20851690.398
        49.000          43.000
 103084617.178 9  80176943.431 8  19338412.794    19338417.065    19338413.786
        54.000          48.000
 126640749.069 6  98681114.74844  24098939.417    24098942.051    24098940.111
        41.000          27.0004
 116186317.932 8  90534820.24446  22109516.000    22109516.427    22109516.452
        48.000          36.0004
 125363567.421 7  97685921.73045  23855885.645    23855889.528    23855885.992
        44.000          30.0004
 110349376.816 9  85986552.16347  20998786.676    20998788.674    20998787.122
        54.000          46.0004
 119614629.637 8  93206226.20546  22761905.670    22761908.147    22761905.484
        48.000          36.0004
 114324099.799 8  88918765.563 8  21424276.662    21424279.582    21424277.063
        51.000          48.000
 120269888.428 6  93716783.35844  22886590.048    22886594.068    22886589.329
        41.000          26.0004
 125693724.152 6  97943192.01944  23918731.951    23918737.137    23918733.095
        41.000          26.0004
 114421899.554 7  88994832.707 7  21397464.929    21397468.491    21397465.196
        43.000          45.000
 106232337.905 9  82625166.654 8  19859005.456    19859005.821    19859006.197
        55.000          52.000
 129689642.540 6 101056880.91444  24679117.042    24679121.890    24679117.461
        41.000          26.0004
 119473106.041 7  92923558.597 6  22349908.225    22349910.578    22349907.785
        45.000          38.000
 127640977.225 6  99460520.30943  24289262.228    24289265.824    24289261.650
        38.000          21.0004
 113015520.089 8  88064068.26846  21506131.986    21506133.985    21506131.939
        52.000          40.0004
 123501405.806 7  96234873.12444  23501532.041    23501536.295    23501533.500
        44.000          29.0004
 118610498.145 7  92252621.262 7  22211939.819    22211943.452    22211939.997
        47.000          42.000
 11 10  1  0 14  0.0000000  0 20R18R11R10G31G03G23G05G16G29R02G06G30
                                R20R19G07R01G21G13G10R09
 120251222.364 7  93528754.683 7  22527105.984    22527111.229    22527106.454
        46.000          44.000
 111328307.384 8  86588688.565 7  20833576.287    20833578.651    20833576.764
        50.000          42.000
 103113256.764 9  80199218.637 7  19343785.578    19343789.841    19343786.207
        54.000          47.000
 126750985.066 6  98767012.83144  24119916.322    24119919.424    24119916.834
        41.000          27.0004
 123022314.784 5                                                  23410370.500
        32.000
 116249616.813 8  90584144.02746  22121561.371    22121561.765    22121561.976
        48.000          36.0004
 125313286.932 7  97646742.06745  23846317.823    23846320.712    23846317.609
        46.000          31.0004
 110299935.913 9  85948026.81247  20989378.440    20989380.353    20989378.774
        54.000          46.0004
 119694906.595 8  93268779.67046  22777181.844    22777184.141    22777182.101
        49.000          36.0004
 114304120.768 8  88903226.170 8  21420532.718    21420535.508    21420534.147
        51.000          48.000
 120173800.524 7  93641909.67644  22868305.204    22868309.109    22868304.502
        43.000          26.0004
 125811639.308 6  98035073.86644  23941170.709    23941175.050    23941171.268
        40.000          25.0004
 114308069.798 7  88906298.470 7  21376178.287    21376182.046    21376177.477
        43.000          46.000
 106244073.990 9  82634294.722 8  19861199.468    19861199.685    19861199.913
        55.000          51.000
 129576423.363 6 100968658.31744  24657572.299    24657574.965    24657572.902
        41.000          24.0004
 119573381.705 7  93001550.804 6  22368666.662    22368668.849    22368667.373
        45.000          38.000
 127558224.915 6  99396038.03443  24273514.112    24273518.540    24273514.342
        37.000          21.0004
 113023664.266 8  88070414.52946  21507681.633    21507683.617    21507681.601
        51.000          41.0004
 123554025.595 7  96275875.56344  23511545.485    23511549.452    23511546.447
        45.000          28.0004
 118734779.924 8  92349284.778 7  22235214.091    22235217.796    22235214.277
        48.000          42.000
 11 10  1  0 14 30.0000000  0 20R18R11R10G31G03G23G05G16G29R02G06G30
                                R20R19G07R01G21G13G10R09
 120371501.910 7  93622305.313 7  22549638.212    22549643.753    22549638.501
        46.000          43.000
 111231991.232 8  86513775.956 7  20815551.897    20815554.475    20815552.106
        49.000          43.000
 103142642.087 9  80222073.851 7  19349298.248    19349302.409    19349298.786
        54.000          47.000
 126861378.347 6  98853033.46144  24140923.650    24140926.862    24140923.506
        40.000          27.0004
 122902486.886 5                                                  23387567.018
        33.000
 116313461.186 8  90633892.86546  22133710.812    22133710.944    22133711.107
        49.000          36.0004
 125263561.360 7  97607994.84545  23836855.526    23836858.553    23836855.241
        46.000          31.0004
 110251023.604 8  85909913.34247  20980070.648    20980072.694    20980071.272
        53.000          46.0004
 119775603.366 7  93331660.22045  22792537.824    22792540.562    22792538.074
        47.000          35.0004
 114284998.746 8  88888353.460 8  21416949.059    21416952.275    21416949.826
        51.000          48.000
 120078040.919 7  93567291.80244  22850082.767    22850087.122    22850083.627
        42.000          27.0004
 125929722.487 6  98127086.55844  23963641.468    23963646.666    23963642.310
        40.000          26.0004
 114194719.734 7  88818137.316 7  21354980.888    21354984.739    21354980.811
        43.000          46.000
 106256653.297 9  82644078.629 8  19863551.029    19863551.247    19863551.745
        56.000          51.000
 129463343.415 6 100880544.14744  24636053.959    24636057.565    24636054.803
        41.000          25.0004
 119674209.184 7  93079971.925 6  22387528.911    22387530.918    22387528.981
        45.000          37.000
 127475762.250 6  99331781.45843  24257821.757    24257826.083    24257821.411
        37.000          20.0004
 113032498.579 8  88077298.42446  21509362.895    21509364.690    21509362.998
        52.000          41.0004
 123607213.054 7  96317320.44544  23521666.115    23521670.897    23521667.556
        44.000          28.0004
 118859341.317 8  92446165.760 7  22258540.897    22258544.505    22258540.627
        48.000          43.000
 11 10  1  0 15  0.0000000  0 20R18R11R10G31G03G23G05G16G29R02G06G30
                                R20R19G07R01G21G13G10R09
 120492123.590 7  93716122.196 7  22572234.934    22572239.986    22572234.930
        45.000          43.000
 111136141.354 8  86439226.010 7  20797615.087    20797617.578    20797615.289
        50.000          43.000
 103172755.474 9  80245495.294 7  19354947.366    19354951.613    19354948.035
        54.000          47.000
 126971910.524 6  98939162.33644  24161957.254    24161960.411    24161957.579
        41.000          27.0004
 122782852.352 5                                                  23364801.494
        33.000
 116377832.060 8  90684051.95546  22145959.997    22145960.537    22145960.418
        48.000          36.0004
 125214376.183 7  97569668.85845  23827495.722    23827498.945    23827495.121
        45.000          31.0004
 110202624.449 9  85872199.73047  20970860.561    20970862.712    20970860.976
        54.000          46.0004
 119856701.560 7  93394853.57045  22807970.457    22807972.656    22807970.189
        47.000          35.0004
 114266717.458 8  88874134.665 8  21413523.040    21413526.403    21413523.533
        50.000          49.000
 119982595.422 7  93492918.72944  22831919.734    22831924.053    22831919.496
        43.000          27.0004
 126047954.872 6  98219215.54844  23986140.358    23986145.193    23986140.822
        39.000          25.0004
 114081836.613 7  88730339.342 7  21333871.583    21333874.834    21333871.503
        42.000          46.000
 106270058.109 9  82654504.592 8  19866056.959    19866057.126    19866057.274
        55.000          51.000
 129350388.119 7 100792526.79644  24614559.480    24614562.096    24614559.897
        42.000          24.0004
 119775568.171 7  93158806.600 6  22406490.098    22406492.470    22406489.926
        45.000          37.000
 127393574.754 6  99267739.28843  24242182.478    24242185.847    24242183.398
        37.000          21.0004
 113042006.161 8  88084706.83646  21511172.237    21511174.028    21511172.365
        52.000          40.0004
 123660949.170 7  96359192.75244  23531891.934    23531896.723    23531892.815
        43.000          28.0004
 118984162.873 8  92543249.120 7  22281916.017    22281919.156    22281916.132
        48.000          43.000
 11 10  1  0 15 30.0000000  0 20R18R11R10G31G03G23G05G16G29R02G06G30
                                R20R19G07R01G21G13G10R09
 120613088.806 7  93810206.270 7  22594895.678    22594900.581    22594896.510
        46.000          42.000
 111040767.151 8  86365046.102 7  20779767.085    20779769.471    20779767.627
        50.000          43.000
 103203602.565 9  80269487.444 7  19360734.093    19360738.526    19360734.732
        54.000          47.000
 127082585.577 6  99025402.51244  24183018.096    24183021.797    24183018.258
        40.000          27.0004
 122663420.115 5                                                  23342075.975
        33.000
 116442733.460 8  90734624.43046  22158310.277    22158310.954    22158310.936
        49.000          36.0004
 125165738.946 7  97531769.76845  23818240.236    23818243.500    23818239.804
        46.000          30.0004
 110154745.977 9  85834891.82847  20961749.597    20961751.790    20961749.949
        54.000          46.0004
 119938204.596 8  93458362.41145  22823479.987    22823482.390    22823479.653
        48.000          35.0004
 114249284.777 8  88860576.088 8  21410256.089    21410259.334    21410256.351
        50.000          49.000
 119887472.468 7  93418796.96844  22813818.760    22813822.670    22813817.909
        43.000          28.0004
 126166340.614 6  98311464.03044  24008668.351    24008674.842    24008669.591
        40.000          24.0004
 113969429.506 7  88642911.608 7  21312850.335    21312854.027    21312852.014
        44.000          45.000
 106284293.534 9  82665576.574 8  19868718.115    19868718.265    19868718.820
        56.000          51.000
 129237566.805 6 100704614.12444  24593090.197    24593093.558    24593089.561
        40.000          26.0004
 119877460.806 7  93238056.553 6  22425551.333    22425553.566    22425551.041
        45.000          38.000
 127311671.239 6  99203918.44143  24226596.314    24226601.760    24226597.229
        37.000          21.0004
 113052192.871 8  88092644.54246  21513110.641    21513112.368    21513110.654
        52.000          41.0004
 123715237.563 7  96401495.28244  23542222.595    23542227.700    23542223.003
        44.000          28.0004
 119109247.847 7  92640537.351 7  22305339.985    22305343.867    22305340.442
        47.000          42.000
 11 10  1  0 16  0.0000000  0 20R18R11R10G31G03G23G05G16G29R02G06G30
                                R20R19G07R01G21G13G10R09
 120734401.827 7  93904560.815 7  22617622.234    22617626.783    22617622.837
        46.000          42.000
 110945879.832 8  86291244.847 7  20762010.366    20762012.645    20762010.536
        50.000          43.000
 103235190.972 9  80294056.180 7  19366660.062    19366664.452    19366660.490
        54.000          47.000
 127193409.941 6  99111759.06144  24204106.783    24204110.534    24204106.376
        40.000          26.0004
 122544201.232 5                                                  23319387.720
        33.000
 116508171.337 8  90785614.91246  22170762.704    22170763.261    22170763.009
        49.000          36.0004
 125117660.638 7  97494306.45845  23809090.682    23809094.011    23809090.856
        46.000          30.0004
 110107397.393 9  85797996.84447  20952739.470    20952741.547    20952739.985
        54.000          46.0004
 120020118.005 7  93522190.98645  22839067.879    22839070.324    22839067.944
        47.000          35.0004
 114232708.732 8  88847683.531 8  21407149.872    21407153.389    21407151.390
        50.000          48.000
 119792682.613 7  93344934.77644  22795781.019    22795784.945    22795780.898
        42.000          28.0004
 126284885.404 6  98403836.44144  24031226.768    24031232.120    24031226.699
        38.000          24.0004
 113857510.708 7  88555863.662 7  21291921.494    21291924.648    21291922.302
        44.000          45.000
 106299366.899 9  82677300.268 8  19871535.939    19871536.169    19871536.653
        55.000          51.000
 129124889.541 7 100616813.78844  24571648.860    24571651.511    24571649.204
        42.000          25.0004
 119979890.692 7  93317724.200 6  22444713.509    22444715.109    22444713.263
        46.000          37.000
 127230062.163 6  99140326.98943  24211066.790    24211071.570    24211068.056
        39.000          21.0004
 113063066.730 8  88101117.56046  21515179.977    21515181.764    21515180.042
        52.000          40.0004
 123770084.787 7  96444233.29044  23552659.667    23552664.168    23552660.861
        44.000          27.0004
 119234601.683 7  92738034.704 7  22328814.703    22328818.765    22328814.521
        47.000          42.000
 11 10  1  0 16 30.0000000  0 20R18R11R10G31G03G23G05G16G29R02G06G30
                                R20R19G07R01G21G13G10R09
 120856052.074 7  93999177.628 7  22640411.169    22640415.647    22640411.872
        46.000          42.000
 110851475.022 8  86217818.946 7  20744343.501    20744346.035    20744344.172
        50.000          43.000
 103267512.003 9  80319194.712 7  19372723.441    19372727.892    19372723.774
        54.000          47.000
 127304373.903 6  99198224.36944  24225222.832    24225226.336    24225222.625
        40.000          26.0004
 122425190.693 5                                                  23296741.257
        33.000
 116574136.080 8  90837015.93746  22183315.511    22183316.061    22183315.882
        49.000          36.0004
 125070133.518 7  97457272.32445  23800046.822    23800050.053    23800046.848
        46.000          30.0004
 110060572.069 9  85761509.58747  20943828.823    20943830.959    20943829.252
        54.000          46.0004
 120102431.991 7  93586331.66645  22854731.613    22854734.103    22854731.622
        47.000          35.0004
 114216983.235 8  88835452.632 8  21404202.955    21404205.777    21404203.499
        50.000          48.000
 119698220.364 7  93271327.88344  22777805.290    22777809.257    22777805.447
        43.000          29.0004
 126403579.534 6  98496325.21744  24053814.407    24053819.027    24053815.106
        40.000          24.0004
 113746076.114 7  88469192.321 7  21271081.748    21271085.771    21271081.551
        42.000          46.000
 106315269.774 9  82689669.081 8  19874508.746    19874509.104    19874509.376
        55.000          51.000
 129012350.504 6 100529120.95544  24550232.903    24550236.523    24550233.580
        41.000          25.0004
 120082846.175 7  93397800.640 6  22463973.067    22463975.045    22463974.668
        46.000          37.000
 127148742.301 6  99076960.92343  24195592.420    24195596.999    24195593.918
        38.000          21.0004
 113074620.230 8  88110120.28246  21517378.626    21517380.349    21517378.436
        52.000          40.0004
 123825481.519 7  96487399.59244  23563201.457    23563206.186    23563202.892
        44.000          27.0004
 119360214.034 7  92835733.107 7  22352338.001    22352341.676    22352337.611
        47.000          42.000
 11 10  1  0 17  0.0000000  0 20R18R11R10G31G03G23G05G16G29R02G06G30
                                R20R19G07R01G21G13G10R09
 120978024.619 7  94094045.087 6  22663261.043    22663264.914    22663261.559
        47.000          41.000
 110757544.642 8  86144762.053 7  20726765.645    20726768.306    20726765.873
        50.000          43.000
 103300553.528 9  80344893.622 7  19378922.092    19378926.572    19378922.537
        54.000          47.000
 127415464.842 6  99284788.66644  24246363.463    24246366.799    24246362.547
        39.000          26.0004
 122306380.564 5                                                  23274132.104
        32.000
 116640614.563 8  90888817.30345  22195965.901    22195966.561    22195966.127
        48.000          35.0004
 125023150.445 7  97420662.48945  23791106.096    23791109.092    23791105.895
        46.000          31.0004
 110014260.943 9  85725422.98847  20935016.230    20935018.249    20935016.724
        54.000          46.0004
 120185133.383 8  93650774.26645  22870469.291    22870471.763    22870469.437
        48.000          35.0004
 114202098.224 8  88823875.676 8  21401413.184    21401416.310    21401413.651
        50.000          49.000
 119604077.326 7  93197969.71344  22759890.397    22759894.389    22759890.581
        45.000          29.0004
 126522409.938 6  98588920.15844  24076426.211    24076432.158    24076426.848
        39.000          24.0004
 113635118.605 7  88382892.040 7  21250333.011    21250336.558    21250333.217
        43.000          46.000
 106331990.017 9  82702673.709 8  19877634.336    19877634.657    19877634.945
        55.000          51.000
 128899941.930 7 100441530.16044  24528841.530    24528844.680    24528841.573
        43.000          25.0004
 120186312.216 7  93478274.175 6  22483329.031    22483331.046    22483330.029
        47.000          37.000
 127067703.148 6  99013813.57343  24180172.159    24180175.382    24180172.966
        40.000          22.0004
 113086842.020 8  88119643.74146  21519704.452    21519706.090    21519704.677
        52.000          40.0004
 123881414.748 7  96530984.08144  23573845.062    23573849.942    23573845.875
        43.000          27.0004
 119486071.065 7  92933621.799 7  22375907.250    22375910.655    22375907.064
        47.000          42.000
 11 10  1  0 17 30.0000000  0 20R18R11R10G31G03G23G05G16G29R02G06G30
                                R20R19G07R01G21G13G10R09
 121100343.396 7  94189181.826 6  22686176.299    22686179.523    22686176.985
        46.000          40.000
 110664119.646 8  86072098.081 7  20709282.514    20709285.056    20709282.356
        49.000          43.000
 103334343.222 9  80371174.508 8  19385260.962    19385265.344    19385261.690
        54.000          48.000
 127526708.521 6  99371471.94044  24267533.325    24267535.608    24267533.482
        41.000          27.0004
 122187801.194 5                                                  23251564.882
        32.000
 116707632.283 8  90941038.85345  22208719.067    22208719.651    22208719.358
        48.000          35.0004
 124976739.581 7  97384498.22845  23782274.441    23782277.265    23782274.092
        46.000          31.0004
 109968492.336 9  85689759.15047  20926306.759    20926308.721    20926307.293
        54.000          46.0004
 120268247.520 8  93715538.40546  22886285.689    22886288.352    22886285.933
        48.000          36.0004
 114188081.743 8  88812973.932 8  21398786.459    21398790.099    21398787.125
        50.000          49.000
 119510283.503 7  93124883.67545  22742042.029    22742045.766    22742041.648
        43.000          30.0004
 126641402.271 6  98681641.28343  24099070.686    24099075.377    24099071.378
        41.000          23.0004
 113524669.994 7  88296987.592 7  21229678.168    21229681.879    21229678.352
        43.000          46.000
 106349554.805 9  82716335.243 8  19880917.836    19880918.044    19880918.319
        54.000          51.000
 128787692.804 7 100354063.26544  24507482.058    24507484.638    24507482.174
        43.000          25.0004
 120290313.115 7  93559163.734 6  22502784.220    22502786.048    22502784.242
        46.000          37.000
 126986974.692 6  98950908.32643  24164809.286    24164814.008    24164809.954
        39.000          23.0004
 113099759.238 8  88129709.08746  21522162.403    21522164.221    21522162.357
        52.000          40.0004
 123937909.669 7  96575006.21044  23584595.720    23584600.785    23584597.157
        43.000          28.0004
 119612198.187 7  93031720.520 7  22399526.701    22399530.748    22399527.225
        47.000          42.000
 11 10  1  0 18  0.0000000  0 20R18R11R10G31G03G23G05G16G29R02G06G30
                                R20R19G07R01G21G13G10R09
 121222976.482 7  94284563.119 6  22709149.625    22709153.036    22709150.084
        46.000          40.000
 110571175.482 8  85999808.147 7  20691889.145    20691892.075    20691889.702
        50.000          43.000
 103368851.896 9  80398014.583 8  19391734.451    19391739.186    19391735.254
        54.000          48.000
 127638074.888 6  99458250.81544  24288724.529    24288728.107    24288723.950
        39.000          26.0004
 122069427.301 5                                                  23229040.645
        34.000
 116775159.301 8  90993657.27945  22221569.065    22221569.568    22221569.781
        48.000          35.0004
 124930875.391 7  97348760.08045  23773546.439    23773549.463    23773546.430
        46.000          31.0004
 109923239.674 9  85654497.33947  20917695.515    20917697.439    20917696.014
        54.000          46.0004
 120351744.129 7  93780600.61446  22902174.492    22902177.368    22902174.282
        47.000          36.0004
 114174906.385 8  88802726.277 8  21396317.357    21396321.230    21396317.861
        49.000          49.000
 119416813.453 7  93052049.93345  22724255.387    22724259.143    22724255.994
        45.000          30.0004
 126760526.452 6  98774465.13243  24121738.456    24121744.968    24121739.476
        40.000          23.0004
 113414705.709 7  88211459.823 7  21209114.368    21209118.056    21209114.992
        43.000          46.000
 106367934.636 9  82730630.672 8  19884353.713    19884354.023    19884354.317
        54.000          51.000
 128675578.107 7 100266701.16844  24486147.676    24486150.547    24486148.158
        43.000          25.0004
 120394816.081 7  93640443.791 6  22522333.894    22522335.351    22522334.962
        45.000          37.000
 126906531.428 6  98888225.29144  24149501.601    24149505.380    24149502.189
        39.000          24.0004
 113113343.125 8  88140293.82146  21524747.349    21524749.225    21524747.224
        52.000          40.0004
 123994936.156 7  96619442.51244  23595447.738    23595452.209    23595448.164
        44.000          28.0004
 119738564.359 7  93130005.180 7  22423190.934    22423195.037    22423191.383
        47.000          42.000
 11 10  1  0 18 30.0000000  0 20R18R11R10G31G03G23G05G16G29R02G06G30
                                R20R19G07R01G21G13G10R09
 121345932.412 7  94380195.543 6  22732183.228    22732186.926    22732183.650
        46.000          41.000
 110478726.555 8  85927903.297 7  20674588.675    20674591.482    20674589.455
        49.000          43.000
 103404090.027 9  80425421.999 7  19398345.126    19398349.665    19398345.871
        54.000          47.000
 127749573.512 6  99545132.75644  24309942.344    24309945.973    24309941.849
        39.000          26.0004
 121951273.173 5                                                  23206557.436
        34.000
 116843204.741 8  91046679.66946  22234517.653    22234518.106    22234517.664
        48.000          36.0004
 124885570.735 7  97313457.80545  23764925.504    23764928.622    23764925.180
        47.000          32.0004
 109878515.858 9  85619647.62847  20909184.899    20909186.796    20909185.301
        54.000          46.0004
 120435632.226 7  93845967.91846  22918137.636    22918140.713    22918137.373
        47.000          36.0004
 114162585.219 8  88793143.236 8  21394008.246    21394011.826    21394008.141
        49.000          49.000
 119323681.152 7  92979479.37345  22706532.638    22706536.785    22706533.686
        45.000          30.0004
 126879791.930 6  98867399.06644  24144434.663    24144440.170    24144435.271
        40.000          24.0004
 113305240.524 7  88126320.254 7  21188643.870    21188647.779    21188644.431
        43.000          46.000
 106387140.166 9  82745568.328 8  19887943.933    19887944.238    19887944.713
        54.000          51.000
 128563611.285 7 100179454.11543  24464840.863    24464842.417    24464840.749
        43.000          23.0004
 120499828.730 7  93722120.276 6  22541978.905    22541980.565    22541978.606
        45.000          37.000
 126826387.420 6  98825775.43544  24134250.614    24134254.640    24134250.919
        40.000          25.0004
 113127605.920 8  88151407.73046  21527461.333    21527463.159    21527461.512
        52.000          40.0004
 124052502.808 7  96664299.12244  23606402.186    23606407.193    23606402.970
        44.000          27.0004
 119865178.813 7  93228482.998 7  22446901.957    22446905.627    22446902.319
        47.000          42.000
 11 10  1  0 19  0.0000000  0 20R18R11R10G31G03G23G05G16G29R02G06G30
                                R20R19G07R01G21G13G10R09
 121469212.446 7  94476079.939 6  22755277.521    22755281.332    22755277.729
        45.000          41.000
 110386782.011 8  85856390.744 7  20657382.724    20657385.549    20657383.118
        50.000          43.000
 103440063.077 9  80453401.015 7  19405093.614    19405098.121    19405094.174
        54.000          47.000
 127861208.707 6  99632121.11144  24331186.127    24331189.637    24331185.509
        40.000          25.0004
 121833347.471 6                                                  23184116.987
        36.000
 116911772.361 8  91100108.99046  22247565.946    22247566.156    22247566.164
        48.000          36.0004
 124840834.001 7  97278598.09745  23756412.238    23756414.887    23756411.392
        46.000          31.0004
 109834327.886 9  85585215.45247  20900776.091    20900778.102    20900776.655
        54.000          46.0004
 120519915.595 7  93911643.29146  22934176.445    22934179.329    22934176.375
        47.000          36.0004
 114151124.173 8  88784228.993 8  21391860.627    21391864.324    21391861.092
        49.000          49.000
 119230894.543 7  92907178.18045  22688876.058    22688879.760    22688876.245
        44.000          31.0004
 126999202.426 6  98960446.08243  24167157.059    24167163.287    24167157.411
        39.000          23.0004
 113196284.551 7  88041576.748 7  21168268.563    21168272.343    21168268.693
        43.000          46.000
 106407176.131 9  82761151.850 8  19891689.480    19891689.708    19891690.076
        54.000          50.000
 128451800.275 7 100092328.39444  24443563.425    24443566.957    24443563.453
        42.000          26.0004
 120605352.845 7  93804194.518 6  22561718.944    22561720.960    22561719.980
        46.000          36.000
 126746550.959 6  98763565.27244  24119058.997    24119062.706    24119058.875
        41.000          25.0004
 113142552.307 8  88163054.18146  21530305.706    21530307.339    21530305.487
        51.000          40.0004
 124110615.210 7  96709581.56944  23617460.880    23617465.374    23617462.090
        43.000          27.0004
 119992044.414 7  93327156.173 7  22470659.546    22470663.680    22470659.592
        46.000          42.000
 11 10  1  0 19 30.0000000  0 20R18R11R10G31G03G23G05G16G29R02G06G30
                                R20R19G07R01G21G13G10R09
 121592807.383 7  94572209.169 6  22778431.185    22778434.587    22778431.424
        45.000          41.000
 110295340.194 8  85785269.425 7  20640270.657    20640273.039    20640270.989
        49.000          43.000
 103476764.186 9  80481946.305 8  19411978.661    19411983.153    19411979.351
        54.000          48.000
 127972973.074 6  99719210.15444  24352453.175    24352457.639    24352453.039
        39.000          25.0004
 121715647.857 6                                                  23161718.791
        37.000
 116980854.476 8  91153939.20845  22260711.528    22260712.146    22260711.706
        48.000          35.0004
 124796660.648 7  97244177.32245  23748006.055    23748008.846    23748006.163
        45.000          30.0004
 109790671.621 8  85551197.58847  20892468.457    20892470.579    20892468.858
        53.000          46.0004
 120604586.080 7  93977620.33345  22950288.958    22950291.134    22950289.142
        47.000          35.0004
 114140519.185 8  88775980.788 8  21389873.128    21389876.708    21389873.703
        50.000          49.000
 119138450.619 7  92835144.03445  22671284.148    22671288.404    22671284.942
        46.000          31.0004
 127118750.355 6  99053600.16643  24189906.752    24189912.795    24189907.306
        39.000          23.0004
 113087835.091 7  87957227.203 7  21147987.556    21147991.583    21147988.424
        44.000          46.000
 106428035.817 9  82777376.073 8  19895588.790    19895589.282    19895589.696
        54.000          50.000
 128340143.481 7 100005323.18244  24422316.325    24422319.187    24422316.296
        42.000          24.0004
 120711378.872 7  93886659.163 6  22581553.910    22581555.523    22581555.522
        47.000          36.000
 126667018.846 6  98701592.27044  24103923.837    24103927.870    24103924.253
        41.000          25.0004
 113158176.696 8  88175229.09446  21533279.083    21533280.568    21533279.267
        51.000          40.0004
 124169264.563 7  96755282.34844  23628621.718    23628626.321    23628622.371
        45.000          28.0004
 120119153.119 7  93426018.435 7  22494463.328    22494467.563    22494463.321
        46.000          42.000
 11 10  1  0 20  0.0000000  0 20R18R11R10G31G03G23G05G16G29R02G06G30
                                R20R19G07R01G21G13G10R09
 121716708.578 7  94668576.483 6  22801642.428    22801645.421    22801642.563
        46.000          40.000
 110204397.768 8  85714536.493 7  20623251.924    20623254.337    20623252.328
        50.000          44.000
 103514186.771 9  80511052.747 7  19418999.094    19419003.521    19418999.469
        54.000          47.000
 128084859.001 6  99806393.91044  24373744.120    24373748.382    24373743.574
        37.000          24.0004
 121598170.962 6                                                  23139363.892
        37.000
 117050443.013 8  91208164.05846  22273953.560    22273954.339    22273953.888
        48.000          36.0004
 124753046.604 7  97210192.07245  23739706.534    23739710.336    23739707.053
        45.000          31.0004
 109747542.031 9  85517590.10947  20884261.097    20884263.301    20884261.507
        54.000          46.0004
 120689635.857 8  94043892.90345  22966473.325    22966475.847    22966473.445
        48.000          35.0004
 114130764.320 8  88768393.624 8  21388045.091    21388048.459    21388045.566
        50.000          48.000
 119046345.976 7  92763374.25945  22653757.220    22653761.103    22653757.376
        45.000          31.0004
 127238427.991 6  99146855.35543  24212680.938    24212686.739    24212681.759
        39.000          23.0004
 112979890.565 7  87873270.403 7  21127801.292    21127805.475    21127801.274
        44.000          46.000
 106449712.583 9  82794235.808 8  19899641.124    19899641.514    19899641.795
        54.000          51.000
 128228636.890 7  99918435.31044  24401097.394    24401099.359    24401097.894
        43.000          25.0004
 120817897.250 7  93969506.816 6  22601479.806    22601481.753    22601480.710
        46.000          36.000
 126587787.548 7  98639853.65444  24088846.539    24088850.284    24088847.255
        42.000          26.0004
 113174472.501 8  88187927.10646  21536380.155    21536381.555    21536380.091
        52.000          40.0004
 124228443.291 7  96801395.71244  23639882.962    23639888.079    23639883.773
        44.000          28.0004
 120246496.495 7  93525063.199 7  22518310.613    22518315.101    22518310.597
        46.000          42.000
