     2.11           OBSERVATION DATA    M (MIXED)           RINEX VERSION / TYPE
teqc  2016Apr1                          20160930 07:51:15UTCPGM / RUN BY / DATE
Linux 2.4.20-8|Pentium IV|gcc|Linux|486/DX+                 COMMENT
teqc  2016Apr1                          20160816 03:24:19UTCCOMMENT
teqc  2008Oct2                          20111001 23:05:07UTCCOMMENT
MSXP|IAx86-PII|bcc32 5.0|MSWin95->XP|486/DX+                COMMENT
JPS2RIN V1.2.25     JAVAD GNSS          01-Oct-2011 01:01   COMMENT
                                                            COMMENT
BADG                                                        MARKER NAME
12338M002                                                   MARKER NUMBER
AUTOMATIC           IAA                                     OBSERVER / AGENCY
00181               JAVAD TRE_G3TH DELTA3.2.7 May,16,2011   REC # / TYPE / VERS
00328               JAVRINGANT_DM   JVDM                    ANT # / TYPE
  -838280.7610  3865776.7783  4987622.6983                  APPROX POSITION XYZ
        0.0280        0.0000        0.0000                  ANTENNA: DELTA H/E/N
     1     1                                                WAVELENGTH FACT L1/2
     7    C1    P1    P2    L1    L2    S1    S2            # / TYPES OF OBSERV
    30.0000                                                 INTERVAL
teqc windowed: start @ 2011 Oct  1 00:10:00.000             COMMENT
teqc windowed:  end  @ 2011 Oct  1 00:20:00.000             COMMENT
  2011    10     1     0    10    0.0000000     GPS         TIME OF FIRST OBS
    15                                                      LEAP SECONDS
                                                            END OF HEADER
 11 10  1  0 10  0.0000000  0 21R21R09R11G23G07R19G03R01R04G29G10G06
                                G21G19G13R10G16R20G31R08R02
  23784709.761 6  23784708.550 6  23784716.183 5 127276765.775 6  98993050.661 5
        43.250          39.500
  22703305.45517  22703306.35117  22703313.08416 121234112.66117  94293403.93616
        49.500          44.000
  20745184.046 7  20745183.584 7  20745189.325 6 110855976.848 7  86221331.793 6
        51.750          43.500
  20589957.17748  20589956.99746  20589953.23246 108200952.81448  84312429.11346
        55.250          46.750
  24475379.06745  24475380.86243  24475378.31443 128618986.49845 100222583.81543
        41.750          28.750
  21365320.556 8  21365320.664 7  21365325.275 7 114290007.484 8  88892287.626 7
        52.750          48.000
  21737774.73547  21737774.06045  21737774.29145 114232789.58147  89012562.84545
        50.000          39.750
  21484043.952 7  21484045.220 7  21484049.729 5 114844525.774 7  89323520.227 5
        50.750          41.250
  23030466.758 6  23030465.897 6  23030471.944 5 122851775.933 6  95551385.985 5
        46.500          42.250
  25107233.68246  25107234.00342  25107233.68842 131939385.04846 102809906.76842
        43.750          26.000
  24003464.33646  24003463.44943  24003462.66143 126139044.32646  98290161.26943
        43.500          29.250
  21724988.43047  21724987.89745  21724987.75645 114165610.62547  88960206.41745
        50.500          41.000
  25825363.47944  25825362.64241  25825367.25341 135713219.36844 105750568.02341
        36.000          14.750
  24739452.41945  24739450.53442  24739452.01242 130006673.49045 101303897.17442
        41.750          26.250
  20988567.20748  20988566.88646  20988564.75546 110295663.09848  85944666.00746
        53.000          44.000
  19621185.170 8  19621185.290 8  19621191.784 6 104591987.551 8  81349322.730 6
        56.750          47.000
  20276149.97648  20276149.05647  20276146.94047 106551916.65548  83027489.77047
        52.500          48.250
  20824498.769 7  20824499.192 6  20824505.863 7 111357974.976 7  86611778.382 7
        47.750          49.750
  24014849.17456  24014848.70053  24014850.80553 126198879.84756  98336781.03053
        43.000          29.000
  23129218.759 6  23129220.261 6  23129225.711 6 123856035.705 6  96332349.515 6
        44.250          43.500
  23038192.358 6  23038191.927 6  23038197.050 5 122936208.774 6  95617046.662 5
        47.500          42.250
 11 10  1  0 10 30.0000000  0 22G27R21R09R11G23G07R19G03R01R04G29G10
                                G06G21G19G13R10G16R20G31R08R02
  20927297.22943  20927324.57941  20927324.94741 109973778.59843  85693828.24041
        27.750          18.000
  23758909.775 6  23758910.123 6  23758917.165 5 127138711.172 6  98885675.134 5
        43.750          39.500
  22722027.44017  22722027.67417  22722035.02716 121334082.67817  94371158.24016
        49.000          44.250
  20731286.594 7  20731286.339 7  20731291.714 6 110781713.361 7  86163571.295 6
        51.500          43.500
  20593410.31348  20593410.01646  20593406.27746 108219099.55348  84326569.42346
        54.750          46.500
  24456298.37145  24456299.74742  24456296.16142 128518715.10745 100144450.18942
        41.250          27.500
  21374772.671 8  21374771.580 7  21374775.846 7 114340564.182 8  88931609.488 7
        52.500          48.250
  21719692.61847  21719691.99745  21719692.16845 114137766.80747  88938519.18145
        50.250          40.250
  21492102.001 7  21492101.552 7  21492106.354 5 114887592.787 7  89357016.788 5
        51.000          41.500
  23005250.617 6  23005251.028 6  23005257.372 5 122717273.960 6  95446773.355 5
        47.250          42.250
  25125149.35146  25125150.59242  25125151.16242 132033541.33446 102883275.22442
        43.000          23.500
  24004052.26546  24004051.17743  24004051.29743 126142135.70346  98292570.11143
        44.500          29.250
  21713085.48647  21713085.69045  21713084.65245 114103063.43247  88911468.37645
        50.500          41.750
  25813821.01744  25813819.64441  25813823.71241 135652558.48144 105703299.76641
        35.250          14.750
  24716867.17445  24716867.27642  24716867.28242 129887994.44545 101211420.16942
        42.250          27.000
  20980781.81347  20980781.38446  20980779.47846 110254750.11047  85912785.74746
        52.250          44.250
  19626048.301 8  19626047.738 8  19626054.570 6 104617906.742 8  81369482.075 6
        56.750          47.000
  20275588.15048  20275587.25147  20275585.00647 106548963.76048  83025188.81747
        52.500          48.000
  20809859.316 6  20809860.114 6  20809866.877 7 111279694.160 6  86550893.352 7
        47.500          49.750
  24032408.29756  24032408.93253  24032409.48153 126291156.76656  98408684.98953
        42.750          29.500
  23152570.496 6  23152570.526 6  23152575.754 6 123981072.438 6  96429600.162 6
        45.000          44.500
  23024611.772 6  23024612.713 6  23024617.858 5 122863747.947 6  95560688.230 5
        47.500          42.000
 11 10  1  0 11  0.0000000  0 21R21R09R11G23G07R19G03R01R04G29G10G06
                                G21G19G13R10G16R20G31R08R02
  23733119.928 6  23733120.836 6  23733127.669 5 127000708.173 6  98778339.708 5
        45.000          39.000
  22740776.10017  22740776.78117  22740783.39416 121434200.15817  94449027.25916
        49.250          44.250
  20717441.977 7  20717441.264 7  20717447.050 6 110707730.305 7  86106028.918 6
        51.500          43.000
  20596981.60548  20596981.18046  20596977.59146 108237866.04648  84341192.64946
        55.000          46.500
  24437224.87345  24437223.55142  24437221.17742 128418483.70945 100066347.79242
        40.250          27.250
  21384367.609 8  21384367.073 7  21384371.327 7 114391893.497 8  88971532.287 7
        52.500          47.750
  21701685.08047  21701684.40345  21701684.31945 114043137.06147  88864781.74945
        50.250          40.250
  21500302.710 7  21500302.117 7  21500307.132 5 114931428.538 7  89391111.234 5
        50.500          41.250
  22980067.556 6  22980067.107 6  22980075.057 6 122582934.561 6  95342287.164 6
        47.250          42.750
  25143121.49845  25143121.20741  25143118.94741 132127972.69245 102956858.07841
        41.500          19.500
  24004752.91646  24004751.46843  24004751.17243 126145815.92446  98295437.79443
        44.250          28.750
  21701276.91047  21701276.53845  21701276.15745 114041006.18747  88863112.10745
        50.000          41.750
  25802327.21444  25802324.88741  25802328.85341 135592153.36844 105656230.81541
        33.500          15.500
  24694288.50346  24694287.29842  24694287.93942 129769340.75646 101118962.86842
        42.500          27.000
  20973106.11948  20973105.60346  20973103.55646 110214412.75848  85881354.03446
        52.750          44.250
  19630990.968 8  19630990.722 8  19630997.740 6 104644255.568 8  81389975.590 6
        56.750          47.000
  20275121.97347  20275121.35947  20275119.28447 106546516.49547  83023281.86147
        52.000          48.500
  20795348.915 7  20795348.989 6  20795355.588 7 111202096.792 7  86490539.892 7
        47.750          49.750
  24049990.05156  24049991.39153  24049992.76153 126383554.37456  98480683.02653
        43.250          29.500
  23175956.961 6  23175956.655 6  23175962.429 6 124106309.294 6  96527006.493 6
        43.500          43.000
  23011155.995 6  23011155.872 6  23011161.823 5 122791939.466 6  95504837.135 5
        47.250          41.000
 11 10  1  0 11 30.0000000  0 22G27R21R09R11G23G07R19G03R01R04G29G10
                                G06G21G19G13R10G16R20G31R08R02
  20912000.82243  20912085.98441  20912083.50241 109893599.87543  85631351.28541
        27.750          14.500
  23707341.035 6  23707340.616 6  23707348.407 5 126862760.084 6  98671047.009 5
        43.500          37.750
  22759551.62217  22759552.76717  22759559.50116 121534463.83417  94527009.96716
        49.000          44.000
  20703648.919 7  20703649.201 7  20703654.441 6 110634028.862 7  86048705.572 6
        51.250          43.000
  20600670.95048  20600670.18346  20600666.51046 108257252.22748  84356298.74846
        54.250          46.500
  24418159.07445  24418158.25643  24418158.32243 128318293.05345  99988277.13743
        40.750          28.250
  21394107.018 7  21394106.433 7  21394110.442 7 114443992.915 7  89012054.037 7
        52.000          47.750
  21683753.07247  21683752.34445  21683752.60745 113948903.15647  88791352.77545
        50.500          40.750
  21508646.144 7  21508645.661 7  21508650.200 5 114976030.685 7  89425801.767 5
        50.500          41.000
  22954915.326 7  22954914.561 7  22954921.591 6 122448761.616 7  95237930.488 6
        48.000          42.500
  25161142.75445  25161142.38042  25161143.99842 132222676.35645 103030653.09942
        39.500          24.250
  24005564.74246  24005564.94043  24005563.72043 126150084.02446  98298763.56343
        44.250          28.750
  21689561.77047  21689560.84345  21689560.62545 113979440.65547  88815138.99845
        50.000          41.750
  25790883.72544  25790879.95041  25790883.67441 135532006.78244 105609363.48741
        34.500          15.250
  24671714.70345  24671713.38743  24671715.62143 129650715.16545 101026527.50143
        42.250          28.000
  20965539.74448  20965539.18946  20965537.49246 110174652.90748  85850372.32146
        52.750          45.000
  19636014.344 8  19636014.359 8  19636021.059 6 104671034.015 8  81410803.246 6
        56.500          46.750
  20274752.73447  20274751.79547  20274749.63147 106544574.29047  83021768.45647
        51.750          48.250
  20780965.430 7  20780966.182 6  20780972.865 7 111125185.608 7  86430720.125 7
        48.000          49.750
  24067598.05355  24067597.20153  24067597.88253 126476072.01955  98552774.55353
        41.750          29.750
  23199380.240 6  23199379.842 6  23199386.857 6 124231742.137 6  96624565.257 6
        44.500          43.500
  22997821.413 7  22997821.191 6  22997827.309 6 122720786.416 7  95449495.872 6
        47.750          42.500
 11 10  1  0 12  0.0000000  0 22G27R21R09R11G23G07R19G03R01R04G29G10
                                G06G21G19G13R10G16R20G31R08R02
  20904585.49543  20904630.11341  20904628.77341 109854380.56443  85600789.30841
        28.750          19.000
  23681575.705 6  23681573.094 6  23681580.847 5 126724871.131 6  98563800.254 5
        43.250          40.250
  22778355.76217  22778356.45517  22778363.26316 121634872.86417  94605105.73916
        49.500          43.750
  20689910.561 7  20689909.758 7  20689915.070 6 110560610.318 7  85991602.253 6
        51.750          43.500
  20604477.75448  20604476.90846  20604473.46446 108277257.73148  84371887.43446
        54.500          46.250
  24399102.56945  24399101.52243  24399100.80643 128218144.55045  99910239.30143
        40.500          28.500
  21403989.550 8  21403989.658 7  21403993.520 7 114496859.607 8  89053172.566 7
        52.500          47.750
  21665896.91247  21665896.00945  21665896.09945 113855068.36247  88718234.79445
        50.500          40.750
  21517132.963 7  21517132.525 7  21517137.466 5 115021397.003 7  89461086.662 5
        50.250          41.750
  22929793.584 7  22929793.752 6  22929800.363 5 122314759.551 7  95133706.730 5
        48.000          42.000
  25179212.28345  25179214.66941  25179215.16741 132317649.57645 103104658.09241
        38.500          19.250
  24006489.11046  24006487.48943  24006487.95943 126154939.69846  98302547.19043
        43.750          28.000
  21677939.39847  21677939.02345  21677939.18845 113918369.11147  88767550.81645
        50.000          41.500
  25779485.42144  25779485.09141  25779488.08641 135472121.02644 105562699.19241
        34.500          16.750
  24649145.29345  24649145.00242  24649145.47942 129532120.30945 100934116.03342
        42.000          26.500
  20958084.12148  20958083.65146  20958081.55246 110135472.12548  85819841.82646
        52.500          44.750
  19641118.389 8  19641118.470 8  19641125.455 6 104698242.256 8  81431965.185 6
        56.500          47.250
  20274478.90647  20274478.11247  20274476.24147 106543136.45947  83020648.07147
        51.750          48.500
  20766711.917 7  20766712.274 6  20766718.978 7 111048964.251 7  86371436.890 7
        48.250          50.250
  24085226.85956  24085226.00553  24085226.29053 126568708.93356  98624959.03353
        43.250          29.000
  23222840.430 6  23222840.874 6  23222845.901 6 124357366.883 6  96722273.268 6
        45.500          43.500
  22984611.316 7  22984611.409 6  22984615.537 5 122650292.146 7  95394666.981 5
        48.000          41.000
 11 10  1  0 12 30.0000000  0 22G27R21R09R11G23G07R19G03R01R04G29G10
                                G06G21G19G13R10G16R20G31R08R02
  20897235.57643  20897284.36741  20897282.67041 109815754.31943  85570691.04941
        29.000          17.250
  23655816.002 6  23655816.824 6  23655823.794 5 126587044.872 6  98456602.255 5
        44.000          40.000
  22797186.26317  22797186.62917  22797193.27816 121735426.38917  94683313.90216
        48.000          43.250
  20676224.813 7  20676223.968 7  20676229.334 6 110487476.216 7  85934720.171 6
        52.000          42.750
  20608402.57448  20608401.66246  20608398.32946 108297882.04348  84387958.31046
        54.000          46.250
  24380053.08145  24380052.95943  24380050.10843 128118039.31045  99832235.17843
        40.250          28.500
  21414016.028 7  21414015.507 7  21414019.488 6 114550491.342 7  89094886.135 6
        52.250          47.250
  21648116.67747  21648116.77945  21648116.50945 113761635.35847  88645429.90845
        50.500          41.000
  21525762.414 7  21525761.628 7  21525766.515 5 115067524.611 7  89496963.659 5
        50.250          41.000
  22904704.760 7  22904705.296 6  22904712.237 6 122180932.557 7  95029619.136 6
        48.250          42.500
  25197338.45545  25197338.35941  25197339.11441 132412889.74445 103178871.20341
        38.750          18.750
  24007524.51946  24007523.00543  24007522.70243 126160382.12746  98306788.01943
        44.500          27.750
  21666412.21947  21666411.87145  21666412.11445 113857793.28447  88720348.91845
        50.500          41.750
  25768139.76344  25768137.50641  25768141.16941 135412498.15044 105516239.77141
        35.500          17.500
  24626583.48545  24626584.78043  24626584.75643 129413559.04345 100841730.73143
        40.500          29.250
  20950738.34348  20950738.36446  20950736.16346 110096872.33348  85789764.05946
        52.500          44.500
  19646304.013 8  19646303.419 8  19646309.928 6 104725879.998 8  81453461.178 6
        57.000          47.000
  20274301.10547  20274300.42547  20274298.29647 106542202.44347  83019920.26747
        51.750          48.250
  20752586.776 7  20752588.284 6  20752594.847 7 110973436.479 7  86312693.125 7
        48.000          50.000
  24102875.80956  24102876.61053  24102876.49053 126661464.38156  98697235.87453
        43.000          29.750
  23246334.715 6  23246335.777 6  23246340.789 6 124483178.614 6  96820126.723 6
        46.250          43.250
  22971525.429 6  22971524.158 6  22971530.672 6 122580459.360 6  95340352.520 6
        46.750          42.750
 11 10  1  0 13  0.0000000  0 22G27R21R09R11G23G07R19G03R01R04G29G10
                                G06G21G19G13R10G16R20G31R08R02
  20890018.42043  20890050.29141  20890049.88341 109777736.49343  85541066.67141
        28.750          19.500
  23630072.920 6  23630073.942 6  23630081.320 5 126449285.647 6  98349456.327 5
        44.250          41.750
  22816044.16217  22816043.95817  22816050.49416 121836123.50717  94761633.72916
        48.500          42.750
  20662591.410 7  20662591.122 7  20662596.791 6 110414627.681 7  85878060.191 6
        51.750          43.000
  20612445.03248  20612444.39446  20612440.43646 108319125.15948  84404511.37646
        54.500          46.500
  24361011.95245  24361011.49143  24361008.44843 128017978.52745  99754265.69143
        41.000          28.500
  21424184.695 7  21424183.732 7  21424187.863 7 114604885.564 7  89137192.760 7
        52.000          47.750
  21630414.80447  21630413.84245  21630413.22545 113668607.30147  88572940.55745
        50.750          40.750
  21534533.688 7  21534532.647 7  21534538.011 5 115114411.396 7  89533431.130 5
        50.000          41.000
  22879650.849 7  22879650.894 6  22879657.703 5 122047284.385 7  94925670.648 5
        48.250          42.250
  25215512.81244  25215511.27741  25215512.83641 132508394.16644 103253290.13941
        36.000          18.750
  24008672.40046  24008670.96742  24008670.00242 126166411.15246  98311485.91742
        44.250          26.250
  21654980.07747  21654979.44545  21654979.37945 113797715.35047  88673534.96845
        50.500          42.000
  25756844.24044  25756843.11941  25756845.65541 135353140.64644 105469987.23041
        37.250          16.500
  24604029.96345  24604030.62942  24604029.49342 129295034.16045 100749373.85542
        42.000          27.000
  20943504.56648  20943503.87746  20943502.02446 110058855.09848  85760140.22546
        52.750          45.000
  19651568.806 8  19651568.593 8  19651575.668 6 104753946.746 8  81475290.844 6
        56.750          47.000
  20274218.68047  20274218.47447  20274216.39647 106541771.40847  83019584.39947
        52.000          48.250
  20738595.000 7  20738594.056 6  20738601.200 7 110898605.498 7  86254491.311 7
        48.000          50.000
  24120550.04756  24120549.80153  24120550.97353 126754337.42456  98769604.35553
        43.250          29.500
  23269863.956 6  23269863.330 6  23269869.748 6 124609172.957 6  96918122.196 6
        45.000          43.250
  22958563.119 7  22958562.622 7  22958567.416 5 122511291.225 7  95286555.123 5
        48.500          42.250
 11 10  1  0 13 30.0000000  0 21R21R09R11G23G07R19G03R01R04G29G10G06
                                G21G19G13R10G16R20G31R08R02
  23604341.116 6  23604342.495 6  23604348.781 5 126311596.846 6  98242365.251 5
        43.750          39.250
  22834927.64317  22834928.23316  22834934.85616 121936963.47217  94840064.67216
        48.250          42.750
  20649012.598 7  20649012.430 7  20649017.766 6 110342066.263 7  85821623.530 6
        52.250          43.250
  20616605.01248  20616604.38646  20616600.80346 108340986.45248  84421546.14646
        55.000          46.250
  24341978.67245  24341978.63943  24341977.07743 127917963.01245  99676331.51543
        40.000          27.750
  21434494.821 7  21434494.437 7  21434498.547 7 114660039.407 7  89180090.189 7
        52.000          47.750
  21612789.23547  21612788.65445  21612788.74445 113575986.77047  88500768.75045
        50.500          41.500
  21543446.259 7  21543445.597 7  21543450.810 5 115162054.647 7  89570486.960 5
        50.250          41.250
  22854631.058 7  22854631.211 7  22854637.881 5 121913819.519 7  94821864.710 5
        48.250          42.000
  25233734.98644  25233733.94241  25233735.91541 132604160.54144 103327913.22841
        34.750          17.000
  24009931.48646  24009929.79242  24009929.57442 126173025.97646  98316640.29342
        44.750          27.250
  21643643.03947  21643642.08545  21643641.80445 113738137.05747  88627110.36145
        51.000          41.750
  25745600.04144  25745598.50941  25745599.31541 135294050.50244 105423942.95641
        36.000          16.500
  24581482.15045  24581481.50842  24581483.18742 129176548.50145 100657047.47742
        40.000          27.250
  20936381.14748  20936380.45746  20936378.63546 110021422.28548  85730971.78946
        53.250          45.000
  19656914.735 8  19656914.441 8  19656921.298 6 104782442.775 8  81497454.394 6
        56.750          47.000
  20274232.99947  20274232.11447  20274229.90247 106541842.63147  83019639.89747
        51.750          48.000
  20724731.860 7  20724731.281 6  20724738.326 7 110824474.634 7  86196834.023 7
        48.000          50.250
  24138244.97356  24138244.99453  24138246.24453 126847327.40656  98842063.94753
        43.500          30.250
  23293426.435 6  23293425.737 6  23293431.142 6 124735345.640 6  97016256.402 6
        45.500          42.750
  22945727.095 7  22945725.839 6  22945730.929 5 122442790.762 7  95233276.913 5
        48.000          42.000
 11 10  1  0 14  0.0000000  0 22G27R21R09R11G23G07R19G03R01R04G29G10
                                G06G21G19G13R10G16R20G31R08R02
  20875855.67943  20875916.09941  20875913.27241 109703444.17943  85483175.67841
        28.500          20.000
  23578623.021 5  23578625.581 6  23578632.794 5 126173982.724 5  98135332.193 5
        42.250          40.000
  22853839.62117  22853838.97616  22853845.70416 122037945.04117  94918605.73516
        48.250          42.750
  20635487.743 7  20635487.620 7  20635492.807 6 110269792.959 7  85765410.968 6
        52.000          43.250
  20620882.60148  20620882.02246  20620878.37146 108363465.80148  84439062.52246
        54.750          46.250
  24322954.80245  24322955.92043  24322953.52543 127817994.15345  99598433.71743
        40.750          28.000
  21444947.157 7  21444946.488 7  21444950.284 7 114715950.435 7  89223576.539 7
        52.250          47.750
  21595242.07747  21595241.65445  21595241.17245 113483776.82847  88428916.88445
        50.500          41.000
  21552499.308 7  21552499.281 7  21552504.225 5 115210452.020 7  89608129.330 5
        50.000          41.000
  22829646.028 7  22829645.833 7  22829652.063 6 121780541.992 7  94718204.477 6
        48.250          42.750
  25252008.55644  25252008.64041  25252008.17341 132700185.75344 103402738.02441
        35.000          17.750
  24011300.91146  24011299.51442  24011300.06342 126180226.06046  98322250.72242
        44.500          27.250
  21632400.69347  21632400.13845  21632399.78445 113679060.60547  88581076.79745
        50.250          42.000
  25734402.58944  25734404.81341  25734406.13841 135235230.19144 105378109.02741
        36.000          17.750
  24558944.61945  24558942.89943  24558944.05943 129058104.83145 100564753.86243
        41.750          29.750
  20929369.57448  20929368.95946  20929367.15846 109984575.76148  85702260.19946
        53.000          44.750
  19662340.913 8  19662340.718 8  19662347.385 6 104811367.986 8  81519951.758 6
        57.000          46.750
  20274341.73047  20274341.05347  20274338.90947 106542415.07647  83020085.95747
        52.250          48.000
  20710998.664 7  20711000.202 6  20711006.977 7 110751047.784 7  86139724.301 7
        48.250          49.750
  24155963.12456  24155962.16153  24155963.25653 126940433.76856  98914614.23653
        42.500          30.500
  23317018.600 6  23317020.345 6  23317026.035 6 124861692.417 6  97114525.981 6
        45.000          42.750
  22933014.455 7  22933014.458 6  22933020.193 6 122374961.064 7  95180520.444 6
        47.750          43.500
 11 10  1  0 14 30.0000000  0 22G27R21R09R11G23G07R19G03R01R04G29G10
                                G06G21G19G13R10G16R20G31R08R02
  20868997.00643  20869015.64441  20869013.61241 109667165.05843  85454904.72341
        29.000          17.750
  23552926.074 6  23552924.545 6  23552930.966 5 126036447.039 6  98028359.972 5
        45.750          38.750
  22872776.83917  22872776.27816  22872782.45115 122139067.49417  94997256.37615
        48.500          42.000
  20622016.968 7  20622016.614 7  20622021.932 6 110197809.528 7  85709423.849 6
        52.250          43.500
  20625277.87648  20625277.22046  20625273.71846 108386562.74148  84457060.12546
        54.750          46.000
  24303941.94646  24303941.89543  24303938.61843 127718072.97446  99520573.04143
        42.500          28.250
  21455540.138 7  21455539.544 7  21455543.759 7 114772615.893 7  89267649.673 7
        52.250          47.750
  21577773.66847  21577772.94645  21577772.73945 113391980.35047  88357387.20945
        50.250          41.250
  21561694.096 7  21561693.625 7  21561698.302 5 115259600.929 7  89646356.232 5
        50.000          41.250
  22804697.057 7  22804696.613 6  22804704.216 6 121647455.965 7  94614693.221 6
        48.000          43.500
  25270332.50144  25270329.74341  25270331.12541 132796467.29844 103477762.46041
        34.500          16.500
  24012783.02246  24012781.46042  24012780.22842 126188010.99546  98328316.88842
        44.750          27.250
  21621254.79047  21621253.99245  21621253.93245 113620487.80347  88535435.68445
        50.250          42.000
  25723264.51145  25723263.24841  25723264.78041 135176682.31045 105332487.27241
        38.500          18.750
  24536414.30845  24536412.00543  24536412.73743 128939705.72645 100472494.92243
        41.250          29.250
  20922469.49748  20922469.13446  20922467.50946 109948317.07648  85674006.66346
        53.000          45.000
  19667847.548 8  19667847.465 8  19667853.778 6 104840722.030 8  81542782.661 6
        57.000          46.750
  20274545.54147  20274545.20847  20274542.94247 106543488.35747  83020922.28547
        51.500          48.250
  20697400.929 7  20697401.076 6  20697407.978 7 110678327.612 7  86083164.207 7
        48.000          50.250
  24173701.99956  24173701.63453  24173702.75553 127033655.47756  98987254.42253
        43.000          30.750
  23340646.038 6  23340645.999 6  23340651.656 5 124988208.467 6  97212927.271 5
        45.500          42.000
  22920428.491 7  22920430.091 7  22920434.882 6 122307805.308 7  95128288.192 6
        49.250          43.250
 11 10  1  0 15  0.0000000  0 22G27R21R09R11G23G07R19G03R01R04G29G10
                                G06G21G19G13R10G16R20G31R08R02
  20862210.98243  20862226.87141  20862224.17941 109631474.92343  85427092.56041
        28.500          17.750
  23527238.411 6  23527238.141 6  23527245.009 5 125898993.734 6  97921451.873 5
        45.750          40.000
  22891737.51017  22891739.56016  22891746.13516 122240329.92017  95076015.90416
        47.750          42.500
  20608600.365 7  20608600.587 7  20608606.301 6 110126117.233 7  85653663.171 6
        52.250          43.500
  20629790.65548  20629789.83746  20629786.23046 108410276.61348  84475538.45846
        54.750          46.500
  24284936.89746  24284937.05343  24284935.10743 127618200.53546  99442750.30443
        43.500          28.750
  21466273.133 8  21466273.064 7  21466277.037 7 114830033.113 8  89312307.509 7
        52.500          48.000
  21560385.05247  21560384.33045  21560384.20745 113300600.03047  88286181.80245
        51.000          41.250
  21571028.542 7  21571028.062 7  21571033.003 5 115309498.524 7  89685165.426 5
        49.750          41.250
  22779783.563 7  22779784.444 6  22779791.004 6 121514565.554 7  94511334.118 6
        47.750          42.500
  25288703.63945  25288700.33541  25288701.56741 132893002.76045 103552984.86841
        38.000          20.500
  24014375.53546  24014375.59242  24014374.25242 126196379.79646  98334837.97342
        44.750          27.500
  21610204.77947  21610204.38946  21610204.20646 113562420.67847  88490188.60446
        51.000          42.500
  25712175.54744  25712173.75541  25712176.27341 135118408.68244 105287079.28441
        37.000          17.500
  24513891.50345  24513890.07043  24513891.44643 128821354.57045 100380273.33543
        40.500          27.750
  20915682.21448  20915681.49746  20915679.65946 109912647.89748  85646212.48346
        53.000          44.750
  19673434.945 8  19673434.550 8  19673441.160 6 104870504.707 8  81565946.947 6
        56.750          46.750
  20274845.25047  20274844.41647  20274842.46847 106545061.64347  83022148.22247
        51.750          48.000
  20683935.140 7  20683934.726 6  20683941.672 7 110606317.903 7  86027156.693 7
        48.000          50.500
  24191463.83956  24191464.71453  24191465.34453 127126991.88056  99059983.95053
        43.000          30.500
  23364302.583 6  23364303.935 6  23364309.085 6 125114889.702 6  97311456.971 6
        45.750          43.000
  22907971.251 7  22907971.496 7  22907976.053 6 122241325.959 7  95076582.025 6
        48.750          42.750
 11 10  1  0 15 30.0000000  0 22G27R21R09R11G23G07R19G03R01R04G29G10
                                G06G21G19G13R10G16R20G31R08R02
  20855505.57543  20855553.16141  20855549.35441 109596375.35143  85399739.53941
        28.500          19.500
  23501568.649 6  23501567.383 6  23501575.157 5 125761626.752 6  97814610.919 5
        45.000          42.000
  22910728.98117  22910729.31716  22910735.80815 122341731.34317  95154883.51415
        47.750          41.750
  20595238.807 7  20595238.759 7  20595244.752 6 110054717.370 7  85598129.946 6
        52.250          43.750
  20634420.50348  20634419.79846  20634416.21046 108434607.02848  84494497.21546
        54.000          45.750
  24265938.89946  24265940.29043  24265938.88743 127518377.85946  99364966.38043
        43.500          28.750
  21477146.483 7  21477146.426 7  21477150.581 7 114888199.155 7  89357547.773 7
        52.250          48.000
  21543075.27547  21543074.81745  21543074.51445 113209638.88647  88215303.04945
        50.250          41.000
  21580501.872 7  21580501.986 7  21580507.374 5 115360142.111 7  89724554.847 5
        50.000          41.000
  22754908.440 6  22754909.417 6  22754916.147 6 121381874.991 6  94408130.440 6
        47.500          43.250
  25307118.07344  25307120.51641  25307118.04941 132989789.37644 103628402.91141
        37.250          18.500
  24016078.39546  24016078.29042  24016076.17642 126205331.61646  98341813.39842
        45.500          26.750
  21599251.71447  21599251.31246  21599251.04046 113504861.05247  88445336.98146
        50.500          42.750
  25701141.00244  25701138.18141  25701140.06441 135060412.07844 105241887.06741
        37.000          16.750
  24491379.83045  24491378.50443  24491379.95843 128703053.82645 100288091.04343
        40.000          29.000
  20909006.51347  20909006.28846  20909004.61846 109877569.40847  85618878.58746
        52.250          44.750
  19679102.546 8  19679102.174 8  19679108.665 6 104900715.913 8  81589444.532 6
        57.250          46.750
  20275239.88247  20275238.83847  20275236.94147 106547134.32847  83023763.29647
        51.250          48.250
  20670601.435 7  20670602.128 6  20670608.900 7 110535021.058 7  85971703.626 7
        48.000          50.250
  24209248.25955  24209246.95253  24209247.51653 127220441.99055  99132802.09753
        41.750          30.500
  23387989.794 6  23387989.581 6  23387995.424 5 125241731.537 6  97410111.602 5
        45.000          41.750
  22895640.271 6  22895640.550 6  22895645.973 6 122175526.484 6  95025404.646 6
        47.500          43.250
 11 10  1  0 16  0.0000000  0 21R21R09R11G23G07R19G03R01R04G29G10G06
                                G21G19G13R10G16R20G31R08R02
  23475915.504 6  23475914.362 6  23475922.318 6 125624349.980 6  97707840.108 6
        46.750          43.000
  22929744.55017  22929744.26816  22929750.93015 122443270.79817  95233858.49715
        48.000          42.000
  20581932.884 7  20581932.450 7  20581938.296 6 109983611.306 7  85542825.232 6
        52.250          43.750
  20639167.72648  20639166.73346  20639163.17546 108459553.53948  84513936.04446
        53.750          46.250
  24246954.12846  24246954.62343  24246952.16743 127418606.35746  99287222.32643
        43.750          28.500
  21488159.958 7  21488159.722 7  21488163.562 6 114947111.306 7  89403368.330 6
        52.000          47.500
  21525846.07447  21525845.79245  21525845.93345 113119099.92847  88144753.27045
        50.250          41.750
  21590114.793 7  21590114.957 7  21590120.048 5 115411529.197 7  89764522.553 5
        49.500          40.750
  22730072.163 6  22730072.484 6  22730078.621 6 121249388.470 6  94305085.504 6
        47.250          42.750
  25325583.59145  25325583.61241  25325583.40541 133086824.29145 103704014.44241
        38.750          19.500
  24017892.62246  24017890.90743  24017891.42343 126214865.90846  98349242.69443
        45.250          27.750
  21588395.72947  21588394.79946  21588394.52046 113447810.92147  88400882.37046
        51.250          43.000
  25690154.91344  25690155.88441  25690157.97741 135002694.62844 105196912.43841
        35.500          14.750
  24468878.67945  24468877.17142  24468877.21042 128584806.22245 100195950.14642
        40.250          27.500
  20902444.27847  20902443.89146  20902442.14646 109843083.95447  85592006.79346
        51.750          44.750
  19684850.218 8  19684850.236 8  19684856.762 6 104931355.726 8  81613275.476 6
        57.250          47.000
  20275729.09847  20275728.26147  20275726.12147 106549705.43147  83025766.74947
        52.000          48.250
  20657402.815 7  20657403.348 6  20657410.112 7 110464440.836 7  85916807.929 7
        48.250          50.750
  24227052.20855  24227051.83053  24227052.78053 127314005.41455  99205708.52453
        42.250          31.000
  23411707.367 6  23411706.867 6  23411711.855 6 125368729.494 6  97508887.670 6
        45.250          43.000
  22883438.487 7  22883437.936 6  22883443.485 6 122110409.552 7  94974758.118 6
        48.250          42.750
 11 10  1  0 16 30.0000000  0 22G27R21R09R11G23G07R19G03R01R04G29G10
                                G06G21G19G13R10G16R20G31R08R02
  20842500.60843  20842512.26741  20842509.85141 109527908.48543  85346551.75441
        28.250          17.250
  23450277.595 6  23450278.671 6  23450284.358 5 125487167.377 6  97601142.548 5
        45.750          41.250
  22948784.53716  22948785.20916  22948791.42615 122544947.49716  95312940.21615
        47.250          41.500
  20568681.710 8  20568681.134 7  20568686.947 6 109912800.408 8  85487750.080 6
        52.750          43.750
  20644032.06848  20644031.24446  20644027.42746 108485115.71748  84533854.60846
        54.250          45.750
  24227978.81546  24227978.28543  24227976.72643 127318887.09646  99209518.97843
        44.500          28.750
  21499312.097 7  21499311.623 7  21499315.320 6 115006767.048 7  89449767.235 6
        51.750          47.250
  21508697.96647  21508697.32845  21508697.59245 113028985.92247  88074534.61345
        49.500          41.500
  21599867.068 7  21599866.361 7  21599871.829 5 115463656.834 7  89805066.236 5
        49.750          40.250
  22705273.604 6  22705274.965 6  22705280.667 6 121117110.156 6  94202202.480 6
        45.750          42.500
  25344097.93745  25344096.66041  25344096.69041 133184105.10945 103779817.64941
        38.000          19.000
  24019817.77846  24019816.94543  24019816.02443 126224982.24446  98357125.51243
        44.750          28.250
  21577636.25547  21577635.64146  21577635.57846 113391271.91647  88356826.04346
        50.500          43.250
  25679226.43744  25679227.48141  25679228.04741 134945258.71644 105152157.18541
        34.250          15.000
  24446387.64345  24446385.26643  24446386.17743 128466614.79545 100103853.02043
        40.500          29.500
  20895995.32848  20895994.66346  20895992.87646 109809193.03348  85565598.27346
        52.500          44.750
  19690678.189 8  19690678.645 8  19690685.213 6 104962423.849 8  81637439.554 6
        56.750          46.500
  20276312.73447  20276312.11347  20276309.91647 106552773.91347  83028157.77047
        51.250          48.000
  20644338.771 7  20644338.573 6  20644345.618 7 110394580.399 7  85862472.073 7
        48.000          50.500
  24244878.65656  24244877.63053  24244879.15953 127407681.11656  99278702.44353
        43.250          31.000
  23435449.698 6  23435451.308 6  23435456.620 6 125495879.641 6  97607782.107 6
        45.000          43.000
  22871364.073 7  22871363.258 6  22871368.744 6 122045977.902 7  94924644.649 6
        48.000          44.500
 11 10  1  0 17  0.0000000  0 22G27R21R09R11G23G07R19G03R01R04G29G10
                                G06G21G19G13R10G16R20G31R08R02
  20836134.28443  20836175.61141  20836174.14241 109494579.82043  85320579.85441
        29.750          15.500
  23424660.779 6  23424660.623 6  23424667.920 5 125350082.944 6  97494521.268 5
        45.000          41.000
  22967851.49316  22967850.82816  22967857.98115 122646760.52316  95392127.94015
        46.750          41.250
  20555486.246 7  20555485.083 7  20555491.190 6 109842286.012 7  85432905.547 6
        52.250          43.750
  20649013.31848  20649012.48146  20649008.90546 108511292.87848  84554252.37046
        53.750          46.250
  24209013.70846  24209012.63143  24209010.84543 127219220.97746  99131857.00743
        44.250          28.500
  21510602.029 7  21510602.161 7  21510605.750 6 115067163.215 7  89496742.020 6
        52.250          47.500
  21491631.36347  21491630.79145  21491630.70745 112939299.81147  88004649.37245
        49.750          41.750
  21609757.671 7  21609756.328 7  21609760.954 5 115516522.435 7  89846183.890 5
        50.250          40.500
  22680516.296 6  22680516.695 6  22680522.802 6 120985044.304 6  94099484.700 6
        46.750          42.750
  25362653.74744  25362653.32141  25362657.05741 133281629.02744 103855810.21641
        33.500          14.250
  24021852.89246  24021852.68242  24021852.13442 126235679.62546  98365461.11042
        43.750          24.000
  21566974.72747  21566974.27446  21566974.14546 113335246.02747  88313169.54046
        51.250          43.000
  25668352.41644  25668350.50441  25668351.23841 134888106.49344 105107622.95041
        36.250          15.750
  24423906.15945  24423906.12643  24423906.01543 128348482.35745 100011801.89043
        42.250          30.000
  20889659.92547  20889658.98446  20889657.10446 109775898.33147  85539654.33746
        52.250          45.000
  19696587.230 8  19696587.075 8  19696593.757 6 104993919.785 8  81661936.372 6
        56.750          46.750
  20276991.52747  20276990.66947  20276988.50247 106556339.56947  83030936.19947
        52.250          48.000
  20631409.271 7  20631409.927 6  20631416.520 7 110325443.156 7  85808698.701 7
        47.750          50.500
  24262725.73255  24262725.07053  24262726.14353 127501468.43155  99351783.33853
        42.250          31.500
  23459223.932 6  23459222.649 6  23459228.921 5 125623177.429 6  97706791.354 5
        46.000          42.000
  22859417.410 6  22859417.706 6  22859422.329 6 121982234.430 6  94875066.388 6
        47.500          43.000
 11 10  1  0 17 30.0000000  0 22G27R21R09R11G23G07R19G03R01R04G29G10
                                G06G21G19G13R10G16R20G31R08R02
  20829903.28743  20829955.07041  20829952.15341 109461874.11743  85295095.00741
        28.750          18.250
  23399061.597 6  23399062.295 6  23399070.629 6 125213100.464 6  97387979.310 6
        45.250          43.250
  22986944.32216  22986942.99716  22986949.81715 122748708.94816  95471420.98615
        46.750          41.250
  20542345.416 7  20542345.428 7  20542351.316 6 109772069.459 7  85378292.674 6
        52.250          44.000
  20654111.81348  20654110.88446  20654107.38246 108538084.50848  84575128.94746
        54.000          46.000
  24190057.39046  24190057.05743  24190054.87443 127119609.49446  99054237.66943
        43.750          28.500
  21522031.029 7  21522030.453 7  21522034.222 7 115128297.060 7  89544290.560 7
        52.250          47.750
  21474645.86047  21474646.13045  21474645.75245 112850044.33947  87935099.69845
        50.000          41.500
  21619783.582 7  21619783.238 7  21619788.472 5 115570123.283 7  89887873.402 5
        50.000          41.000
  22655799.850 6  22655799.586 6  22655806.269 6 120853195.046 6  93996935.387 6
        46.250          43.500
  25381256.72443  25381256.64941  25381258.91241 133379393.65143 103931990.33741
        30.750          16.250
  24023998.49545  24023998.93341  24023997.90141 126246957.33445  98374248.89041
        42.250          20.250
  21556411.14447  21556410.87146  21556410.97346 113279735.04247  88269914.25246
        51.500          43.000
  25657529.18644  25657528.16441  25657532.46341 134831240.26244 105063311.57441
        36.250          15.000
  24401439.05845  24401437.88043  24401437.80243 128230411.48345  99919798.68643
        41.500          28.500
  20883437.52047  20883436.99246  20883435.13446 109743201.21447  85514176.05246
        52.000          45.000
  19702576.121 8  19702575.939 8  19702582.621 6 105025843.658 8  81686766.034 6
        57.000          46.750
  20277764.25447  20277763.47447  20277761.46647 106560400.90947  83034100.88247
        52.250          47.750
  20618616.359 7  20618616.719 6  20618623.350 7 110257032.294 7  85755490.291 7
        47.750          50.750
  24280592.23055  24280592.83853  24280594.50553 127595366.64455  99424950.60253
        41.250          30.750
  23483022.834 6  23483022.081 6  23483027.369 5 125750618.706 6  97805912.230 5
        44.750          42.250
  22847602.232 7  22847602.409 7  22847606.918 6 121919182.224 7  94826025.798 6
        48.750          44.250
 11 10  1  0 18  0.0000000  0 22G27R21R09R11G23G07R19G03R01R04G29G10
                                G06G21G19G13R10G16R20G31R08R02
  20823816.42743  20823845.12341  20823843.68741 109429743.35743  85270055.82441
        28.250          19.000
  23373483.610 6  23373483.715 6  23373490.805 5 125076224.090 6  97281519.892 5
        45.750          42.000
  23006059.21217  23006060.03616  23006066.40115 122850791.80417  95550818.62415
        48.000          41.250
  20529261.664 7  20529261.229 7  20529267.006 6 109702152.324 7  85323912.682 6
        52.250          43.500
  20659326.34648  20659325.73446  20659322.47346 108565490.08648  84596483.91946
        53.750          46.000
  24171111.78746  24171112.68043  24171110.58143 127020053.87846  98976661.83643
        45.250          28.750
  21533596.428 7  21533595.625 7  21533600.200 6 115190165.685 7  89592410.581 6
        51.500          47.500
  21457744.48847  21457743.55545  21457743.77445 112761222.21947  87865887.70545
        49.750          41.750
  21629947.788 7  21629947.593 7  21629953.325 5 115624456.314 7  89930132.380 5
        49.750          41.000
  22631123.342 6  22631123.717 6  22631130.217 6 120721566.409 6  93894557.655 6
        46.000          43.250
  25399908.59344  25399909.14841  25399908.08441 133477396.17744 104008355.94241
        36.250          16.750
  24026256.31945  24026255.48541  24026254.06741 126258814.53245  98383488.28341
        41.750          20.750
  21545946.45447  21545945.79446  21545945.61446 113224740.83147  88227061.65246
        50.750          43.000
  25646763.42344  25646762.95241  25646765.26741 134774662.20944 105019224.82941
        33.500          16.500
  24378982.50845  24378982.07643  24378982.64043 128112405.30145  99827845.89043
        40.250          28.500
  20877329.78847  20877328.88046  20877327.30646 109711102.86747  85489164.34146
        52.250          45.000
  19708645.108 8  19708645.012 8  19708651.721 6 105058195.376 8  81711928.466 6
        57.250          47.000
  20278631.40447  20278630.50747  20278628.54147 106564957.22947  83037651.26347
        52.000          47.750
  20605958.789 7  20605959.538 6  20605966.466 7 110189351.101 7  85702849.403 7
        47.750          50.500
  24298483.54455  24298482.22553  24298483.96153 127689374.73655  99498203.54053
        42.250          31.750
  23506846.639 6  23506846.741 6  23506853.369 6 125878198.733 6  97905141.033 6
        45.000          43.250
  22835916.082 6  22835915.803 6  22835921.296 6 121856823.633 6  94777524.660 6
        47.500          43.500
 11 10  1  0 18 30.0000000  0 21R21R09R11G23G07R19G03R01R04G29G10G06
                                G21G19G13R10G16R20G31R08R02
  23347925.110 6  23347925.544 6  23347932.919 5 124939457.661 6  97175145.988 5
        44.750          41.750
  23025202.80116  23025202.06316  23025208.76715 122953008.44416  95630320.28215
        45.750          41.500
  20516233.685 7  20516233.490 7  20516239.003 6 109632535.925 7  85269766.594 6
        52.250          44.000
  20664658.17948  20664657.69346  20664654.28246 108593508.94048  84618316.76646
        53.750          46.000
  24152179.06546  24152179.53943  24152176.29243 126920554.99846  98899130.22643
        44.000          29.250
  21545299.235 7  21545298.185 7  21545302.985 7 115252766.244 7  89641099.889 7
        51.250          47.750
  21440924.53047  21440924.32045  21440924.42845 112672836.29547  87797015.59545
        50.250          42.250
  21640248.249 7  21640248.408 7  21640253.489 5 115679518.701 7  89972958.629 5
        50.250          41.000
  22606488.275 6  22606489.573 6  22606496.402 6 120590162.805 6  93792354.949 6
        45.000          43.500
  25418601.37544  25418601.01641  25418599.90341 133575633.92644 104084904.74341
        32.750          15.500
  24028621.67545  24028621.27741  24028621.31341 126271250.62945  98393178.65441
        42.000          20.250
  21535580.26647  21535579.46946  21535579.32246 113170265.35447  88184613.24746
        51.750          42.500
  25636050.86144  25636050.94241  25636052.90041 134718374.84544 104975364.62041
        34.750          15.250
  24356538.95045  24356539.24443  24356539.89443 127994466.35345  99735945.55243
        40.500          29.000
  20871335.70547  20871334.90546  20871333.40346 109679605.54247  85464620.95746
        52.250          45.000
  19714794.604 8  19714794.283 8  19714801.247 6 105090974.498 8  81737423.322 6
        57.250          46.750
  20279592.42147  20279591.64247  20279589.50147 106570007.88047  83041586.83847
        52.000          47.750
  20593439.719 6  20593439.776 6  20593446.702 7 110122402.098 6  85650777.988 7
        47.500          50.250
  24316392.95955  24316392.32753  24316393.48453 127783491.91355  99571541.44653
        42.250          32.250
  23530695.980 6  23530696.436 6  23530702.426 5 126005913.519 6  98004474.654 5
        44.750          42.250
  22824360.957 6  22824360.609 6  22824365.304 6 121795161.603 6  94729565.326 6
        47.250          44.250
 11 10  1  0 19  0.0000000  0 21R21R09R11G23G07R19G03R01R04G29G10G06
                                G21G19G13R10G16R20G31R08R02
  23322388.821 6  23322388.833 6  23322396.985 6 124802805.437 6  97068860.941 6
        44.250          42.750
  23044368.61116  23044369.15016  23044376.29115 123055357.68516  95709925.06915
        46.750          41.000
  20503262.829 7  20503262.082 7  20503268.057 6 109563221.482 7  85215855.360 6
        52.250          43.750
  20670106.69748  20670106.06746  20670102.73446 108622140.47948  84640627.03646
        53.000          45.750
  24133255.35646  24133256.96943  24133253.69243 126821113.77646  98821643.52543
        45.250          29.750
  21557137.955 7  21557137.023 7  21557141.612 6 115316095.711 7  89690356.111 6
        50.000          47.250
  21424189.59647  21424188.87145  21424188.39145 112584889.39547  87728485.58145
        50.500          41.750
  21650685.334 7  21650684.828 7  21650689.828 5 115735307.627 7  90016349.993 5
        50.500          40.750
  22581898.065 6  22581899.148 6  22581905.869 6 120458988.350 6  93690330.529 6
        45.500          43.750
  25437339.82244  25437339.24041  25437339.98141 133674104.45644 104161634.91741
        35.500          16.500
  24031098.40846  24031098.99241  24031098.25541 126284264.36146  98403319.23541
        42.500          21.250
  21525312.63247  21525312.08446  21525311.92846 113116310.19747  88142570.29746
        51.000          43.000
  25625398.14444  25625396.56141  25625399.60441 134662380.43444 104931732.47641
        36.250          17.000
  24334110.25045  24334108.93743  24334108.62543 127876597.60645  99644099.81943
        40.500          28.250
  20865457.17147  20865456.08246  20865454.23346 109648710.50147  85440546.87946
        52.250          45.000
  19721023.745 8  19721023.907 8  19721030.898 6 105124181.254 8  81763250.777 6
        57.000          47.000
  20280647.26247  20280646.70447  20280644.64547 106575551.96647  83045906.90547
        51.750          48.000
  20581057.020 7  20581057.826 6  20581064.634 7 110056188.915 7  85599278.892 7
        48.250          50.500
  24334323.90355  24334323.89753  24334323.88553 127877717.73055  99644964.02953
        42.250          32.000
  23554568.415 6  23554570.693 6  23554577.085 6 126133758.801 6  98103909.698 6
        43.500          42.750
  22812935.404 6  22812936.301 6  22812939.560 6 121734198.922 6  94682149.934 6
        47.500          43.250
 11 10  1  0 19 30.0000000  0 22G27R21R09R11G23G07R19G03R01R04G29G10
                                G06G21G19G13R10G16R20G31R08R02
  20806185.08143  20806209.72741  20806208.42041 109337010.98043  85197791.07541
        28.500          17.750
  23296874.298 6  23296873.692 6  23296881.112 6 124666271.183 6  96962667.708 6
        44.000          42.500
  23063560.62216  23063560.29816  23063567.04115 123157838.72116  95789632.41715
        47.500          41.250
  20490348.534 8  20490347.775 7  20490353.277 6 109494210.663 8  85162180.270 6
        52.750          44.000
  20675671.63048  20675671.07646  20675667.38546 108651384.14248  84663414.29746
        53.250          45.750
  24114344.97246  24114343.97143  24114342.35843 126721732.16646  98744203.25443
        44.750          29.250
  21569111.600 7  21569111.729 7  21569115.821 6 115380150.992 7  89740176.867 6
        50.500          47.500
  21407537.17447  21407537.27946  21407536.96546 112497384.67447  87660300.11346
        50.000          42.500
  21661257.231 7  21661256.589 7  21661261.407 5 115791820.110 7  90060304.118 5
        50.000          40.750
  22557351.703 6  22557351.673 6  22557359.351 6 120328047.176 6  93588487.483 6
        46.750          44.500
  25456121.83543  25456123.22941  25456121.15441 133772804.75543 104238544.26141
        32.250           9.000
  24033686.29446  24033683.80641  24033682.45741 126297855.08246  98413909.37441
        43.000          22.250
  21515144.76647  21515144.06546  21515143.93946 113062877.17647  88100934.20346
        52.000          43.250
  25614796.75744  25614796.24541  25614798.94341 134606680.94144 104888330.39941
        33.500          16.000
  24311694.10245  24311693.95243  24311693.09243 127758802.22945  99552311.31343
        39.750          29.750
  20859692.20747  20859691.70046  20859689.92246 109618419.04047  85416943.13046
        52.000          45.250
  19727333.519 8  19727333.537 8  19727340.498 6 105157815.031 8  81789410.372 6
        57.250          46.750
  20281796.02248  20281795.48847  20281793.25847 106581588.75148  83050610.89247
        52.500          48.000
  20568812.722 7  20568813.601 6  20568820.235 7 109990713.767 7  85548353.804 7
        48.750          50.250
  24352275.68255  24352274.60053  24352275.08053 127972051.34755  99718470.62053
        41.250          31.250
  23578469.488 6  23578468.418 5  23578473.898 5 126261729.667 6  98203442.496 5
        44.000          41.750
  22801644.063 7  22801643.137 6  22801649.337 6 121673938.321 7  94635280.524 6
        48.000          42.750
 11 10  1  0 20  0.0000000  0 22G27R21R09R11G23G07R19G03R01R04G29G10
                                G06G21G19G13R10G16R20G31R08R02
  20800528.98942  20800560.59441  20800558.27341 109307311.54142  85174646.75441
        27.250          17.250
  23271381.197 6  23271381.653 6  23271388.458 5 124529858.890 6  96856569.362 5
        44.500          41.500
  23082776.08416  23082776.57216  23082783.03015 123260450.76716  95869441.63015
        46.000          41.750
  20477491.290 8  20477490.393 7  20477495.736 6 109425504.635 8  85108742.243 6
        52.500          44.000
  20681353.00648  20681352.48246  20681348.83346 108681238.93948  84686677.76946
        52.750          45.750
  24095444.03246  24095443.40043  24095441.98843 126622410.81246  98666809.97143
        45.000          30.000
  21581221.473 7  21581221.212 7  21581225.694 7 115444929.407 7  89790560.055 7
        50.250          47.750
  21390970.97947  21390970.04445  21390970.14945 112410324.34347  87592460.93645
        50.000          42.000
  21671964.072 7  21671963.398 7  21671968.042 5 115849053.272 7  90104818.769 5
        49.750          40.750
  22532848.859 6  22532849.651 6  22532856.780 6 120197343.608 6  93486829.236 6
        46.250          44.750
  25474950.47144  25474948.01541  25474945.78841 133871732.78844 104315630.77541
        33.000          13.000
  24036380.26246  24036379.60942  24036378.79342 126312021.67446  98424948.25242
        42.750          22.500
  21505076.66547  21505075.72146  21505075.77246 113009967.86547  88059706.19646
        51.500          43.000
  25604255.23944  25604252.04341  25604256.80141 134551278.58344 104845159.65241
        35.500          15.500
  24289294.13245  24289291.71843  24289293.24143 127641082.30945  99460581.62443
        39.500          28.500
  20854043.17547  20854042.58546  20854040.81046 109588732.54347  85393810.77746
        51.500          44.750
  19733723.485 8  19733723.299 8  19733730.185 6 105191875.682 8  81815901.982 6
        57.250          47.000
  20283038.51247  20283037.77747  20283035.47847 106588116.75547  83055697.64947
        52.000          48.250
  20556709.228 7  20556707.912 6  20556714.897 7 109925980.114 7  85498005.433 7
        48.750          50.000
  24370246.66655  24370246.11253  24370246.84053 128066491.93455  99792060.53853
        41.750          31.000
  23602389.994 6  23602388.981 6  23602395.265 5 126389822.395 6  98303070.068 5
        44.000          41.250
  22790481.600 7  22790482.385 6  22790487.758 6 121614382.384 7  94588959.252 6
        48.000          43.500
