     2.11           OBSERVATION DATA    G (GPS)             RINEX VERSION / TYPE
teqc  2016Apr1                          20160930 07:51:16UTCPGM / RUN BY / DATE
Linux 2.4.20-8|Pentium IV|gcc|Linux|486/DX+                 COMMENT
teqc  2016Apr1                          20160816 03:19:27UTCCOMMENT
teqc  2010Mar17     gpsops              20111002 00:06:18UTCCOMMENT
Linux 2.4.21-27.ELsmp|Opteron|gcc -static|Linux x86_64|=+   COMMENT
BIT 2 OF LLI FLAGS DATA COLLECTED UNDER A/S CONDITION       COMMENT
                                                            COMMENT
This data is provided as a public service by NASA/JPL.      COMMENT
No warranty is expressed or implied regarding suitability   COMMENT
for use.  For further information, contact:                 COMMENT
Dave Stowers, NASA/JPL m/s 238-600                          COMMENT
4800 Oak Grove Drive, Pasadena CA 91109 USA                 COMMENT
                                                            COMMENT
Forced Modulo Decimation to 30 seconds                      COMMENT
 SNR is mapped to RINEX snr flag value [0-9]                COMMENT
  L1 & L2: min(max(int(snr_dBHz/6), 0), 9)                  COMMENT
pseudorange smoothing corrections not applied               COMMENT
SANT                                                        MARKER NAME
41705M003                                                   MARKER NUMBER
GGN                 JPL                                     OBSERVER / AGENCY
ZR220010203         ASHTECH UZ-12       CQ00                REC # / TYPE / VERS
251                 AOAD/M_T        JPLA                    ANT # / TYPE
  1769693.5880 -5044574.1840 -3468320.9070                  APPROX POSITION XYZ
        0.0614        0.0000        0.0000                  ANTENNA: DELTA H/E/N
     1     1                                                WAVELENGTH FACT L1/2
     7    L1    L2    P1    P2    C1    S1    S2            # / TYPES OF OBSERV
    30.0000                                                 INTERVAL
teqc windowed: start @ 2011 Oct  1 00:10:00.000             COMMENT
teqc windowed:  end  @ 2011 Oct  1 00:20:00.000             COMMENT
  2011    10     1     0    10    0.0000000     GPS         TIME OF FIRST OBS
                                                            END OF HEADER
 11 10  1  0 10  0.0000000  0  8G27G25G15G12G09G18G17G26
 -24216412.85449 -18832569.42548  20362934.1954   20362941.8464   20362934.5734
        56.0004         52.0004
   -254607.46247   -160786.01146  25418367.9334   25418396.3464   25418370.6984
        46.0004         37.0004
 -24759682.46849 -19257004.62648  20761156.7364   20761164.6734   20761156.6704
        57.0004         53.0004
 -14853561.93948 -11558853.32948  22685032.3564   22685041.6274   22685032.1314
        53.0004         48.0004
 -17501039.18049 -13607400.77748  22113006.9084   22113014.3494   22113007.2424
        54.0004         50.0004
  -1672304.43147  -1271305.30046  24749002.6034   24749014.2454   24749001.2124
        43.0004         39.0004
 -18288322.17248 -14235093.51748  22015730.5824   22015737.0884   22015731.1024
        53.0004         49.0004
 -23147160.41249 -18030953.64748  21729712.7374   21729723.8124   21729713.2084
        54.0004         49.0004
 11 10  1  0 10 30.0000000  0  8G27G25G15G12G09G18G17G26
 -24253793.08549 -18861696.86948  20355820.7524   20355828.8544   20355821.4684
        56.0004         52.0004
   -336559.16447   -224644.15546  25402771.7354   25402799.1984   25402773.0764
        43.0004         38.0004
 -24729991.63949 -19233868.99548  20766806.8614   20766814.7624   20766806.8214
        57.0004         53.0004
 -14914345.00248 -11606216.67348  22673465.3484   22673474.7084   22673465.7484
        53.0004         48.0004
 -17552906.22049 -13647816.64148  22103136.5134   22103144.4334   22103137.2434
        54.0004         50.0004
  -1633446.61047  -1241026.61446  24756397.5694   24756407.1734   24756396.4044
        43.0004         39.0004
 -18234826.83248 -14193408.82848  22025909.9164   22025917.0494   22025910.4674
        53.0004         49.0004
 -23070715.94448 -17971386.78048  21744260.0774   21744271.0774   21744260.2294
        53.0004         49.0004
 11 10  1  0 11  0.0000000  0  8G27G25G15G12G09G18G17G26
 -24290847.48849 -18890570.41548  20348769.7414   20348777.6494   20348770.1464
        56.0004         52.0004
   -418378.41947   -288398.97046  25387201.3644   25387230.1654   25387201.5054
        42.0004         37.0004
 -24699721.31749 -19210281.81048  20772567.1624   20772575.0454   20772567.3754
        57.0004         53.0004
 -14974877.72748 -11653384.94148  22661946.5254   22661955.9004   22661946.9854
        53.0004         48.0004
 -17604695.86549 -13688172.19548  22093281.4274   22093289.4004   22093281.8444
        54.0004         50.0004
  -1594231.90647  -1210469.84546  24763859.5304   24763871.2584   24763858.8624
        43.0004         38.0004
 -18180792.30248 -14151303.99248  22036192.5694   22036199.4904   22036192.5744
        53.0004         49.0004
 -22993834.21348 -17911479.19648  21758890.6764   21758901.5614   21758890.7964
        53.0004         49.0004
 11 10  1  0 11 30.0000000  0  9G27G25G15G12G09G18G28G17G26
 -24327574.79149 -18919189.08748  20341780.5994   20341788.5444   20341781.2314
        56.0004         52.0004
   -500065.58547   -352050.85946  25371659.4524   25371684.4944   25371658.9734
        42.0004         38.0004
 -24668872.75049 -19186244.04948  20778437.4044   20778445.4024   20778437.4124
        57.0004         53.0004
 -15035160.71248 -11700358.61348  22650475.0794   22650484.3544   22650475.4224
        53.0004         48.0004
 -17656407.48649 -13728466.95048  22083441.1224   22083449.1354   22083441.2454
        54.0004         50.0004
  -1554662.91647  -1179637.00546  24771389.4664   24771402.0224   24771390.3534
        43.0004         38.0004
                                                                  25100644.340

 -18126221.04248 -14108780.92348  22046577.1094   22046583.8824   22046577.6944
        53.0004         49.0004
 -22916517.60448 -17851232.75948  21773603.2044   21773614.4174   21773603.5514
        53.0004         49.0004
 11 10  1  0 12  0.0000000  0  8G27G25G15G12G09G18G17G26
 -24363973.11249 -18947551.41048  20334854.4164   20334862.1024   20334854.8124
        56.0004         52.0004
   -581620.15047   -415599.46946  25356137.3804   25356165.2354   25356136.2554
        42.0004         38.0004
 -24637446.71149 -19161756.31048  20784417.8144   20784425.6434   20784417.4224
        57.0004         53.0004
 -15095193.95048 -11747137.67648  22639051.0224   22639060.0104   22639051.5124
        53.0004         48.0004
 -17708039.78949 -13768699.89848  22073615.8504   22073623.6694   22073616.2244
        54.0004         50.0004
  -1514741.86547  -1148529.83846  24778985.7284   24778996.4294   24778989.2274
        43.0004         38.0004
 -18071114.99948 -14065841.14748  22057063.5444   22057070.2934   22057063.6574
        53.0004         49.0004
 -22838768.14848 -17790649.03948  21788399.1824   21788409.7814   21788399.1394
        53.0004         49.0004
 11 10  1  0 12 30.0000000  0  9G27G25G15G12G09G18G28G17G26
 -24400040.57949 -18975655.92348  20327990.9334   20327998.7694   20327991.5884
        56.0004         52.0004
   -663041.55047   -479044.28146  25340643.1034   25340671.0874   25340643.6524
        43.0004         38.0004
 -24605444.00949 -19136819.23048  20790507.6944   20790515.7604   20790507.7464
        57.0004         53.0004
 -15154977.34648 -11793722.04648  22627674.2094   22627683.7864   22627675.0224
        53.0004         48.0004
 -17759591.61649 -13808870.13748  22063806.0524   22063813.7204   22063806.3804
        55.0004         50.0004
  -1474470.85847  -1117149.98946  24786649.2264   24786659.4034   24786650.2964
        43.0004         38.0004
    243431.11448    135006.21146  25139194.1134   25139201.5654   25139193.4924
        50.0004         37.0004
 -18015476.09248 -14022486.14948  22067651.2714   22067657.7404   22067651.7194
        53.0004         49.0004
 -22760587.83848 -17729729.59348  21803276.3774   21803287.6374   21803276.4684
        53.0004         49.0004
 11 10  1  0 13  0.0000000  0  9G27G25G15G12G09G18G28G17G26
 -24435775.69149 -19003501.46048  20321190.8314   20321198.3694   20321191.3104
        56.0004         52.0004
   -744329.69047   -542385.24446  25325174.2354   25325201.5704   25325175.0064
        43.0004         38.0004
 -24572866.20549 -19111434.02148  20796707.1274   20796715.1834   20796707.1064
        57.0004         53.0004
 -15214511.42348 -11840112.15648  22616345.1424   22616354.6124   22616345.4334
        53.0004         48.0004
 -17811062.02749 -13848976.94348  22054011.2934   22054019.2604   22054011.9444
        55.0004         50.0004
  -1433853.00747  -1085499.85846  24794377.8954   24794389.6444   24794379.5674
        43.0004         38.0004
    344606.92147    213844.55645  25158443.9124   25158453.0474   25158446.3404
        45.0004         35.0004
 -17959306.57448 -13978717.68748  22078339.7964   22078346.3674   22078339.6114
        53.0004         49.0004
 -22681978.81848 -17668476.09948  21818235.0344   21818246.2844   21818235.7894
        53.0004         49.0004
 11 10  1  0 13 30.0000000  0  9G27G25G15G12G09G18G28G17G26
 -24471176.45749 -19031086.46648  20314454.2414   20314461.8774   20314454.6954
        56.0004         52.0004
   -825484.03047   -605621.90646  25309731.9314   25309757.7184   25309731.1574
        43.0004         38.0004
 -24539713.75849 -19085601.04048  20803015.9434   20803024.0634   20803015.9324
        57.0004         53.0004
 -15273795.91348 -11886307.77548  22605063.6104   22605073.2034   22605064.0424
        53.0004         48.0004
 -17862449.42649 -13889019.05048  22044232.4724   22044240.4094   22044233.1354
        55.0004         50.0004
  -1392890.32147  -1053581.04846  24802175.2904   24802186.2644   24802175.0844
        43.0004         38.0004
    445709.90546    292626.20045  25177684.1144   25177699.1774   25177686.5324
        41.0004         34.0004
 -17902608.24048 -13934537.16048  22089129.4104   22089135.5174   22089129.0434
        53.0004         49.0004
 -22602943.18048 -17606890.18348  21833275.1004   21833287.1054   21833275.8124
        53.0004         49.0004
 11 10  1  0 14  0.0000000  0  9G27G25G15G12G09G18G28G17G26
 -24506241.09349 -19058409.55748  20307781.6274   20307789.2004   20307782.1014
        56.0004         52.0004
   -906504.20347   -668753.98346  25294312.1084   25294340.5284   25294312.8564
        43.0004         38.0004
 -24505987.76849 -19059321.14748  20809433.8424   20809441.8894   20809433.7564
        57.0004         53.0004
 -15332830.89848 -11932308.97148  22593829.6534   22593838.6614   22593829.8654
        53.0004         48.0004
 -17913752.93149 -13928995.79648  22034469.7994   22034477.5324   22034470.5274
        55.0004         50.0004
  -1351585.30347  -1021395.47646  24810034.7044   24810044.5564   24810034.4734
        43.0004         39.0004
    546739.14946    371350.32245  25196911.3074   25196920.9964   25196912.3184
        39.0004         33.0004
 -17845383.50748 -13889946.45648  22100018.5444   22100024.9104   22100018.4654
        53.0004         49.0004
 -22523482.84148 -17544973.34348  21848396.8344   21848408.0234   21848396.3384
        53.0004         48.0004
 11 10  1  0 14 30.0000000  0  9G27G25G15G12G09G18G28G17G26
 -24540967.33149 -19085468.96148  20301173.4114   20301181.1644   20301174.0284
        56.0004         52.0004
   -987389.60147   -731781.07146  25278919.9594   25278946.0304   25278921.0364
        43.0004         39.0004
 -24471688.74749 -19032594.73248  20815960.8404   20815968.9264   20815960.7944
        57.0004         53.0004
 -15391616.14648 -11978115.56448  22582643.3104   22582652.2184   22582643.3904
        53.0004         48.0004
 -17964970.56449 -13968905.62248  22024722.9734   22024731.2154   22024723.6634
        55.0004         50.0004
  -1309939.78247   -988944.59746  24817959.7414   24817971.0544   24817960.7554
        43.0004         39.0004
    647693.91246    450016.44745  25216122.4344   25216129.6764   25216124.4094
        39.0004         34.0004
 -17787633.83548 -13844946.71348  22111008.3464   22111014.6274   22111008.7694
        53.0004         49.0004
 -22443599.65548 -17482727.00648  21863598.1664   21863609.9034   21863598.0754
        53.0004         48.0004
 11 10  1  0 15  0.0000000  0  8G27G25G15G12G09G18G17G26
 -24575354.53549 -19112264.18348  20294629.6614   20294637.5794   20294630.4404
        56.0004         52.0004
  -1068141.01947   -794703.76246  25263553.1154   25263580.7424   25263552.5884
        43.0004         39.0004
 -24436819.03749 -19005423.62548  20822596.3264   20822604.5414   20822596.2144
        57.0004         53.0004
 -15450152.57248 -12023728.26748  22571504.3274   22571513.1244   22571504.5554
        53.0004         48.0004
 -18016102.47749 -14008748.65448  22014992.9474   22015001.0174   22014993.5484
        55.0004         50.0004
  -1267957.43247   -956231.24146  24825948.4624   24825959.8404   24825948.7824
        43.0004         38.0004
 -17729362.45948 -13799540.44848  22122096.8994   22122103.3214   22122096.7554
        53.0004         49.0004
 -22363296.96248 -17420153.79448  21878878.9854   21878890.9194   21878879.7834
        53.0004         48.0004
 11 10  1  0 15 30.0000000  0  8G27G25G15G12G09G18G17G26
 -24609400.10749 -19138793.19648  20288151.0894   20288159.0144   20288151.6624
        56.0004         52.0004
  -1148757.07247   -857520.94346  25248212.8104   25248239.1284   25248213.5734
        43.0004         39.0004
 -24401378.80549 -18977807.95748  20829340.5334   20829348.5434   20829340.4324
        57.0004         53.0004
 -15508439.20048 -12069146.32148  22560412.2364   22560421.3954   22560412.5424
        53.0004         48.0004
 -18067146.48649 -14048523.18348  22005279.9314   22005287.6494   22005280.3734
        55.0004         50.0004
  -1225639.86147   -923256.68346  24833999.3594   24834011.0954   24834002.1564
        43.0004         38.0004
 -17670570.57148 -13753728.58848  22133284.6154   22133291.2564   22133284.1974
        53.0004         49.0004
 -22282575.70048 -17357254.42748  21894240.0634   21894251.9434   21894240.5994
        53.0004         48.0004
 11 10  1  0 16  0.0000000  0  8G27G25G15G12G09G18G17G26
 -24643102.58649 -19165054.87048  20281737.8764   20281745.3094   20281738.2994
        56.0004         52.0004
  -1229237.75447   -920232.60746  25232896.1144   25232924.2274   25232896.4124
        43.0004         39.0004
 -24365369.44449 -18949748.81548  20836192.8224   20836201.1234   20836192.5834
        57.0004         53.0004
 -15566477.13348 -12114370.59048  22549367.8104   22549377.2764   22549368.2214
        53.0004         48.0004
 -18118101.40849 -14088228.29448  21995583.6194   21995591.2064   21995584.3614
        55.0004         50.0004
  -1182989.63447   -890022.93646  24842116.9814   24842127.5684   24842118.8484
        43.0004         38.0004
 -17611260.64748 -13707513.05048  22144570.8034   22144577.4464   22144570.9654
        53.0004         48.0004
 -22201438.48448 -17294030.95348  21909680.7814   21909692.1564   21909680.7104
        53.0004         48.0004
 11 10  1  0 16 30.0000000  0  8G27G25G15G12G09G18G17G26
 -24676460.01749 -19191047.66948  20275389.8224   20275397.8294   20275390.7464
        56.0004         52.0004
  -1309582.68647   -982838.47746  25217606.7234   25217633.3784   25217607.7104
        43.0004         39.0004
 -24328791.79749 -18921246.85148  20843153.4274   20843161.5564   20843153.4324
        57.0004         53.0004
 -15624265.92048 -12159400.72748  22538370.8544   22538380.2314   22538371.5064
        53.0004         48.0004
 -18168966.14749 -14127863.14048  21985904.1884   21985912.0914   21985905.0204
        55.0004         50.0004
  -1140009.14947   -856531.83346  24850296.5214   24850307.2264   24850297.6444
        43.0004         38.0004
 -17551434.64448 -13660895.37948  22155955.6994   22155961.9804   22155955.5764
        53.0004         49.0004
 -22119887.32448 -17230484.92048  21925198.9974   21925211.3084   21925199.8394
        53.0004         48.0004
 11 10  1  0 17  0.0000000  0  9G27G25G15G12G09G18G17G04G26
 -24709470.85349 -19216770.39648  20269108.2654   20269115.9224   20269108.8544
        56.0004         52.0004
  -1389791.68547  -1045338.42346  25202343.8844   25202370.2424   25202344.1834
        44.0004         40.0004
 -24291647.24749 -18892303.14848  20850221.8294   20850230.0814   20850222.0524
        57.0004         53.0004
 -15681806.06348 -12204237.11348  22527421.6524   22527430.4034   22527421.3274
        53.0004         48.0004
 -18219739.63949 -14167426.88448  21976242.2624   21976249.9914   21976242.6464
        55.0004         50.0004
  -1096701.16147   -822785.56046  24858536.9384   24858549.2254   24858539.2014
        43.0004         38.0004
 -17491095.21548 -13613877.63948  22167437.2894   22167444.2844   22167437.7564
        53.0004         48.0004
                                                                  25046983.338

 -22037924.54548 -17166618.16348  21940796.7864   21940808.3424   21940797.0944
        53.0004         48.0004
 11 10  1  0 17 30.0000000  0  9G27G25G15G12G09G18G17G04G26
 -24742133.18149 -19242221.56248  20262892.7954   20262900.6934   20262893.1664
        56.0004         52.0004
  -1469864.33547  -1107732.05646  25187104.2864   25187132.5684   25187105.2594
        44.0004         40.0004
 -24253936.91049 -18862918.57848  20857398.0824   20857406.2314   20857398.0294
        57.0004         53.0004
 -15739097.21248 -12248879.47648  22516519.4254   22516528.2244   22516519.5784
        53.0004         48.0004
 -18270420.40649 -14206918.38248  21966597.9194   21966606.1754   21966598.4164
        55.0004         50.0004
  -1053068.02347   -788785.91646  24866840.4774   24866852.5214   24866842.1084
        43.0004         38.0004
 -17430244.17148 -13566461.23348  22179017.3684   22179023.6894   22179017.2964
        53.0004         48.0004
   -106060.05248    -79721.03446  25035848.6734   25035860.4384   25035847.5614
        49.0004         37.0004
 -21955552.42048 -17102432.43848  21956471.6324   21956484.2344   21956471.7934
        53.0004         48.0004
 11 10  1  0 18  0.0000000  0  9G27G25G15G12G09G18G17G04G26
 -24774445.43549 -19267399.94348  20256743.9864   20256751.9714   20256744.4514
        56.0004         52.0004
  -1549800.50447  -1170019.32846  25171894.9874   25171919.8694   25171892.5194
        44.0004         39.0004
 -24215662.26649 -18833094.29048  20864681.5254   20864689.8884   20864681.5304
        57.0004         53.0004
 -15796139.95348 -12293328.26948  22505664.3074   22505673.4984   22505664.7994
        53.0004         48.0004
 -18321007.63149 -14246336.98148  21956971.6604   21956979.5774   21956972.3564
        55.0004         50.0004
  -1009112.08147   -754534.75046  24875205.7544   24875217.3204   24875207.2814
        43.0004         38.0004
 -17368883.89148 -13518648.02948  22190693.5294   22190700.0554   22190693.2484
        53.0004         48.0004
   -164488.60747   -125249.03846  25024729.1044   25024741.1534   25024728.6834
        45.0004         38.0004
 -21872773.03348 -17037929.38548  21972224.9564   21972236.4904   21972224.6764
        52.0004         48.0004
 11 10  1  0 18 30.0000000  0  9G27G25G15G12G09G18G17G04G26
 -24806405.96949 -19292304.25448  20250662.1574   20250669.9184   20250662.4374
        56.0004         52.0004
  -1629600.02747  -1232200.11546  25156707.7384   25156733.8024   25156708.3254
        44.0004         40.0004
 -24176824.59449 -18802831.28948  20872072.1304   20872080.5684   20872072.1124
        57.0004         53.0004
 -15852934.10648 -12337583.37348  22494856.8714   22494865.6744   22494856.5874
        53.0004         49.0004
 -18371499.94849 -14285681.62448  21947363.3514   21947371.1864   21947363.8734
        55.0004         50.0004
   -964836.46447   -720034.49346  24883631.0394   24883643.7864   24883632.5534
        43.0004         38.0004
 -17307016.78148 -13470439.89148  22202466.5474   22202473.1834   22202466.3154
        53.0004         48.0004
   -222828.82847   -170708.14746  25013625.4784   25013639.3964   25013626.6894
        43.0004         38.0004
 -21789588.79948 -16973110.86948  21988053.8974   21988066.3474   21988054.5744
        52.0004         48.0004
 11 10  1  0 19  0.0000000  0  9G27G25G15G12G09G18G17G04G26
 -24838012.78749 -19316932.94948  20244647.5984   20244655.3414   20244647.9034
        56.0004         52.0004
  -1709262.32647  -1294273.95846  25141548.0194   25141575.0444   25141547.3024
        45.0004         40.0004
 -24137424.55849 -18772130.08148  20879569.9154   20879578.2274   20879569.9834
        57.0004         53.0004
 -15909480.16748 -12381645.14948  22484096.4704   22484104.9294   22484097.0574
        53.0004         49.0004
 -18421895.66849 -14324951.00648  21937773.1644   21937780.9864   21937773.6374
        55.0004         50.0004
   -920242.76547   -685286.37246  24892116.5074   24892128.5084   24892118.5084
        43.0004         38.0004
 -17244644.68548 -13421838.25748  22214335.5854   22214342.0704   22214335.7644
        53.0004         48.0004
   -281077.85547   -216096.19046  25002541.8764   25002553.6174   25002541.0224
        43.0004         38.0004
 -21706001.77248 -16907978.50548  22003960.3974   22003973.2104   22003961.1404
        52.0004         48.0004
 11 10  1  0 19 30.0000000  0  9G27G25G15G12G09G18G17G04G26
 -24869264.56149 -19341284.97948  20238700.4834   20238708.2214   20238700.7954
        56.0004         52.0004
  -1788787.58047  -1356241.00746  25126413.0774   25126439.4814   25126413.4644
        45.0004         40.0004
 -24097463.98249 -18740992.08948  20887174.1544   20887182.4594   20887174.2654
        57.0004         53.0004
 -15965778.25548 -12425513.69548  22473383.5474   22473392.3934   22473383.0214
        53.0004         49.0004
 -18472193.93649 -14364144.44148  21928201.8404   21928209.9004   21928202.0994
        55.0004         50.0004
   -875334.12847   -650292.84846  24900664.6094   24900676.1274   24900663.5554
        43.0004         38.0004
 -17181770.27348 -13372845.19548  22226300.0424   22226306.4824   22226299.8494
        53.0004         48.0004
   -339233.55247   -261411.70046  24991474.4804   24991486.5004   24991475.6574
        43.0004         39.0004
 -21622014.50648 -16842534.26348  22019943.0294   22019955.8024   22019943.8614
        52.0004         48.0004
 11 10  1  0 20  0.0000000  0  9G27G25G15G12G09G18G17G04G26
 -24900158.63749 -19365358.28648  20232821.5984   20232829.5924   20232822.0404
        56.0004         52.0004
  -1868174.86747  -1418100.52746  25111307.0074   25111332.6624   25111308.4144
        45.0004         40.0004
 -24056943.25949 -18709417.62248  20894884.9944   20894893.5144   20894885.1394
        57.0004         53.0004
 -16021827.93948 -12469188.68948  22462717.2284   22462725.6974   22462717.5184
        53.0004         49.0004
 -18522393.03049 -14403260.61048  21918649.3394   21918657.1624   21918649.7944
        55.0004         50.0004
   -830112.83647   -615055.69146  24909269.1254   24909280.9314   24909269.6384
        43.0004         38.0004
 -17118395.45248 -13323462.20848  22238360.0314   22238366.9664   22238360.2814
        53.0004         48.0004
   -397292.49247   -306651.69046  24980426.0994   24980436.7934   24980426.4544
        43.0004         39.0004
 -21537628.62248 -16776779.43548  22036001.4224   22036013.7474   22036001.9984
        52.0004         48.0004
