     2.11           OBSERVATION DATA    G (GPS)             RINEX VERSION / TYPE
teqc  2016Apr1                          20160930 07:51:16UTCPGM / RUN BY / DATE
Linux 2.4.20-8|Pentium IV|gcc|Linux|486/DX+                 COMMENT
teqc  2016Apr1                          20160816 03:23:27UTCCOMMENT
teqc  2010Oct21     MSNCC               20111002 00:09:53UTCCOMMENT
Solaris 5.10|UltraSparc IIIi|cc -m64 SS12.1|=+|*Sparc       COMMENT
row                 Dataflow Processing 09/30/2011 23:59:46 COMMENT
tah2                                                        MARKER NAME
92201S011                                                   MARKER NUMBER
Monitor Station     NGA                                     OBSERVER / AGENCY
2                   ASHTECH Z-XII3                          REC # / TYPE / VERS
85414               ASH700936B_M    SNOW                    ANT # / TYPE
 -5246403.8660 -3077285.5540 -1913839.4590                  APPROX POSITION XYZ
        0.0000        0.0000        0.0000                  ANTENNA: DELTA H/E/N
     1     1                                                WAVELENGTH FACT L1/2
    10    L1    L2    C1    C2    P1    P2    D1    D2    S1# / TYPES OF OBSERV
          S2                                                # / TYPES OF OBSERV
teqc windowed: start @ 2011 Oct  1 00:10:00.000             COMMENT
teqc windowed:  end  @ 2011 Oct  1 00:20:00.000             COMMENT
  2011    10     1     0    10    0.0000000     GPS         TIME OF FIRST OBS
                                                            END OF HEADER
 11 10  1  0 10  0.0000000  0 11G09G12G14G15G18G21G22G25G27G30G31
  -6470686.87346  -4599807.73646  23875201.701                    23875200.9104
  23875207.5314      -2814.7524      -2193.2944         27.2104         27.5504
 -19912805.43947 -15512529.64347  21843245.190                    21843244.7174
  21843250.6614         39.0754         30.4434         38.3204         38.6704
 -11588923.56646  -9007803.22646  23188123.022                    23188122.6594
  23188129.6654       1189.1474        926.6064         23.7304         24.4304
  -5984499.15146  -4639468.77546  24472457.806                    24472458.5844
  24472469.6214      -1333.0994      -1038.7624         23.0404         23.3804
 -23385063.97448 -17665711.42048  20541287.775                    20541287.1184
  20541292.1934       -180.7744       -140.8624         43.1904         43.1904
  -7750023.48646  -6027781.71046  23308175.814                    23308175.2084
  23308187.3894      -2512.2704      -1957.5904         29.2904         29.2904
 -20262120.24447 -15577483.03747  21684203.858                    21684202.7534
  21684206.8184       2360.5664       1839.4014         37.9804         37.9804
 -21692242.81048 -16740111.93048  21491848.585                    21491848.2404
  21491858.9114       1847.4784       1439.5914         42.4904         41.8004
    248182.10445    216458.21345  24225369.094                    24225369.5804
  24225379.6954      -3168.4244      -2468.9034         17.1304         19.2104
 -11717802.78346  -9106697.06246  22654845.983                    22654845.0364
  22654859.1544       3060.7904       2385.0084         29.6404         29.6404
  -7386289.09346  -5511364.00146  24291915.054                    24291914.1004
  24291929.3574       2492.9874       1942.5774         23.7304         24.7704
 11 10  1  0 10 30.0000000  0 11G09G12G14G15G18G21G22G25G27G30G31
  -6386270.65746  -4534028.92746  23891265.047                    23891265.9514
  23891271.2074      -2813.0514      -2191.9934         26.8604         27.2104
 -19913712.69247 -15513236.54547  21843071.156                    21843070.9264
  21843078.0544         21.3284         16.6314         38.3204         38.6704
 -11624617.57246  -9035616.67546  23181331.009                    23181331.3204
  23181338.2384       1190.3874        927.5854         23.7304         24.7704
  -5944477.28446  -4608283.21446  24480074.279                    24480076.0374
  24480086.2484      -1335.1324      -1040.3564         22.3404         22.6904
 -23379403.49448 -17661300.69648  20542365.024                    20542364.1424
  20542369.3924       -196.6534       -153.2284         42.8404         43.1904
  -7674625.25346  -5969030.14346  23322523.697                    23322523.2864
  23322534.5254      -2514.2924      -1959.1464         29.2904         29.6404
 -20332790.54247 -15632550.79047  21670755.752                    21670754.6914
  21670758.8214       2350.7324       1831.7454         37.9804         37.9804
 -21747460.28148 -16783138.44848  21481340.701                    21481340.5554
  21481351.0124       1833.6174       1428.7974         42.1504         41.8004
    343215.45345    290510.04945  24243453.595                    24243452.1884
  24243463.0944      -3167.1114      -2467.8724         17.1304         18.5204
 -11809525.62446  -9178169.15546  22637391.352                    22637390.6344
  22637404.1754       3054.1054       2379.8114         29.6404         29.6404
  -7460948.04446  -5569539.38846  24277706.279                    24277706.9504
  24277721.8544       2484.1234       1935.6714         24.4304         25.4704
 11 10  1  0 11  0.0000000  0 11G09G12G14G15G18G21G22G25G27G30G31
  -6301906.36346  -4468290.56346  23907319.434                    23907319.6754
  23907325.4264      -2811.2274      -2190.5694         26.8604         27.9004
 -19914085.65047 -15513527.12747  21843000.486                    21843000.4604
  21843007.2994          3.6004          2.7984         38.6704         38.6704
 -11660347.20046  -9063457.89446  23174532.516                    23174529.7674
  23174537.2134       1191.6584        928.5604         23.7304         24.4304
  -5904393.79346  -4577049.60246  24487702.657                    24487703.2494
  24487714.7284      -1337.0364      -1041.8434         22.3404         23.7304
 -23373265.68548 -17656518.03748  20543532.608                    20543532.0754
  20543537.3974       -212.5074       -165.5944         42.8404         43.1904
  -7599166.62546  -5910231.51046  23336882.340                    23336882.0104
  23336895.4444      -2516.1834      -1960.6464         29.2904         29.6404
 -20403164.17047 -15687387.37147  21657364.338                    21657363.2284
  21657367.2074       2340.8694       1824.0474         38.3204         38.3204
 -21802259.92748 -16825839.38648  21470912.426                    21470912.1694
  21470922.5884       1819.7344       1417.9674         42.1504         41.8004
    438208.22345    364530.32945  24261530.491                    24261530.9094
  24261538.9354      -3165.7574      -2466.8194         16.4404         18.5204
 -11901045.22946  -9249482.87446  22619976.225                    22619975.0704
  22619988.8064       3047.3154       2374.5314         29.6404         29.9904
  -7535341.95446  -5627508.23346  24263550.232                    24263549.2174
  24263564.7554       2475.4224       1928.8814         25.1204         26.1604
 11 10  1  0 11 30.0000000  0 11G09G12G14G15G18G21G22G25G27G30G31
  -6217595.86246  -4402594.11246  23923363.243                    23923363.5124
  23923368.8624      -2809.4904      -2189.2184         26.5104         26.8604
 -19913923.63347 -15513400.84247  21843031.156                    21843030.9144
  21843037.7424        -14.3354        -11.1724         38.6704         38.6704
 -11696112.87846  -9091327.19546  23167725.499                    23167726.7034
  23167732.6904       1192.8034        929.4454         23.7304         24.4304
  -5864247.53946  -4545767.12846  24495342.733                    24495342.8884
  24495354.4794      -1339.2734      -1043.5784         23.0404         24.0804
 -23366649.52648 -17651362.63548  20544791.515                    20544791.0694
  20544796.4154       -228.5304       -178.0754         42.8404         43.1904
  -7523649.95046  -5851387.63147  23351255.432                    23351253.3054
  23351266.5064      -2518.1684      -1962.2094         29.6404         30.6804
 -20473238.56947 -15741990.78247  21644029.086                    21644028.2704
  21644032.3104       2330.7864       1816.2004         38.3204         37.9804
 -21856639.23348 -16868212.79448  21460564.362                    21460564.0264
  21460574.6684       1805.6204       1406.9674         42.1504         41.8004
    533158.71445    438517.64545  24279598.548                    24279598.2114
  24279607.8804      -3164.3064      -2465.6824         17.8304         19.9104
 -11992358.82546  -9320636.05746  22602598.657                    22602598.8194
  22602612.3094       3040.3504       2369.1014         29.6404         29.9904
  -7609469.98546  -5685269.93146  24249441.702                    24249442.9404
  24249458.4144       2466.5174       1921.9474         25.4704         26.1604
 11 10  1  0 12  0.0000000  0 11G09G12G14G15G18G21G22G25G27G30G31
  -6133341.01246  -4336941.03646  23939396.957                    23939396.8764
  23939403.7704      -2807.7144      -2187.8314         26.8604         27.5504
 -19913226.10147 -15512857.28547  21843164.064                    21843164.3124
  21843170.4824        -32.3494        -25.2134         38.6704         38.6704
 -11731915.17646  -9119225.03246  23160912.522                    23160911.4554
  23160919.4344       1193.8834        930.2924         23.7304         24.7704
  -5824037.69846  -4514435.09946  24502995.419                    24502995.5784
  24503006.6224      -1341.5724      -1045.3684         24.0804         25.1204
 -23359554.53748 -17645834.11948  20546141.711                    20546141.2554
  20546146.6834       -244.6814       -190.6624         42.8404         43.1904
  -7448077.90946  -5792500.63347  23365636.058                    23365635.5864
  23365647.7774      -2520.1144      -1963.7224         29.9904         30.6804
 -20543011.25847 -15796359.10147  21630751.726                    21630750.9134
  21630754.7814       2320.5574       1808.2294         38.3204         38.3204
 -21910595.74248 -16910256.74148  21450296.856                    21450296.7594
  21450307.2404       1791.2954       1395.8114         42.4904         42.1504
    628064.94645    512470.47445  24297660.664                    24297659.6234
  24297664.8424      -3162.9394      -2464.6284         17.1304         18.5204
 -12083463.59646  -9391626.53447  22585263.155                    22585262.4034
  22585274.9404       3033.1564       2363.4744         29.9904         30.6804
  -7683331.35246  -5742823.79946  24235387.970                    24235387.6804
  24235403.3614       2457.4434       1914.8744         25.8204         26.5104
 11 10  1  0 12 30.0000000  0 11G09G12G14G15G18G21G22G25G27G30G31
  -6049143.61946  -4271332.72746  23955418.526                    23955418.3124
  23955426.3394      -2805.6224      -2186.1954         26.8604         27.2104
 -19911992.23647 -15511895.80047  21843399.210                    21843398.6084
  21843405.0504        -50.1124        -39.0524         38.6704         39.0204
 -11767754.68146  -9147151.88846  23154094.058                    23154092.3734
  23154099.5084       1195.2044        931.3294         23.7304         24.7704
  -5783763.05246  -4483052.55546  24510658.654                    24510659.0644
  24510670.6494      -1343.6334      -1046.9754         24.0804         24.4304
 -23351979.88448 -17639931.84148  20547583.411                    20547582.8024
  20547588.0984       -260.5364       -203.0174         42.8404         43.1904
  -7372453.34146  -5733572.71147  23380026.631                    23380025.7244
  23380038.4484      -2521.7124      -1964.9464         29.9904         30.3304
 -20612479.78047 -15850490.39947  21617532.509                    21617531.3924
  21617535.5664       2310.4694       1800.3654         38.3204         38.3204
 -21964126.86248 -16951969.21448  21440110.742                    21440110.1064
  21440120.5984       1777.2224       1384.8464         42.4904         42.4904
    722925.51245    586387.71145  24315708.666                    24315707.7084
  24315717.7034      -3161.2584      -2463.3154         16.4404         18.5204
 -12174356.48947  -9462451.90147  22567966.076                    22567965.6124
  22567979.3414       3026.1874       2358.0684         30.6804         30.6804
  -7756925.26246  -5800169.27946  24221383.564                    24221382.6354
  24221398.7794       2448.6454       1908.0204         25.8204         26.5104
 11 10  1  0 13  0.0000000  0 11G09G12G14G15G18G21G22G25G27G30G31
  -5965005.36246  -4205770.49946  23971431.014                    23971430.7564
  23971436.2874      -2803.6004      -2184.6384         27.2104         27.9004
 -19910221.48047 -15510515.96947  21843734.962                    21843735.9744
  21843741.6414        -67.9584        -52.9594         38.6704         38.6704
 -11803631.53246  -9175107.81746  23147266.250                    23147265.0974
  23147272.6464       1196.5204        932.3464         24.4304         25.4704
  -5743422.81146  -4451618.92446  24518336.832                    24518337.3664
  24518346.4504      -1345.7634      -1048.6444         23.7304         24.7704
 -23343925.34048 -17633655.62248  20549116.079                    20549115.3014
  20549120.9564       -276.4774       -215.4374         42.4904         42.8404
  -7296778.76346  -5674605.80547  23394427.534                    23394427.0444
  23394439.1294      -2523.2474      -1966.1754         29.9904         30.6804
 -20681641.25647 -15904382.44647  21604371.285                    21604370.5124
  21604374.3324       2300.2564       1792.4014         38.3204         38.3204
 -22017230.06548 -16993348.24648  21430005.116                    21430004.7384
  21430015.3134       1762.9574       1373.7224         42.8404         42.4904
    817738.54245    660267.93545  24333752.709                    24333750.9804
  24333760.8134      -3159.5344      -2461.9724         16.0904         18.1704
 -12265034.64647  -9533109.92747  22550710.617                    22550710.3684
  22550723.1814       3019.0214       2352.4684         30.6804         31.3804
  -7830250.94946  -5857305.75046  24207429.164                    24207428.1034
  24207444.2254       2439.7164       1901.0674         26.1604         26.5104
 11 10  1  0 13 30.0000000  0 11G09G12G14G15G18G21G22G25G27G30G31
  -5880928.17746  -4140255.86046  23987429.846                    23987429.0374
  23987436.5854      -2801.5724      -2183.0344         26.8604         27.9004
 -19907913.49447 -15508717.51047  21844175.888                    21844175.6234
  21844180.8254        -85.9334        -66.9664         39.0204         39.0204
 -11839546.72146  -9203093.64146  23140433.317                    23140432.2564
  23140438.2404       1197.7984        933.3444         24.7704         25.4704
  -5703016.01346  -4420133.42346  24526025.188                    24526025.2284
  24526037.1934      -1348.0634      -1050.4294         24.0804         25.1204
 -23335390.57448 -17627005.20348  20550740.020                    20550739.5534
  20550745.1464       -292.5134       -227.9364         42.8404         43.1904
  -7221057.55346  -5615602.57247  23408836.502                    23408836.1834
  23408847.2824      -2524.8114      -1967.3874         29.9904         30.3304
 -20750493.58447 -15958033.59647  21591269.918                    21591268.5644
  21591272.0724       2289.8744       1784.3114         38.3204         37.9804
 -22069903.20248 -17034392.16348  21419981.731                    21419981.3464
  21419991.7094       1748.5424       1362.4914         42.8404         42.4904
    912501.99245    734109.48845  24351785.234                    24351785.8234
  24351793.2534      -3158.0224      -2460.7984         16.4404         19.2104
 -12355495.58247  -9603598.68147  22533494.487                    22533493.8014
  22533508.9684       3011.6654       2346.7394         30.3304         30.3304
  -7903308.05346  -5914232.94846  24193526.756                    24193526.8204
  24193541.1144       2430.6624       1894.0054         26.1604         26.5104
 11 10  1  0 14  0.0000000  0 11G09G12G14G15G18G21G22G25G27G30G31
  -5796913.72746  -4074790.09446  24003417.436                    24003417.4504
  24003423.8984      -2799.3794      -2181.3124         27.2104         27.2104
 -19905067.28947 -15506499.66847  21844716.356                    21844716.1934
  21844722.6354       -103.8094        -80.8904         39.0204         39.0204
 -11875499.75746  -9231108.94946  23133590.834                    23133590.2964
  23133596.4204       1199.1814        934.4204         24.7704         25.4704
  -5662541.45946  -4388595.13646  24533727.815                    24533728.1324
  24533739.1594      -1350.2404      -1052.1254         24.7704         25.8204
 -23326374.80148 -17619979.97548  20552455.867                    20552455.2424
  20552460.5944       -308.5024       -240.3874         42.4904         42.8404
  -7145291.61946  -5556564.49846  23423254.581                    23423253.4774
  23423266.6594      -2526.1954      -1968.4454         29.6404         29.6404
 -20819034.28647 -16011441.92147  21578226.117                    21578225.6234
  21578229.3474       2279.5434       1776.2784         38.3204         37.9804
 -22122143.43948 -17075098.74448  21410040.898                    21410040.2844
  21410050.8144       1734.1584       1351.2974         42.8404         42.4904
   1007214.55345    807911.40845  24369808.910                    24369807.9334
  24369817.5454      -3156.1024      -2459.3034         16.0904         18.1704
 -12445735.92046  -9673915.54047  22516322.798                    22516322.3284
  22516336.7884       3004.3964       2341.0834         29.9904         30.3304
  -7976095.17946  -5970949.75246  24179675.768                    24179676.0014
  24179690.4304       2421.7814       1887.1014         26.5104         27.5504
 11 10  1  0 14 30.0000000  0 11G09G12G14G15G18G21G22G25G27G30G31
  -5712963.43146  -4009374.33146  24019391.319                    24019390.2294
  24019399.2164      -2797.2084      -2179.6414         26.1604         26.8604
 -19901682.40947 -15503862.07647  21845361.068                    21845361.1744
  21845366.2814       -121.8174        -94.9194         39.0204         39.0204
 -11911491.53546  -9259154.45146  23126741.483                    23126740.1174
  23126746.8314       1200.4184        935.3924         24.4304         24.7704
  -5621998.03546  -4357003.18246  24541442.434                    24541442.3024
  24541453.6434      -1352.5864      -1053.9574         24.0804         24.7704
 -23316877.36648 -17612579.42148  20554263.332                    20554262.6854
  20554268.0664       -324.5984       -252.9284         42.8404         43.1904
  -7069483.65046  -5497493.65246  23437679.961                    23437679.6684
  23437692.9414      -2527.6044      -1969.5724         29.2904         29.2904
 -20887260.47047 -16064605.16947  21565243.674                    21565242.5304
  21565246.9434       2268.9354       1768.0064         38.3204         37.9804
 -22173948.42548 -17115466.17748  21400182.319                    21400182.0584
  21400192.5074       1719.5514       1339.9084         42.8404         42.4904
   1101874.60645    881672.35545  24387819.463                    24387818.9064
  24387831.9574      -3154.4374      -2458.0014         15.7404         17.4804
 -12535752.87947  -9744058.31547  22499193.754                    22499193.1614
  22499206.1664       2996.8194       2335.1654         30.3304         30.6804
  -8048611.99446  -6027455.93346  24165876.672                    24165875.3864
  24165889.3804       2412.7184       1880.0244         26.5104         26.8604
 11 10  1  0 15  0.0000000  0 11G09G12G14G15G18G21G22G25G27G30G31
  -5629079.17246  -3944010.03546  24035354.394                    24035355.4694
  24035360.8324      -2794.9694      -2177.9114         25.8204         25.4704
 -19897757.96447 -15500804.04947  21846107.991                    21846107.6904
  21846113.6784       -139.7994       -108.9344         39.0204         39.0204
 -11947522.53146  -9287230.49046  23119884.084                    23119883.3794
  23119890.5214       1201.7354        936.4194         24.4304         24.7704
  -5581384.79246  -4325356.82246  24549170.656                    24549171.6864
  24549182.9894      -1354.9584      -1055.7994         24.0804         25.1204
 -23306897.80748 -17604803.19148  20556162.040                    20556161.7464
  20556167.1654       -340.6914       -265.4804         42.8404         43.1904
  -6993636.64546  -5438392.39046  23452113.638                    23452113.3544
  23452125.1564      -2528.8314      -1970.5104         28.9404         29.6404
 -20955169.76447 -16117521.49747  21552320.258                    21552319.4164
  21552323.6764       2258.3634       1759.7554         37.9804         37.9804
 -22225315.69648 -17155492.52848  21390407.553                    21390407.0384
  21390417.4934       1704.9334       1328.5084         43.1904         42.8404
   1196480.37145    955391.10845  24405827.280                    24405826.3664
  24405833.7884      -3152.4664      -2456.4654         16.0904         18.1704
 -12625543.64747  -9814024.84547  22482105.783                    22482106.2334
  22482120.0264       2989.2444       2329.2804         30.6804         31.0304
  -8120857.65146  -6083750.81846  24152127.418                    24152127.4554
  24152140.8124       2403.6674       1872.9714         26.1604         26.5104
 11 10  1  0 15 30.0000000  0 11G09G12G14G15G18G21G22G25G27G30G31
  -5545262.78646  -3878698.60246  24051304.936                    24051304.0994
  24051310.9114      -2792.7774      -2176.1944         25.8204         25.4704
 -19893293.34547 -15497325.11447  21846956.422                    21846957.0014
  21846963.2004       -157.8294       -122.9824         39.3704         39.3704
 -11983592.74146  -9315337.10746  23113018.534                    23113019.6364
  23113027.5394       1202.9744        937.3794         24.4304         25.4704
  -5540700.85346  -4293655.40946  24556913.292                    24556913.3064
  24556925.6604      -1357.3194      -1057.6354         24.0804         24.4304
 -23296435.89148 -17596651.10448  20558153.012                    20558152.6084
  20558158.2814       -356.7984       -278.0234         42.8404         43.1904
  -6917752.89246  -5379262.49546  23466554.573                    23466553.0214
  23466567.4464      -2530.0334      -1971.4244         28.9404         29.6404
 -21022759.93847 -16170189.16547  21539458.212                    21539457.7104
  21539461.8014       2247.6574       1751.4194         37.9804         37.9804
 -22276242.87948 -17195175.95548  21380716.073                    21380715.8124
  21380726.2074       1690.1884       1317.0334         42.8404         42.4904
   1291030.15745   1029066.14045  24423817.548                    24423817.3684
  24423826.5614      -3150.7494      -2455.1234         16.4404         18.5204
 -12715105.22147  -9883812.79347  22465064.287                    22465063.8434
  22465076.1484       2981.5504       2323.2734         31.3804         31.7204
  -8192831.70546  -6139834.06646  24138430.495                    24138430.4704
  24138444.7784       2394.5704       1865.8964         25.8204         26.1604
 11 10  1  0 16  0.0000000  0 11G09G12G14G15G18G21G22G25G27G30G31
  -5461515.53046  -3813441.04946  24067240.292                    24067239.7404
  24067246.8724      -2790.3464      -2174.2844         25.4704         26.1604
 -19888288.61247 -15493425.30547  21847909.790                    21847909.9484
  21847915.5364       -175.8164       -137.0054         39.3704         39.3704
 -12019702.88346  -9343474.82946  23106148.216                    23106148.2314
  23106154.7394       1204.3494        938.4554         24.4304         25.4704
  -5499945.09446  -4261898.03346  24564669.075                    24564668.7234
  24564681.4154      -1359.6664      -1059.4604         24.0804         24.7704
 -23285490.81548 -17588122.52048  20560235.891                    20560235.3214
  20560241.0304       -372.8804       -290.5624         42.8404         43.1904
  -6841835.01046  -5320106.00746  23481000.867                    23481000.3104
  23481014.1194      -2531.1124      -1972.2914         28.6004         28.6004
 -21090028.24947 -16222606.02547  21526657.855                    21526656.5344
  21526661.1064       2236.9114       1743.0424         37.9804         37.6304
 -22326727.44948 -17234514.48348  21371109.106                    21371108.8224
  21371119.5334       1675.4484       1305.5374         42.8404         42.4904
   1385522.32145   1102696.26945  24441798.281                    24441798.5754
  24441809.0064      -3148.7404      -2453.5584         16.4404         18.5204
 -12804434.83747  -9953419.99747  22448064.881                    22448064.2054
  22448076.7214       2973.7884       2317.2204         31.3804         31.7204
  -8264532.99546  -6195704.78646  24124785.257                    24124786.3204
  24124800.0824       2385.5174       1858.8264         25.1204         25.4704
 11 10  1  0 16 30.0000000  0 11G09G12G14G15G18G21G22G25G27G30G31
  -5377839.54046  -3748239.02246  24083163.763                    24083163.4324
  24083171.2334      -2788.1334      -2172.5804         25.4704         25.8204
 -19882743.13347 -15489104.13747  21848965.141                    21848964.8234
  21848970.7954       -193.9294       -151.1074         39.3704         39.3704
 -12055853.39046  -9371644.00646  23099270.022                    23099268.9884
  23099275.8504       1205.6644        939.4754         24.4304         25.4704
  -5459116.51346  -4230083.89346  24572437.455                    24572439.1964
  24572451.0284      -1362.2124      -1061.4494         23.0404         23.7304
 -23274062.48148 -17579217.37948  20562410.446                    20562409.9644
  20562415.7474       -389.0514       -303.1514         42.4904         42.8404
  -6765885.80746  -5260925.11646  23495454.428                    23495454.6884
  23495466.2254      -2532.1944      -1973.1254         28.2504         28.9404
 -21156972.47747 -16274770.35647  21513918.558                    21513917.8004
  21513922.1074       2226.0054       1734.5594         37.9804         37.9804
 -22376767.31048 -17273506.48548  21361586.600                    21361586.4104
  21361597.1934       1660.4974       1293.8904         43.1904         42.8404
   1479955.03245   1176280.11145  24459767.135                    24459767.1694
  24459777.5894      -3146.6734      -2451.9484         16.0904         17.4804
 -12893529.78247 -10022844.33147  22431110.163                    22431109.8084
  22431121.6924       2965.8824       2311.0714         31.3804         31.0304
  -8335961.35746  -6251362.83146  24111193.585                    24111193.8694
  24111207.0184       2376.3534       1851.7044         24.7704         25.8204
 11 10  1  0 17  0.0000000  0 11G09G12G14G15G18G21G22G25G27G30G31
  -5294236.43346  -3683093.78046  24099073.965                    24099073.4314
  24099080.4154      -2785.6794      -2170.6704         25.8204         26.8604
 -19876656.39147 -15484361.21647  21850122.428                    21850123.2174
  21850129.0534       -211.9904       -165.1934         39.3704         39.0204
 -12092044.46246  -9399844.79246  23092381.887                    23092381.1774
  23092388.9764       1206.9834        940.4974         24.7704         25.4704
  -5418213.96546  -4198212.12846  24580222.504                    24580222.8764
  24580234.7194      -1364.7874      -1063.4584         22.3404         23.0404
 -23262150.40448 -17569935.29048  20564677.632                    20564676.9804
  20564682.5464       -405.2174       -315.7574         42.4904         43.1904
  -6689907.74546  -5201721.72746  23509912.762                    23509912.5574
  23509924.1424      -2533.1424      -1973.8774         28.2504         28.9404
 -21223589.77247 -16326679.93747  21501241.656                    21501241.2224
  21501245.4994       2215.0144       1725.9824         38.3204         38.3204
 -22426359.81148 -17312149.89748  21352149.951                    21352149.4124
  21352159.7214       1645.5414       1282.2334         43.1904         42.8404
   1574326.99745   1249816.59345  24477729.039                    24477728.4724
  24477735.0304      -3144.8484      -2450.5264         15.0504         17.8304
 -12982386.92647 -10092083.36947  22414200.505                    22414200.7734
  22414212.2704       2957.8434       2304.8264         31.0304         31.3804
  -8407115.77746  -6306807.42046  24097652.223                    24097652.4784
  24097665.4594       2367.1644       1844.5304         24.4304         24.7704
 11 10  1  0 17 30.0000000  0 11G09G12G14G15G18G21G22G25G27G30G31
  -5210707.76446  -3618006.56846  24114967.598                    24114966.9564
  24114974.2984      -2782.9174      -2168.5054         25.4704         26.5104
 -19870027.70847 -15479195.99347  21851385.014                    21851384.8874
  21851390.7024       -229.9164       -179.1594         39.3704         39.3704
 -12128276.20346  -9428077.29046  23085486.393                    23085486.9504
  23085495.2534       1208.5204        941.7064         24.7704         25.8204
  -5377236.49946  -4166281.99746  24588021.376                    24588020.8474
  24588032.5974      -1367.1774      -1065.3224         22.3404         23.3804
 -23249754.16548 -17560275.92648  20567036.282                    20567035.9754
  20567041.5584       -421.2164       -328.2184         42.4904         43.1904
  -6613903.57046  -5142497.98746  23524376.193                    23524375.2494
  23524389.3074      -2533.7844      -1974.3584         28.2504         28.6004
 -21289877.98447 -16378333.08347  21488628.472                    21488627.1454
  21488631.1854       2204.1604       1717.5344         38.6704         38.3204
 -22475502.67648 -17350442.95048  21342798.433                    21342797.8194
  21342807.8604       1630.6434       1270.6364         43.1904         42.8404
   1668636.31645   1323304.30345  24495673.143                    24495674.7594
  24495682.1454      -3142.5694      -2448.7554         15.7404         17.4804
 -13071003.48847 -10161134.90847  22397337.363                    22397336.4694
  22397350.0474       2949.9194       2298.6204         31.3804         31.3804
  -8477995.63946  -6362038.08946  24084164.027                    24084164.8214
  24084177.4124       2358.1284       1837.4824         24.4304         25.4704
 11 10  1  0 18  0.0000000  0 11G09G12G14G15G18G21G22G25G27G30G31
  -5127255.46346  -3552978.83746  24130850.320                    24130849.9994
  24130854.0294      -2780.5014      -2166.6144         25.4704         26.5104
 -19862856.94347 -15473608.37247  21852749.110                    21852749.1444
  21852754.8954       -248.0594       -193.2914         39.3704         39.0204
 -12164549.12046  -9456341.85546  23078585.617                    23078584.8844
  23078591.5604       1209.7934        942.6884         24.7704         25.4704
  -5336183.33046  -4134292.86846  24595834.535                    24595834.1844
  24595845.0774      -1369.6924      -1067.2754         22.3404         23.3804
 -23236873.08948 -17550238.77348  20569487.751                    20569487.0234
  20569492.7974       -437.4544       -340.8744         42.8404         43.1904
  -6537875.85946  -5083255.93346  23538843.637                    23538842.1114
  23538856.6124      -2534.6004      -1975.0154         28.2504         28.6004
 -21355834.16547 -16429727.50647  21476077.263                    21476076.2244
  21476080.1264       2192.9944       1708.8264         39.0204         39.0204
 -22524193.50648 -17388383.76748  21333532.392                    21333532.2264
  21333542.2864       1615.4494       1258.7894         43.1904         42.8404
   1762881.42145   1396741.97345  24513608.474                    24513606.2584
  24513616.8984      -3140.3604      -2447.0334         16.0904         18.5204
 -13159376.53647 -10229996.69847  22380520.241                    22380519.1904
  22380532.4594       2941.7094       2292.2184         31.3804         31.7204
  -8548600.51146  -6417054.48546  24070728.845                    24070728.3354
  24070741.7524       2348.8684       1830.2674         24.7704         25.4704
 11 10  1  0 18 30.0000000  0 11G09G12G14G15G18G21G22G25G27G30G31
  -5043880.90846  -3488011.70246  24146713.465                    24146713.5354
  24146721.2394      -2777.8054      -2164.5194         25.8204         25.8204
 -19855143.27547 -15467597.71747  21854217.224                    21854217.5034
  21854222.3974       -266.0994       -207.3454         39.0204         38.6704
 -12200863.52846  -9484638.75946  23071675.783                    23071675.9934
  23071680.8534       1211.2594        943.8414         25.1204         25.8204
  -5295053.29846  -4102243.86146  24603660.650                    24603660.4334
  24603673.5564      -1372.1594      -1069.1984         22.6904         23.7304
 -23223507.40048 -17539823.99748  20572031.382                    20572030.7824
  20572036.3564       -453.5454       -353.4144         42.8404         43.5404
  -6461827.11246  -5023997.46746  23553314.935                    23553314.1324
  23553326.9544      -2535.2294      -1975.4714         27.9004         27.9004
 -21421456.31947 -16480861.64847  21463589.963                    21463588.9514
  21463592.3774       2181.8684       1700.1604         39.0204         39.0204
 -22572430.06648 -17425970.60948  21324353.026                    21324352.7084
  21324363.0354       1600.3464       1247.0204         43.1904         42.8404
   1857060.85545   1470128.44345  24531529.477                    24531527.4324
  24531536.2864      -3138.2724      -2445.4044         13.3104         14.7004
 -13247503.26547 -10298666.55847  22363750.707                    22363749.4694
  22363762.1624       2933.5404       2285.8654         31.7204         32.0704
  -8618929.87046  -6471856.19046  24057344.280                    24057344.2844
  24057357.9144       2339.7614       1823.1894         24.7704         25.4704
 11 10  1  0 19  0.0000000  0 11G09G12G14G15G18G21G22G25G27G30G31
  -4960585.86446  -3423106.50746  24162564.304                    24162564.7214
  24162570.1504      -2775.1634      -2162.4734         25.1204         25.1204
 -19846887.15647 -15461164.37047  21855788.142                    21855788.2344
  21855793.7804       -284.2614       -221.5074         39.0204         39.0204
 -12237219.87946  -9512968.35546  23064756.954                    23064755.9474
  23064763.1244       1212.5804        944.8564         25.4704         25.8204
  -5253845.25546  -4070134.08546  24611502.925                    24611502.7234
  24611514.6094      -1374.8954      -1071.3374         22.6904         23.3804
 -23209656.26648 -17529030.94848  20574667.126                    20574666.6894
  20574671.9424       -469.8004       -366.0764         42.8404         43.5404
  -6385759.96746  -4964724.67046  23567789.853                    23567789.3604
  23567803.0324      -2535.8774      -1976.0044         27.2104         27.5504
 -21486741.75747 -16531733.41547  21451166.626                    21451165.5274
  21451169.1364       2170.5284       1691.3194         39.3704         39.3704
 -22620210.15248 -17463201.76248  21315261.301                    21315260.7564
  21315270.4984       1585.0224       1235.0794         43.1904         42.8404
   1951173.37044   1543462.76255  24549437.003                    24549441.5624
  24549447.8725      -3137.7534      -2445.0045          7.7504         11.2205
 -13335380.92347 -10367142.35547  22347027.820                    22347027.1314
  22347039.4114       2925.1024       2279.2894         32.0704         32.0704
  -8688982.79746  -6526442.52246  24044013.539                    24044012.1804
  24044027.1254       2330.4734       1815.9454         25.1204         25.8204
 11 10  1  0 19 30.0000000  0 10G09G12G14G15G18G21G22G25G30G31
  -4877371.70146  -3358264.34846  24178401.123                    24178400.4474
  24178408.7604      -2772.4424      -2160.3524         25.1204         26.1604
 -19838087.64947 -15454307.60347  21857462.509                    21857462.5234
  21857468.5514       -302.3824       -235.6214         39.0204         39.0204
 -12273618.48546  -9541330.84846  23057829.471                    23057829.9094
  23057836.8744       1213.9564        945.9364         25.1204         26.1604
  -5212558.20346  -4037962.74346  24619360.182                    24619360.3324
  24619372.2494      -1377.6514      -1073.4794         22.6904         23.3804
 -23195319.42248 -17517859.42548  20577395.468                    20577394.8094
  20577400.4874       -486.0194       -378.7134         42.8404         43.1904
  -6309677.05946  -4905439.59546  23582269.202                    23582268.5444
  23582282.0334      -2536.3124      -1976.3414         27.2104         27.5504
 -21551688.10447 -16582340.95647  21438807.951                    21438806.5224
  21438810.1504       2159.1974       1682.4994         39.7104         39.7104
 -22667531.30348 -17500075.30448  21306256.196                    21306255.7524
  21306265.6164       1569.6874       1223.1254         43.1904         42.8404
 -13423006.60547 -10435421.80147  22330353.058                    22330352.0414
  22330363.9224       2916.6204       2272.6964         32.0704         32.4204
  -8758758.59546  -6580812.90846  24030736.196                    24030735.4424
  24030748.9574       2321.1994       1808.7124         25.4704         26.1604
 11 10  1  0 20  0.0000000  0 10G09G12G14G15G18G21G22G25G30G31
  -4794240.17846  -3293486.59446  24194219.949                    24194219.4384
  24194226.7104      -2769.6324      -2158.1464         24.7704         25.8204
 -19828744.47547 -15447027.21347  21859240.339                    21859240.2504
  21859246.3924       -320.4704       -249.7154         38.6704         38.6704
 -12310059.32746  -9569726.26946  23050897.018                    23050895.1584
  23050901.4584       1215.4564        947.1124         25.8204         26.5104
  -5171190.79946  -4005728.75846  24627231.928                    24627231.9154
  24627244.2894      -1380.2514      -1075.5124         21.9904         22.6904
 -23180496.90448 -17506309.46048  20580216.291                    20580215.6924
  20580220.9464       -502.1274       -391.2684         42.8404         43.1904
  -6233581.20246  -4846144.41946  23596750.311                    23596749.8604
  23596762.9504      -2536.6254      -1976.5794         27.2104         27.9004
 -21616292.92747 -16632682.37247  21426513.595                    21426512.7494
  21426516.3444       2147.8164       1673.6184         39.7104         39.3704
 -22714391.24248 -17536589.46848  21297338.563                    21297338.3164
  21297348.5294       1554.3304       1211.1624         43.1904         42.8404
 -13510377.35147 -10503502.58347  22313726.344                    22313725.7874
  22313738.0454       2908.1424       2266.0744         32.0704         32.0704
  -8828256.82246  -6634967.03846  24017510.587                    24017510.7174
  24017524.2854       2312.0414       1801.5724         25.8204         27.2104
