     2.11           OBSERVATION DATA    G (GPS)             RINEX VERSION / TYPE
teqc  2016Apr1                          20160930 07:51:16UTCPGM / RUN BY / DATE
Linux 2.4.20-8|Pentium IV|gcc|Linux|486/DX+                 COMMENT
teqc  2016Apr1                          20160816 03:21:19UTCCOMMENT
teqc  2010Mar17     gpsops              20111002 00:16:50UTCCOMMENT
Linux 2.4.21-27.ELsmp|Opteron|gcc -static|Linux x86_64|=+   COMMENT
BIT 2 OF LLI FLAGS DATA COLLECTED UNDER A/S CONDITION       COMMENT
                                                            COMMENT
This data is provided as a public service by NASA/JPL.      COMMENT
No warranty is expressed or implied regarding suitability   COMMENT
for use.  For further information, contact:                 COMMENT
Dave Stowers, NASA/JPL m/s 238-600                          COMMENT
4800 Oak Grove Drive, Pasadena CA 91109 USA                 COMMENT
                                                            COMMENT
Forced Modulo Decimation to 30 seconds                      COMMENT
 SNR is mapped to RINEX snr flag value [0-9]                COMMENT
  L1 & L2: min(max(int(snr_dBHz/6), 0), 9)                  COMMENT
pseudorange smoothing corrections not applied               COMMENT
USUD                                                        MARKER NAME
21729S007                                                   MARKER NUMBER
GGN                 JPL                                     OBSERVER / AGENCY
ZR20012302          ASHTECH UZ-12       CQ00                REC # / TYPE / VERS
121                 AOAD/M_T        JPLA                    ANT # / TYPE
 -3855263.0361  3427432.5571  3741020.2929                  APPROX POSITION XYZ
       -0.0350        0.0000        0.0000                  ANTENNA: DELTA H/E/N
     1     1                                                WAVELENGTH FACT L1/2
     7    L1    L2    P1    P2    C1    S1    S2            # / TYPES OF OBSERV
    30.0000                                                 INTERVAL
teqc windowed: start @ 2011 Oct  1 00:10:00.000             COMMENT
teqc windowed:  end  @ 2011 Oct  1 00:20:00.000             COMMENT
  2011    10     1     0    10    0.0000000     GPS         TIME OF FIRST OBS
                                                            END OF HEADER
 11 10  1  0 10  0.0000000  0 10G31G16G30G23G21G13G29G19G06G03
 -11846585.35649  -9200238.40748  21295260.2864   21295262.3674   21295259.8664
        54.0004         50.0004
 -10457612.67648  -8116806.30548  21203632.6164   21203635.1934   21203633.3424
        53.0004         48.0004
  -8095831.41847  -6267495.27846  23411660.4574   23411667.7584   23411661.3984
        44.0004         40.0004
  -9425553.34748  -7300726.39147  22350325.2534   22350326.7604   22350325.5624
        49.0004         44.0004
  -9568703.33847  -7452501.06947  23263056.8324   23263059.1374   23263057.7744
        47.0004         43.0004
  -2383762.05847  -1670991.98946  23552636.4904   23552638.8924   23552634.6714
        43.0004         38.0004
  10717971.12847   8356610.61746  24674639.2904   24674643.9054   24674640.1854
        45.0004         40.0004
  -1793413.50147  -1303223.39446  23879800.5794   23879806.4364   23879800.8554
        44.0004         39.0004
 -21103839.47549 -16381162.50448  20584533.9334   20584537.3324   20584533.9514
        54.0004         50.0004
 -16138327.78048 -12570487.68748  21005853.1414   21005857.2714   21005853.8664
        53.0004         48.0004
 11 10  1  0 10 30.0000000  0 10G31G16G30G23G21G13G29G19G06G03
 -11791824.68349  -9157567.78848  21305681.2474   21305683.3514   21305680.6654
        54.0004         50.0004
 -10488158.94548  -8140608.58748  21197820.2114   21197822.1344   21197820.3784
        53.0004         48.0004
  -8016754.19147  -6205876.77546  23426709.9884   23426715.1254   23426711.2164
        44.0004         40.0004
  -9443377.16048  -7314615.11847  22346935.1674   22346935.8754   22346934.6894
        49.0004         44.0004
  -9588474.02347  -7467906.78047  23259293.4894   23259297.5034   23259294.7064
        47.0004         42.0004
  -2447326.13847  -1720522.40546  23540539.7154   23540543.7814   23540539.9304
        43.0004         39.0004
  10821575.63447   8437341.26046  24694354.7274   24694359.2854   24694354.3384
        45.0004         40.0004
  -1902730.59947  -1388405.39546  23858996.8544   23859004.1864   23858999.1734
        44.0004         39.0004
 -21145258.61349 -16413437.14048  20576652.1634   20576655.8694   20576652.0354
        54.0004         50.0004
 -16215434.34248 -12630570.69048  20991180.1314   20991184.1574   20991180.3734
        53.0004         48.0004
 11 10  1  0 11  0.0000000  0 10G31G16G30G23G21G13G29G19G06G03
 -11736675.36749  -9114594.32548  21316175.6334   21316177.5444   21316175.2224
        54.0004         49.0004
 -10518504.97148  -8164254.84348  21192045.0754   21192048.0624   21192045.8124
        53.0004         48.0004
  -7937593.81447  -6144193.48846  23441773.7494   23441779.4374   23441773.1414
        44.0004         40.0004
  -9460606.79448  -7328040.82547  22343655.9714   22343658.3814   22343656.6664
        49.0004         45.0004
  -9607819.99647  -7482981.56447  23255613.0614   23255616.2364   23255612.6274
        47.0004         43.0004
  -2510389.82947  -1769662.91846  23528538.6164   23528541.9774   23528540.2294
        43.0004         38.0004
  10925235.61947   8518115.11446  24714080.7164   24714085.0354   24714081.5134
        45.0004         40.0004
  -2011866.67547  -1473446.33246  23838230.2144   23838235.8044   23838231.5574
        44.0004         40.0004
 -21186198.75449 -16445338.52648  20568861.7534   20568865.1264   20568861.7984
        54.0004         50.0004
 -16292141.58748 -12690342.53348  20976583.4234   20976587.4194   20976584.0704
        53.0004         48.0004
 11 10  1  0 11 30.0000000  0 10G31G16G30G23G21G13G29G19G06G03
 -11681137.83149  -9071318.35448  21326743.6554   21326746.0154   21326743.2864
        54.0004         49.0004
 -10548650.96648  -8187745.23448  21186308.5494   21186311.6974   21186309.0114
        53.0004         49.0004
  -7858350.83247  -6082445.83946  23456853.2974   23456858.9424   23456855.1794
        44.0004         40.0004
  -9477241.82748  -7341003.22347  22340490.0354   22340492.6734   22340490.7484
        49.0004         44.0004
  -9626739.70747  -7497724.18947  23252012.6154   23252018.0514   23252014.3974
        47.0004         43.0004
  -2572951.22447  -1818412.03946  23516634.6714   23516639.3234   23516633.3584
        44.0004         39.0004
  11028948.74847   8598930.41046  24733816.6564   24733820.9024   24733815.8564
        44.0004         40.0004
  -2120819.71747  -1558344.65746  23817497.7724   23817502.3694   23817499.0414
        45.0004         40.0004
 -21226659.95549 -16476866.71948  20561162.1484   20561165.1834   20561162.1704
        54.0004         50.0004
 -16368448.44848 -12749802.39448  20962062.4494   20962066.6404   20962062.9074
        53.0004         48.0004
 11 10  1  0 12  0.0000000  0 10G31G16G30G23G21G13G29G19G06G03
 -11625212.42849  -9027740.15148  21337385.9214   21337388.2634   21337386.1924
        54.0004         49.0004
 -10578597.07248  -8211079.86648  21180610.0834   21180612.4384   21180610.7554
        53.0004         49.0004
  -7779025.34347  -6020633.88546  23471948.5734   23471953.5454   23471947.5254
        44.0004         39.0004
  -9493282.01948  -7353502.12147  22337438.2814   22337438.2584   22337438.2544
        49.0004         44.0004
  -9645231.78447  -7512133.60847  23248494.0584   23248496.6804   23248494.7034
        47.0004         43.0004
  -2635008.35347  -1866768.21246  23504824.7844   23504828.5444   23504824.9904
        43.0004         39.0004
  11132712.98947   8679785.52646  24753562.2194   24753567.3744   24753561.8104
        44.0004         40.0004
  -2229587.82947  -1643098.82446  23796798.2804   23796803.5984   23796800.4034
        45.0004         40.0004
 -21266641.63049 -16508021.25548  20553553.6864   20553557.4814   20553553.6264
        55.0004         50.0004
 -16444353.15148 -12808948.89348  20947617.8464   20947622.5944   20947618.4334
        53.0004         48.0004
 11 10  1  0 12 30.0000000  0 10G31G16G30G23G21G13G29G19G06G03
 -11568899.69549  -8983860.14148  21348102.0954   21348103.9294   21348101.8714
        54.0004         49.0004
 -10608343.43148  -8234258.85548  21174949.6704   21174951.3734   21174950.3434
        53.0004         49.0004
  -7699617.62347  -5958757.86446  23487058.4544   23487064.7194   23487059.4464
        44.0004         39.0004
  -9508727.50048  -7365537.59947  22334500.0854   22334500.2904   22334498.6644
        49.0004         45.0004
  -9663295.46147  -7526209.18647  23245056.7784   23245060.3524   23245055.3684
        47.0004         42.0004
  -2696559.09447  -1914729.82846  23493112.3254   23493119.0814   23493111.0844
        44.0004         39.0004
  11236526.09247   8760678.71446  24773316.9504   24773322.6564   24773316.3614
        44.0004         40.0004
  -2338168.80647  -1727707.20146  23776136.0614   23776142.7484   23776138.5444
        44.0004         39.0004
 -21306143.87149 -16538802.21048  20546036.7854   20546040.1914   20546036.9204
        55.0004         50.0004
 -16519854.77648 -12867781.30448  20933251.6274   20933255.0094   20933251.7794
        53.0004         48.0004
 11 10  1  0 13  0.0000000  0 10G31G16G30G23G21G13G29G19G06G03
 -11512200.14149  -8939678.70548  21358892.0364   21358894.1924   21358891.1554
        54.0004         49.0004
 -10637890.34048  -8257282.41648  21169327.4514   21169329.9174   21169327.9364
        53.0004         49.0004
  -7620127.90547  -5896817.95346  23502185.0094   23502192.2754   23502187.6714
        44.0004         39.0004
  -9523577.63748  -7377109.16247  22331673.5244   22331674.0904   22331673.0884
        49.0004         44.0004
  -9680929.21647  -7539949.78147  23241700.0624   23241703.4844   23241701.4384
        47.0004         42.0004
  -2757601.56847  -1962295.35246  23481496.2414   23481499.2134   23481496.4494
        44.0004         39.0004
  11340386.04847   8841608.39846  24793081.4624   24793085.8784   24793078.8194
        44.0004         40.0004
  -2446560.61647  -1812168.24546  23755511.2334   23755516.8704   23755511.6194
        44.0004         40.0004
 -21345166.15149 -16569209.17048  20538611.1294   20538614.5254   20538610.9584
        55.0004         50.0004
 -16594951.66848 -12926298.33748  20918960.6594   20918964.2824   20918961.1634
        53.0004         48.0004
 11 10  1  0 13 30.0000000  0 10G31G16G30G23G21G13G29G19G06G03
 -11455114.23749  -8895196.22248  21369755.2374   21369756.7614   21369754.7524
        54.0004         49.0004
 -10667238.00848  -8280150.73348  21163742.5674   21163745.1404   21163743.8324
        53.0004         49.0004
  -7540556.50647  -5834814.39646  23517328.1374   23517334.0784   23517329.2234
        44.0004         40.0004
  -9537832.53648  -7388216.90347  22328960.6224   22328961.6954   22328960.2834
        49.0004         45.0004
  -9698132.30947  -7553354.77947  23238426.5564   23238429.9194   23238427.7804
        47.0004         42.0004
  -2818133.60947  -2009463.16346  23469977.7384   23469983.1734   23469976.7144
        44.0004         39.0004
  11444290.99547   8922573.16046  24812853.5614   24812859.5684   24812852.0784
        44.0004         40.0004
  -2554761.17947  -1896480.23246  23734920.9944   23734926.7534   23734922.1874
        45.0004         40.0004
 -21383708.46749 -16599242.12748  20531276.4854   20531280.3474   20531276.6304
        55.0004         50.0004
 -16669642.92448 -12984499.29648  20904747.7324   20904750.9944   20904748.2794
        53.0004         48.0004
 11 10  1  0 14  0.0000000  0 10G31G16G30G23G21G13G29G19G06G03
 -11397642.13949  -8850412.81048  21380691.8444   21380694.0564   21380691.9224
        54.0004         49.0004
 -10696386.83848  -8302864.10148  21158195.6964   21158197.9204   21158196.0964
        53.0004         49.0004
  -7460903.53447  -5772747.28846  23532484.9914   23532491.3524   23532486.4704
        44.0004         39.0004
  -9551491.77948  -7398860.48747  22326360.8984   22326363.2614   22326361.4504
        49.0004         45.0004
  -9714903.16747  -7566422.97947  23235234.0564   23235238.7864   23235235.7574
        47.0004         42.0004
  -2878153.00947  -2056231.50946  23458556.9784   23458559.1714   23458556.4314
        44.0004         39.0004
  11548238.56347   9003571.14046  24832633.2754   24832640.1834   24832633.1164
        44.0004         39.0004
  -2662768.31947  -1980641.51246  23714367.1294   23714371.5334   23714368.0394
        45.0004         40.0004
 -21421770.28649 -16628900.67348  20524033.4614   20524037.1514   20524033.8034
        55.0004         50.0004
 -16743927.03748 -13042382.99948  20890611.5284   20890614.9884   20890612.2064
        53.0004         48.0004
 11 10  1  0 14 30.0000000  0 10G31G16G30G23G21G13G29G19G06G03
 -11339784.79149  -8805329.20448  21391701.3444   21391703.7854   21391701.0504
        54.0004         49.0004
 -10725336.81948  -8325422.52548  21152686.2814   21152688.9454   21152685.7914
        53.0004         49.0004
  -7381169.33347  -5710616.88046  23547660.5024   23547665.4124   23547658.2034
        44.0004         39.0004
  -9564555.35148  -7409039.93947  22323874.8044   22323876.4674   22323875.0634
        49.0004         44.0004
  -9731240.71547  -7579153.53047  23232127.1004   23232130.5804   23232126.4464
        47.0004         42.0004
  -2937658.08247  -2102599.07946  23447232.9714   23447236.3464   23447232.9094
        44.0004         40.0004
  11652226.63247   9084600.63746  24852422.0514   24852427.0934   24852421.8474
        44.0004         39.0004
  -2770580.40947  -2064650.81346  23693852.3234   23693856.7954   23693853.3034
        45.0004         40.0004
 -21459351.67249 -16658184.86048  20516882.3414   20516885.9264   20516882.4674
        55.0004         50.0004
 -16817802.93448 -13099948.60348  20876552.9644   20876557.5254   20876553.4114
        53.0004         48.0004
 11 10  1  0 15  0.0000000  0 10G31G16G30G23G21G13G29G19G06G03
 -11281542.47249  -8759945.62248  21402784.5524   21402786.6684   21402784.1954
        54.0004         49.0004
 -10754088.10648  -8347826.12548  21147214.7434   21147217.9124   21147215.3784
        53.0004         49.0004
  -7301354.13347  -5648423.34046  23562845.7574   23562851.7904   23562844.7154
        44.0004         39.0004
  -9577023.33248  -7418755.30347  22321503.2424   22321504.7064   22321503.4034
        49.0004         44.0004
  -9747144.00247  -7591545.72447  23229100.0834   23229102.4294   23229101.7304
        47.0004         42.0004
  -2996646.75947  -2148564.28446  23436008.1134   23436011.4804   23436006.6654
        44.0004         40.0004
  11756253.68647   9165660.54446  24872217.7774   24872225.4954   24872218.8724
        44.0004         39.0004
  -2878194.62647  -2148505.93746  23673373.4614   23673377.3804   23673374.2784
        45.0004         40.0004
 -21496452.19349 -16687094.34748  20509821.9714   20509825.4844   20509822.1784
        55.0004         50.0004
 -16891269.38148 -13157195.16148  20862573.2394   20862577.3864   20862573.8864
        53.0004         48.0004
 11 10  1  0 15 30.0000000  0 10G31G16G30G23G21G13G29G19G06G03
 -11222916.08549  -8714262.76748  21413940.6784   21413942.9194   21413940.4734
        54.0004         49.0004
 -10782640.85148  -8370075.02048  21141781.6574   21141784.2794   21141782.0484
        53.0004         49.0004
  -7221458.16347  -5586166.89146  23578050.0914   23578058.0244   23578050.5614
        44.0004         39.0004
  -9588895.72148  -7428006.53847  22319244.8314   22319245.0314   22319244.7764
        49.0004         44.0004
  -9762611.75247  -7603598.50947  23226156.4634   23226159.1874   23226157.2354
        47.0004         43.0004
  -3055117.68147  -2194126.02846  23424881.2314   23424884.3944   23424881.3554
        44.0004         40.0004
  11860317.14047   9246748.79846  24892019.8334   24892026.3734   24892019.2174
        44.0004         39.0004
  -2985609.47347  -2232205.71946  23652932.2044   23652937.6064   23652933.4214
        45.0004         40.0004
 -21533071.96149 -16715629.21948  20502853.5634   20502857.1384   20502853.3394
        55.0004         50.0004
 -16964325.24848 -13214121.78548  20848671.0474   20848674.8904   20848670.8544
        53.0004         48.0004
 11 10  1  0 16  0.0000000  0 10G31G16G30G23G21G13G29G19G06G03
 -11163905.64049  -8668280.65448  21425170.4074   21425172.2934   21425169.8194
        54.0004         49.0004
 -10810995.29448  -8392169.38448  21136385.8484   21136388.6424   21136386.2614
        53.0004         49.0004
  -7141481.66247  -5523847.68946  23593269.2014   23593275.0244   23593269.0124
        44.0004         39.0004
  -9600172.30948  -7436793.50847  22317098.0394   22317099.6014   22317098.3374
        49.0004         45.0004
  -9777642.76147  -7615310.98447  23223297.6714   23223300.8104   23223297.8264
        47.0004         42.0004
  -3113068.13947  -2239282.22546  23413854.0084   23413856.1694   23413852.9524
        44.0004         40.0004
  11964415.14847   9327863.93946  24911830.1104   24911835.6494   24911832.3154
        44.0004         39.0004
  -3092822.84947  -2315748.51346  23632530.1954   23632535.3044   23632530.3644
        45.0004         40.0004
 -21569210.50049 -16743789.11448  20495976.8954   20495979.7884   20495976.9354
        55.0004         50.0004
 -17036968.95048 -13270727.25248  20834847.4734   20834850.9114   20834847.7744
        53.0004         48.0004
 11 10  1  0 16 30.0000000  0 10G31G16G30G23G21G13G29G19G06G03
 -11104511.99149  -8621999.93448  21436472.6644   21436474.3454   21436472.3054
        54.0004         49.0004
 -10839151.89448  -8414109.58848  21131028.1184   21131030.5724   21131027.7794
        53.0004         49.0004
  -7061424.84147  -5461465.90846  23608503.7404   23608510.7844   23608503.5434
        44.0004         39.0004
  -9610853.06348  -7445116.19347  22315065.8384   22315067.4184   22315067.3124
        49.0004         45.0004
  -9792235.94147  -7626682.30447  23220520.3654   23220523.8724   23220520.7214
        47.0004         42.0004
  -3170496.32847  -2284031.45846  23402923.5454   23402928.9894   23402922.9924
        44.0004         39.0004
  12068545.69347   9409004.47846  24931646.3584   24931653.1604   24931646.1294
        44.0004         39.0004
  -3199832.51847  -2399132.57346  23612167.1724   23612171.5184   23612168.5934
        45.0004         41.0004
 -21604867.96949 -16771574.14948  20489191.5654   20489194.7064   20489191.7244
        55.0004         50.0004
 -17109199.40748 -13327010.69748  20821102.5504   20821106.4364   20821102.2974
        53.0004         49.0004
 11 10  1  0 17  0.0000000  0 10G31G16G30G23G21G13G29G19G06G03
 -11044735.58449  -8575420.96348  21447847.7034   21447849.8354   21447847.6274
        54.0004         49.0004
 -10867110.24348  -8435895.32148  21125707.4934   21125710.4924   21125707.6704
        53.0004         49.0004
  -6981287.93947  -5399021.73046  23623754.5494   23623759.1364   23623754.2214
        44.0004         39.0004
  -9620938.09748  -7452974.68747  22313145.6964   22313147.1964   22313146.6894
        49.0004         44.0004
  -9806390.25947  -7637711.65147  23217826.2664   23217828.7874   23217827.0884
        47.0004         42.0004
  -3227400.31547  -2328372.20746  23392097.0014   23392100.4054   23392097.8174
        44.0004         40.0004
  12172706.81447   9490168.83346  24951466.8124   24951473.9544   24951469.5714
        43.0004         39.0004
  -3306636.52547  -2482356.37546  23591843.5434   23591846.9844   23591844.2294
        45.0004         40.0004
 -21640044.14649 -16798984.14848  20482497.8464   20482500.9374   20482497.9784
        55.0004         50.0004
 -17181015.33748 -13382971.13348  20807435.9894   20807439.8764   20807436.7034
        53.0004         48.0004
 11 10  1  0 17 30.0000000  0 10G31G16G30G23G21G13G29G19G06G03
 -10984577.02749  -8528544.20548  21459295.1174   21459297.2704   21459294.9944
        54.0004         49.0004
 -10894871.15248  -8457527.19748  21120424.7964   21120427.7804   21120424.9654
        53.0004         49.0004
  -6901071.15547  -5336515.29946  23639018.9734   23639024.5554   23639019.8814
        44.0004         39.0004
  -9630427.46948  -7460369.04447  22311341.2904   22311342.6184   22311340.7004
        49.0004         45.0004
  -9820104.78647  -7648398.29047  23215217.1224   23215219.9704   23215217.5204
        47.0004         43.0004
  -3283778.41447  -2372303.17246  23381369.0854   23381371.2964   23381367.6124
        45.0004         40.0004
  12276896.66247   9571355.54546  24971293.0574   24971300.1824   24971293.9024
        43.0004         39.0004
  -3413233.07447  -2565418.50846  23571559.2144   23571562.0664   23571560.1354
        45.0004         40.0004
 -21674738.96649 -16826019.05448  20475895.0174   20475899.0674   20475895.2754
        55.0004         50.0004
 -17252415.69548 -13438607.74548  20793849.2704   20793853.1654   20793849.2204
        53.0004         48.0004
 11 10  1  0 18  0.0000000  0 10G31G16G30G23G21G13G29G19G06G03
 -10924037.15349  -8481370.32148  21470815.4904   21470818.1444   21470815.5764
        54.0004         49.0004
 -10922434.75148  -8479005.31848  21115179.8694   21115182.0674   21115179.8584
        53.0004         49.0004
  -6820774.79247  -5273946.85846  23654299.0344   23654304.6994   23654298.3964
        44.0004         39.0004
  -9639321.27348  -7467299.29147  22309648.3884   22309650.4434   22309648.2264
        49.0004         44.0004
  -9833378.51147  -7658741.45947  23212691.5354   23212693.2604   23212690.9514
        47.0004         43.0004
  -3339629.24447  -2415823.27546  23370740.8234   23370743.5174   23370740.0944
        44.0004         40.0004
  12381112.93847   9652562.88446  24991125.4214   24991131.1774   24991126.6254
        43.0004         39.0004
  -3519619.87947  -2648317.21446  23551312.5584   23551318.3214   23551313.8004
        45.0004         40.0004
 -21708952.30849 -16852678.79048  20469384.8394   20469388.4114   20469385.2344
        55.0004         50.0004
 -17323399.44048 -13493919.72848  20780341.0724   20780345.0034   20780341.8444
        53.0004         49.0004
 11 10  1  0 18 30.0000000  0 10G31G16G30G23G21G13G29G19G06G03
 -10863116.59049  -8433899.79848  21482408.6864   21482410.9214   21482408.1014
        54.0004         49.0004
 -10949800.95148  -8500329.62648  21109972.3044   21109974.7064   21109972.5784
        53.0004         49.0004
  -6740398.95647  -5211316.50346  23669593.7914   23669599.8764   23669594.6504
        43.0004         39.0004
  -9647619.58748  -7473765.53247  22308068.6264   22308070.1454   22308069.5134
        49.0004         44.0004
  -9846210.22747  -7668740.19147  23210248.6544   23210251.9124   23210249.0964
        47.0004         43.0004
  -3394950.19347  -2458930.50346  23360213.0204   23360218.5384   23360213.1874
        44.0004         40.0004
  12485353.64847   9733789.24846  25010963.9134   25010969.3704   25010962.0644
        43.0004         38.0004
  -3625795.18147  -2731051.10046  23531109.5844   23531110.8824   23531109.9304
        45.0004         41.0004
 -21742683.97249 -16878963.19848  20462965.7414   20462969.2314   20462965.5704
        55.0004         50.0004
 -17393965.42648 -13548906.18348  20766912.9234   20766917.2274   20766913.6154
        53.0004         49.0004
 11 10  1  0 19  0.0000000  0 10G31G16G30G23G21G13G29G19G06G03
 -10801815.58049  -8386132.82048  21494074.3234   21494076.2944   21494073.8104
        54.0004         49.0004
 -10976969.91148  -8521500.23548  21104802.2914   21104804.6944   21104802.3694
        53.0004         49.0004
  -6659943.88047  -5148624.36846  23684903.2724   23684911.5094   23684902.3074
        43.0004         38.0004
  -9655322.52048  -7479767.85447  22306602.6024   22306605.1924   22306603.8454
        49.0004         44.0004
  -9858598.86847  -7678393.70347  23207890.8964   23207895.0554   23207892.6154
        47.0004         43.0004
  -3449739.67747  -2501623.58846  23349787.0474   23349791.1314   23349786.3064
        44.0004         40.0004
  12589617.13647   9815033.37746  25030802.5794   25030808.4494   25030804.6384
        43.0004         38.0004
  -3731756.86947  -2813618.53946  23510944.7034   23510949.1354   23510945.1264
        46.0004         41.0004
 -21775934.03149 -16904872.33148  20456638.6134   20456641.9704   20456638.3884
        55.0004         50.0004
 -17464112.40748 -13603566.13648  20753564.4034   20753568.3234   20753564.5474
        53.0004         49.0004
 11 10  1  0 19 30.0000000  0 10G31G16G30G23G21G13G29G19G06G03
 -10740134.88449  -8338069.98148  21505811.7274   21505813.4804   21505811.5194
        54.0004         49.0004
 -11003941.76048  -8542517.26248  21099669.6954   21099672.3814   21099669.9794
        53.0004         49.0004
  -6579409.91347  -5085870.78746  23700229.9704   23700234.5974   23700229.0584
        43.0004         38.0004
  -9662430.13948  -7485306.29947  22305250.6084   22305252.0814   22305251.6004
        49.0004         44.0004
  -9870543.69447  -7687701.35747  23205617.4794   23205621.6774   23205618.1094
        47.0004         43.0004
  -3503996.20547  -2543901.39546  23339463.1314   23339466.3984   23339462.4084
        45.0004         40.0004
  12693901.08547   9896293.44546  25050647.4244   25050651.8574   25050648.8194
        43.0004         38.0004
  -3837502.67747  -2896017.75846  23490822.1074   23490826.2744   23490822.3494
        46.0004         41.0004
 -21808702.47449 -16930406.18048  20450402.9054   20450406.1194   20450402.9434
        55.0004         50.0004
 -17533839.00448 -13657898.52648  20740296.3094   20740300.1564   20740296.7284
        53.0004         49.0004
 11 10  1  0 20  0.0000000  0 10G31G16G30G23G21G13G29G19G06G03
 -10678075.27349  -8289711.89548  21517621.0284   21517623.0694   21517620.6704
        54.0004         49.0004
 -11030717.21648  -8563381.25048  21094574.3564   21094577.3194   21094574.7654
        53.0004         49.0004
  -6498797.19247  -5023055.83746  23715569.6064   23715577.2804   23715569.8434
        43.0004         39.0004
  -9668943.02148  -7490381.30647  22304011.4164   22304013.8444   22304011.6064
        49.0004         44.0004
  -9882043.94147  -7696662.60647  23203430.1784   23203433.2784   23203429.5784
        47.0004         43.0004
  -3557718.10547  -2585762.62146  23329239.4604   23329244.7114   23329238.6304
        44.0004         40.0004
  12798203.80747   9977568.12346  25070498.0024   25070503.3144   25070495.6674
        42.0004         38.0004
  -3943031.31947  -2978247.76047  23470740.5674   23470745.2394   23470740.6414
        46.0004         42.0004
 -21840989.46549 -16955564.86148  20444258.6994   20444262.1794   20444258.9154
        55.0004         50.0004
 -17603144.68648 -13711902.93648  20727107.4854   20727111.4254   20727107.9414
        53.0004         49.0004
