     2.11           OBSERVATION DATA    G (GPS)             RINEX VERSION / TYPE
teqc  2016Apr1                          20160930 07:51:15UTCPGM / RUN BY / DATE
Linux 2.4.20-8|Pentium IV|gcc|Linux|486/DX+                 COMMENT
teqc  2016Apr1                          20160816 03:08:06UTCCOMMENT
teqc  2010Mar17     gpsops              20111002 00:05:44UTCCOMMENT
Linux 2.4.21-27.ELsmp|Opteron|gcc -static|Linux x86_64|=+   COMMENT
     2.10           OBSERVATION DATA    GPS                 COMMENT
soc2rnx ver 1.20    gpsops               2-Oct-2011 00:05:44COMMENT
S1, if present, is the SNR for the C/A data stream on L1.   COMMENT
 SNR is mapped to RINEX snr flag value [1,4-9]              COMMENT
    SNR:   >316  >100  >31.6  >10  >3.2    >0 bad=0         COMMENT
L1 & L2:      9     8     7     6     5     4     1         COMMENT
                                                            COMMENT
This data is provided as a public service by NASA/JPL.      COMMENT
No warranty is expressed or implied regarding suitability   COMMENT
for use.  For further information, contact:                 COMMENT
Dave Stowers, NASA/JPL m/s 238-600                          COMMENT
4800 Oak Grove Drive, Pasadena CA 91109 USA                 COMMENT
                                                            COMMENT
Forced Modulo Decimation to 30 seconds                      COMMENT
BOGT                                                        MARKER NAME
41901M001                                                   MARKER NUMBER
GGN                 JPL                                     OBSERVER / AGENCY
UC120031609         ASHTECH UZ-12       CQ00                REC # / TYPE / VERS
CR620024311         ASH701945E_M    NONE                    ANT # / TYPE
  1744399.0397 -6116037.5577   512731.7532                  APPROX POSITION XYZ
        0.0610        0.0000        0.0000                  ANTENNA: DELTA H/E/N
     1     1                                                WAVELENGTH FACT L1/2
     7    L1    L2    P1    P2    C1    S1    S2            # / TYPES OF OBSERV
    30.0000                                                 INTERVAL
teqc windowed: start @ 2011 Oct  1 00:10:00.000             COMMENT
teqc windowed:  end  @ 2011 Oct  1 00:20:00.000             COMMENT
  2011    10     1     0    10    0.0000000     GPS         TIME OF FIRST OBS
                                                            END OF HEADER
 11 10  1  0 10  0.0000000  0  6G12G02G05G15G29G26
 118996830.29747  92724744.71747  22644389.7754   22644401.9274   22644389.8764
        50.000          44.000
 116336631.71347  90651910.18647  22138131.8064   22138137.7684   22138132.3184
        52.000          46.000
 117964842.89247  91920630.25547  22447982.2964   22447988.4234   22447981.6954
        52.000          46.000
 110100850.24247  85792835.96547  20951520.0684   20951529.5714   20951519.7704
        55.000          50.000
 137887357.16547  89652457.17547  24336176.8314   24336184.9384   24336176.9214
        45.000          40.000
 106095232.31147  82671577.25647  20189276.7644   20189285.4684   20189276.8044
        57.000          51.000
 11 10  1  0 10 30.0000000  0  6G12G02G05G15G29G26
 119024843.62947  92746573.12047  22649720.0804   22649733.1754   22649720.0594
        50.000          45.000
 116310266.40147  90631365.68947  22133114.5404   22133120.2844   22133114.8024
        52.000          46.000
 118024656.85947  91967238.46247  22459364.7974   22459371.5194   22459364.2874
        52.000          46.000
 110036029.21147  85742326.26747  20939184.9404   20939194.5104   20939184.6984
        55.000          50.000
 137784983.04547  89572685.13747  24316696.0334   24316703.7904   24316695.1284
        46.000          41.000
 106077245.59947  82657561.59147  20185853.8814   20185862.9804   20185853.7054
        57.000          51.000
 11 10  1  0 11  0.0000000  0  6G12G02G05G15G29G26
 119053073.82447  92768570.48947  22655092.5244   22655104.8824   22655092.1554
        50.000          44.000
 116283975.52847  90610879.19047  22128111.9844   22128117.9284   22128112.3474
        52.000          46.000
 118084469.87747  92013845.93847  22470746.7264   22470753.7224   22470746.4414
        51.000          46.000
 109971665.20447  85692172.83047  20926936.7554   20926945.9594   20926936.5754
        55.000          50.000
 137682700.71447  89492984.64847  24297232.3354   24297239.2314   24297233.2654
        45.000          40.000
 106059899.76147  82644045.32747  20182553.1594   20182562.1184   20182553.0984
        57.000          51.000
 11 10  1  0 11 30.0000000  0  8G12G02G05G15G29G26G04G25
 119081461.49447  92790690.58147  22660494.2874   22660506.9014   22660494.4104
        50.000          45.000
 116257704.62747  90590408.24647  22123112.6074   22123118.3384   22123112.4324
        52.000          46.000
 118144222.82447  92060406.60747  22482117.2624   22482123.7644   22482116.7904
        52.000          46.000
 109907704.16347  85642333.64447  20914765.0624   20914773.8454   20914764.6564
        55.000          50.000
 137580455.78847  89413313.30647  24277775.8514   24277782.6694   24277775.6974
        45.000          40.000
 106043139.44447  82630985.31047  20179363.8184   20179372.5734   20179363.8834
        57.000          51.000
 136820375.03557  88821017.26257  24133156.2005   24133169.5535   24133154.3335
        45.000          40.000
 115251597.26857 107598578.35357  23834639.0345   23834656.1895   23834640.1775
        45.000          38.000
 11 10  1  0 12  0.0000000  0  6G12G02G05G29G26G25
 119110074.15947  92812985.97147  22665939.5234   22665952.2454   22665939.1044
        49.000          44.000
 116231525.58847  90570008.86047  22118131.1664   22118137.0804   22118131.4684
        52.000          46.000
 118203983.63647  92106973.38647  22493489.9144   22493495.7414   22493489.6034
        51.000          46.000
 137478320.73647  89333727.55247  24258339.9694   24258346.6894   24258340.5454
        45.000          40.000
 106027035.75547  82618436.94047  20176299.4004   20176308.2084   20176299.5274
        57.000          51.000
 115245918.42347 107594152.96247  23833558.6474   23833576.4864   23833559.9514
        42.000          37.000
 11 10  1  0 12 30.0000000  0  6G12G02G05G15G29G26
 119138878.99247  92835431.11847  22671421.2654   22671433.7234   22671421.2094
        50.000          45.000
 116205410.12847  90549659.01547  22113161.7244   22113167.8224   22113162.2964
        52.000          46.000
 118263719.97047  92153521.12347  22504857.2564   22504863.9504   22504856.6544
        51.000          46.000
 119781166.35457  75543734.50357  20890684.4785   20890692.0105   20890684.3615
        59.000          52.000
 137376267.75347  89254205.76347  24238919.8864   24238926.6634   24238920.7864
        44.000          41.000
 106011559.47547  82606377.44147  20173354.4764   20173363.1634   20173354.5994
        56.000          51.000
 11 10  1  0 13  0.0000000  0  6G12G02G05G15G29G26
 119167863.90647  92858016.58447  22676937.0744   22676949.9334   22676937.0894
        50.000          45.000
 116179350.88847  90529352.96747  22108202.7774   22108209.0954   22108202.8574
        52.000          46.000
 118323420.56247  92200041.00347  22516217.6764   22516224.5194   22516217.7454
        51.000          46.000
  99718578.46457  95494969.01057  20878771.5655   20878778.1365   20878771.4445
        57.000          51.000
 137274289.81447  89174742.42847  24219514.1694   24219521.0164   24219512.8204
        44.000          41.000
 105996702.58847  82594800.56447  20170527.0584   20170536.0834   20170526.8644
        56.000          51.000
 11 10  1  0 13 30.0000000  0  5G12G02G05G29G26
 119197039.64747  92880750.76647  22682488.8884   22682501.7274   22682488.6074
        49.000          45.000
 116153363.38147  90509102.81347  22103257.6344   22103263.7684   22103258.1434
        52.000          46.000
 118383096.43047  92246541.59647  22527574.1604   22527580.0764   22527573.8694
        52.000          46.000
 137172403.04347  89095350.17047  24200125.7994   24200132.8604   24200126.0394
        45.000          40.000
 105982479.19747  82583717.31747  20167820.8204   20167829.7004   20167820.8004
        57.000          51.000
 11 10  1  0 14  0.0000000  0  7G12G02G05G15G29G26G25
 119226400.40347  92903629.10247  22688076.4984   22688089.2434   22688076.5134
        50.000          45.000
 116127446.21947  90488907.50147  22098325.8004   22098332.0324   22098325.9104
        52.000          46.000
 118442742.09047  92293018.63147  22538924.1964   22538930.5444   22538923.8734
        51.000          46.000
 119594736.06157  75398468.38257  20855204.9265   20855211.3765   20855204.9145
        58.000          52.000
 137070606.23847  89016028.02347  24180754.6434   24180761.6234   24180755.8344
        44.000          40.000
 105968887.26747  82573126.12347  20165234.3774   20165243.3844   20165234.5034
        56.000          51.000
 135226203.00557  87578789.99557  23829806.5735   23829823.5645   23829807.6625
        46.000          35.000
 11 10  1  0 14 30.0000000  0  8G12G02G05G15G29G26G04G25
 119255938.45547  92926645.59247  22693697.6134   22693710.4544   22693697.0484
        51.000          45.000
 116101596.40947  90468764.65347  22093406.8084   22093412.9174   22093406.9224
        52.000          46.000
 118502350.63147  92339466.75047  22550266.9034   22550274.1884   22550266.8424
        50.000          46.000
  99533503.80157  95350758.71957  20843551.0355   20843556.9315   20843550.7475
        56.000          49.000
 136968896.78247  88936773.92247  24161399.4224   24161407.0244   24161399.2384
        44.000          41.000
 105955922.68247  82563023.78547  20162767.1454   20162776.2734   20162767.2224
        56.000          51.000
 116943112.54557 108916655.17557  24156513.2315   24156526.8545   24156515.2455
        42.000          42.000
 115221999.46157 107575513.59257  23829007.5455   23829024.7775   23829008.1145
        45.000          38.000
 11 10  1  0 15  0.0000000  0  8G12G02G05G15G29G26G04G25
 119285646.60247  92949794.59347  22699351.0194   22699363.7614   22699351.1884
        50.000          45.000
 116075811.05647  90448672.02947  22088499.7854   22088506.4224   22088500.1684
        52.000          46.000
 118561915.18247  92385880.59947  22561602.1184   22561608.7224   22561602.0434
        51.000          46.000
 119472696.04957  75303370.54957  20831982.2835   20831990.0605   20831982.5215
        50.000          49.000
 136867272.65647  88857586.29047  24142061.1074   24142068.7164   24142059.9274
        44.000          40.000
 105943581.37747  82553407.12347  20160418.8364   20160427.7994   20160418.8734
        57.000          51.000
 136964047.05257  88932962.90057  24160500.3425   24160515.0635   24160501.1865
        48.000          42.000
 135218114.67257  87572490.00157  23828265.5955   23828283.1235   23828265.9995
        45.000          39.000
 11 10  1  0 15 30.0000000  0  7G12G02G05G15G29G26G25
 119315534.51347  92973083.70947  22705038.5604   22705051.3624   22705038.0144
        50.000          45.000
 116050104.40247  90428640.71847  22083608.2644   22083615.1304   22083608.6864
        52.000          46.000
 118621445.71347  92432267.94847  22572930.7264   22572937.2044   22572930.1814
        51.000          46.000
  99412369.03357  95256365.21057  20820501.3985   20820507.8185   20820501.7965
        52.000          45.000
 136765748.09847  88778476.27347  24122741.2384   24122749.2484   24122741.0964
        43.000          40.000
 105931876.70447  82544286.54047  20158191.5834   20158200.4624   20158191.5234
        57.000          51.000
 135214502.96347  87569675.32147  23827579.0614   23827597.0504   23827578.8244
        43.000          39.000
 11 10  1  0 16  0.0000000  0  6G12G02G05G29G26G25
 119345610.35247  92996519.23647  22710762.0044   22710774.8904   22710761.5354
        50.000          45.000
 116024489.73547  90408681.08347  22078733.9514   22078740.6294   22078734.2324
        52.000          46.000
 118680952.08147  92478636.47547  22584254.0994   22584261.0134   22584253.7094
        51.000          46.000
 136664336.94847  88699454.60047  24103443.5564   24103451.3264   24103443.7674
        44.000          40.000
 105920820.80347  82535671.47947  20156087.7534   20156096.7924   20156087.8714
        57.000          51.000
 135211196.10347  87567098.23047  23826949.8384   23826967.2114   23826950.2284
        40.000          36.000
 11 10  1  0 16 30.0000000  0  7G12G02G05G15G29G26G25
 119375845.55047  93020078.96647  22716515.6494   22716528.6444   22716515.7684
        51.000          45.000
 115998943.03247  90388774.39047  22073872.5024   22073879.5134   22073872.6484
        51.000          46.000
 118740405.19347  92524963.50447  22595567.6584   22595574.7094   22595567.2444
        51.000          46.000
 119293127.84357  75163453.52857  20797808.1075   20797813.7195   20797807.9505
        55.000          49.000
 136563015.52547  88620502.83647  24084162.5004   24084170.3604   24084162.5504
        41.000          39.000
 105910388.22647  82527542.11647  20154102.4894   20154111.7234   20154102.4944
        57.000          51.000
 115208129.88357 107564700.58957  23826372.9755   23826391.2095   23826373.6355
        39.000          36.000
 11 10  1  0 17  0.0000000  0  7G12G02G05G15G29G26G25
 119406258.40847  93043777.13847  22722303.2594   22722316.1664   22722303.0234
        51.000          45.000
 115973487.00847  90368938.35247  22069028.8804   22069035.6924   22069029.1094
        52.000          46.000
 118799824.44347  92571264.14547  22606875.1904   22606881.1284   22606875.0194
        51.000          45.000
  99234199.05457  95117534.97257  20786594.3855   20786599.9085   20786594.2675
        57.000          52.000
 136461807.29947  88541639.25547  24064902.1884   24064911.4954   24064901.6404
        39.000          39.000
 105900600.95147  82519915.57247  20152240.3094   20152249.2804   20152240.3924
        57.000          51.000
 135205349.47757  87562522.67057  23825852.1585   23825873.2855   23825853.1705
        40.000          35.000
 11 10  1  0 17 30.0000000  0  5G12G02G05G26G25
 119436831.34647  93067600.04147  22728120.9974   22728134.0944   22728120.8464
        51.000          45.000
 115948108.50047  90349162.72147  22064199.3094   22064206.1004   22064199.6184
        52.000          46.000
 118859192.55147  92617524.92747  22618172.6834   22618179.0194   22618172.4234
        51.000          46.000
 105891444.24847  82512780.37747  20150497.8164   20150506.7994   20150497.8534
        57.000          51.000
 115203006.99657 107560721.87057  23825387.1475   23825402.4065   23825387.1585
        40.000          34.000
 11 10  1  0 18  0.0000000  0  8G12G02G05G15G29G26G04G25
 119467563.56347  93091547.07647  22733969.6734   22733982.5354   22733969.5914
        50.000          45.000
 115922812.01247  90329450.97447  22059386.3344   22059392.6864   22059386.8634
        52.000          46.000
 118918509.40447  92663745.75847  22629460.0894   22629467.0194   22629459.7994
        52.000          46.000
 119117720.93157  75026770.09557  20764431.5595   20764437.5365   20764431.2225
        57.000          53.000
 116259678.91957 108384132.62357  24026443.6905   24026451.4655   24026444.6715
        40.000          38.000
 105882921.35047  82506139.05347  20148875.9534   20148885.1824   20148875.8704
        57.000          51.000
 117092986.67257 109033440.54557  24185034.0855   24185046.7375   24185033.8295
        42.000          39.000
 135200718.57157  87558916.54857  23824971.2515   23824988.7075   23824970.4435
        42.000          34.000
 11 10  1  0 18 30.0000000  0  7G12G02G05G15G29G26G25
 119498468.25347  93115628.50947  22739850.1824   22739863.4704   22739849.8604
        51.000          45.000
 115897614.77747  90309816.58547  22054591.2564   22054598.2514   22054591.4414
        53.000          46.000
 118977788.43447  92709937.12647  22640740.7574   22640747.1594   22640740.4104
        51.000          46.000
  99060218.65457  94981966.47457  20753486.6275   20753492.1445   20753486.0895
        49.000          50.000
 116158798.84647 108305524.77747  24007246.2724   24007254.1324   24007247.8134
        41.000          38.000
 105875048.29247  82500004.10947  20147377.9454   20147387.0464   20147378.0534
        57.000          51.000
 135198834.78647  87557448.31247  23824614.2414   23824632.1024   23824615.1404
        40.000          36.000
 11 10  1  0 19  0.0000000  0  5G12G02G05G29G26
 119529531.14047  93139833.22147  22745761.7074   22745774.4314   22745761.4444
        51.000          45.000
 115872507.63547  90290252.39347  22049814.0334   22049820.5574   22049814.3824
        52.000          46.000
 119037017.13147  92756089.27547  22652011.3574   22652017.7394   22652011.2294
        51.000          45.000
 116058033.25547 108227006.10947  23988071.6484   23988079.0884   23988071.0744
        39.000          39.000
 105867814.70547  82494367.46347  20146001.4294   20146010.6634   20146001.4894
        57.000          51.000
 11 10  1  0 19 30.0000000  0  7G12G02G05G15G29G26G04
 119560748.60347  93164158.38947  22751702.3634   22751715.4834   22751702.2464
        51.000          45.000
 115847491.46947  90270759.11347  22045053.4104   22045060.1624   22045053.4724
        53.000          46.000
 119096191.51047  92802199.10747  22663272.2394   22663278.6134   22663271.9774
        51.000          46.000
 118946626.96557  74893457.17457  20731866.8815   20731871.1305   20731866.5575
        48.000          49.000
 135957402.83857  88148596.22457  23968918.7215   23968925.8095   23968917.0875
        40.000          38.000
 105861219.86747  82489228.54147  20144746.6214   20144755.7464   20144746.6384
        57.000          51.000
 137159561.13057  89085317.04557  24197701.8115   24197715.3495   24197700.4235
        43.000          37.000
 11 10  1  0 20  0.0000000  0  7G12G02G05G29G26G04G25
 119592116.80447  93188600.99647  22757671.5104   22757684.7444   22757671.3874
        50.000          45.000
 115822567.15247  90251337.39347  22040310.8714   22040317.4414   22040311.2394
        53.000          47.000
 119155308.66247  92848264.34347  22674521.5604   22674528.4954   22674521.5084
        51.000          45.000
 115856850.08857 108070241.25257  23949787.2505   23949794.7705   23949787.3785
        43.000          39.000
 105855263.28147  82484586.96247  20143613.1764   20143622.3424   20143613.2734
        57.000          51.000
 117182022.25457 109102810.69957  24201983.9005   24201997.9295   24201983.3505
        46.000          40.000
 115194959.69857 107554449.62757  23823857.4085   23823873.1965   23823856.2485
        44.000          35.000
