     2.11           OBSERVATION DATA    M (MIXED)           RINEX VERSION / TYPE
teqc  2016Apr1                          20160930 07:51:16UTCPGM / RUN BY / DATE
Linux 2.4.20-8|Pentium IV|gcc|Linux|486/DX+                 COMMENT
teqc  2016Apr1                          20160816 03:34:07UTCCOMMENT
teqc  2010Oct21                         20111002 01:30:20UTCCOMMENT
MSXP|IAx86-PII|bcc32 5.0|MSWin95->XP|486/DX+                COMMENT
teqc  2010Oct21                         20111001 01:00:45UTCCOMMENT
Forced Modulo Decimation to 30 seconds                      COMMENT
IMoS GFileSrv 3.60  Lantmäteriet        30.09.2011          COMMENT
ONSA                                                        MARKER NAME
10402M004                                                   MARKER NUMBER
SWEPOS              LMV                                     OBSERVER / AGENCY
AG72YY6YV40         JPS E_GGD           2.6.1 Jan,10,2008   REC # / TYPE / VERS
020                 AOAD/M_B        OSOD                    ANT # / TYPE
  3370658.8318   711876.9387  5349786.7450                  APPROX POSITION XYZ
        0.9950        0.0000        0.0000                  ANTENNA: DELTA H/E/N
     1     1                                                WAVELENGTH FACT L1/2
     7    C1    L1    L2    P1    P2    S1    S2            # / TYPES OF OBSERV
    30.0000                                                 INTERVAL
teqc windowed: start @ 2011 Oct  1 00:10:00.000             COMMENT
teqc windowed:  end  @ 2011 Oct  1 00:20:00.000             COMMENT
  2011    10     1     0    10    0.0000000     GPS         TIME OF FIRST OBS
    15                                                      LEAP SECONDS
                                                            END OF HEADER
 11 10  1  0 10  0.0000000  0 19G23R01R12R18R17G05R02G29G16G13R11G10
                                G04R19R10G02R08G07G08
  22618625.646 7 118861722.673 7  92619553.19244  22618625.331 4  22618625.415 4
        46.000          31.000
  19954001.082 8 106665604.936 8  82962180.06846  19954000.445 8  19954003.861 6
        52.000          43.000
  21475244.331 7 114716918.016 7  89224305.75847  21475244.133 7  21475249.279 7
        49.000          45.000
  22521304.836 7 120220253.192 7  93504693.38346  22521304.462 7  22521308.965 6
        46.000          42.000
  24186105.276 5 129424727.911 5 100663709.70843  24186104.150 5  24186108.069 3
        36.000          29.000
  22922401.546 7 120458051.635 7  93863434.30444  22922401.827 4  22922403.918 4
        45.000          32.000
  19839566.640 8 105867752.831 8  82341629.95548  19839566.283 8  19839569.111 8
        54.000          50.000
  24650564.984 6 129539605.155 6 100939974.30041  24650566.151 1  24650568.081 1
        40.000          19.000
  23160620.061 7 121709888.604 7  94838892.38843  23160619.018 3  23160620.770 3
        45.000          26.000
  20799414.903 8 109301680.102 8  85170184.23546  20799414.744 6  20799416.012 6
        52.000          40.000
  19512036.481 8 104266418.566 8  81096159.99046  19512035.887 8  19512039.845 6
        51.000          44.000
  20281354.458 8 106579262.228 8  83048797.37646  20281353.465 6  20281356.718 6
        52.000          42.000
  23368672.589 6 122803254.027 6  95690864.50843  23368672.142 3  23368676.287 3
        44.000          25.000
  23188179.136 6 124041139.000 6  96476493.03146  23188178.939 6  23188182.778 6
        42.000          40.000
  22265504.979 7 118687687.289 7  92312689.30345  22265504.084 7  22265509.826 5
        48.000          37.000
  21860646.150 7 114878490.763 7  89515724.61945  21860645.999 5  21860646.314 5
        49.000          36.000
  24027747.073 5 128667518.693 5 100074788.12745  24027744.553 5  24027746.958 5
        37.000          36.000
  21122996.182 8 111002123.737 8  86495177.11946  21122996.406 6  21122998.400 6
        50.000          41.000
  22988319.861 7 120804469.942 7  94133362.33544  22988318.909 4  22988323.157 4
        45.000          30.000
 11 10  1  0 10 30.0000000  0 19G23R01R12R18R17G05R02G29G16G13R11G10
                                G04R19R10G02R08G07G08
  22635830.897 7 118952136.828 7  92690005.77144  22635830.750 4  22635830.294 4
        46.000          31.000
  19966329.367 8 106731506.022 8  83013436.45546  19966328.637 8  19966332.080 6
        51.000          43.000
  21453290.935 7 114599647.623 7  89133095.48847  21453290.159 7  21453295.738 7
        48.000          45.000
  22530012.694 7 120266732.097 7  93540843.65246  22530011.586 7  22530015.623 6
        47.000          41.000
  24208475.790 5 129544442.168 5 100756820.80744  24208475.201 5  24208479.830 4
        37.000          31.000
  22904879.165 7 120365967.476 7  93791680.44544  22904878.936 4  22904881.112 4
        45.000          32.000
  19828248.122 8 105807356.905 8  82294655.35447  19828247.754 8  19828250.752 7
        54.000          49.000
  24654267.569 5 129559062.139 5 100955135.45641  24654268.848 1  24654270.074 1
        39.000          19.000
  23159858.495 7 121705895.667 7  94835781.00043  23159858.035 3  23159861.361 3
        45.000          27.000
  20810663.823 8 109360793.970 8  85216246.99146  20810663.554 6  20810665.072 6
        51.000          40.000
  19513414.508 8 104273784.033 8  81101888.69246  19513414.285 8  19513418.116 6
        50.000          44.000
  20283788.426 8 106592052.130 8  83058763.53446  20283787.437 6  20283790.593 6
        52.000          42.000
  23388149.374 6 122905598.642 6  95770613.53343  23388148.679 3  23388152.263 3
        43.000          25.000
  23176609.867 6 123979245.625 6  96428353.82645  23176609.327 6  23176611.208 5
        44.000          38.000
  22287196.927 7 118803315.014 7  92402621.82945  22287195.554 7  22287200.807 5
        48.000          36.000
  21865353.389 7 114903228.133 7  89535000.47445  21865353.172 5  21865353.813 5
        49.000          36.000
  24050885.836 5 128791442.609 5 100171173.47545  24050886.449 5  24050888.869 5
        36.000          36.000
  21111697.767 8 110942750.582 8  86448912.33946  21111697.953 6  21111700.051 6
        50.000          41.000
  22968871.218 7 120702266.099 7  94053723.00144  22968870.845 4  22968874.247 4
        46.000          31.000
 11 10  1  0 11  0.0000000  0 19G23R01R12R18R17G05R02G29G16G13R11G10
                                G04R19R10G02R08G07G08
  22653076.998 7 119042763.460 7  92760623.93544  22653076.778 4  22653076.277 4
        47.000          31.000
  19978756.488 8 106797937.240 8  83065105.17946  19978756.072 8  19978759.242 6
        52.000          43.000
  21431413.692 7 114482784.922 7  89042202.30547  21431413.346 7  21431419.000 7
        49.000          45.000
  22538857.442 7 120313952.996 7  93577571.05746  22538857.189 7  22538862.117 6
        46.000          41.000
  24230886.415 5 129664362.976 5 100850092.49444  24230885.326 5  24230889.558 4
        36.000          33.000
  22887405.267 6 120274142.977 6  93720128.89644  22887405.273 4  22887408.130 4
        44.000          32.000
  19817025.313 8 105747467.910 8  82248075.02747  19817024.905 8  19817027.407 7
        54.000          49.000
  24658076.171 5 129579073.917 5 100970728.92141  24658074.601 1  24658078.044 1
        37.000          17.000
  23159219.972 6 121702533.340 6  94833160.94643  23159218.927 3  23159221.228 3
        44.000          27.000
  20821985.662 8 109420290.465 8  85262607.89746  20821985.463 6  20821987.141 6
        52.000          40.000
  19514946.621 8 104281971.181 8  81108256.47746  19514946.332 8  19514950.180 6
        50.000          44.000
  20286328.004 8 106605396.050 8  83069161.39346  20286326.678 6  20286329.921 6
        51.000          42.000
  23407667.076 6 123008166.994 6  95850536.89543  23407666.438 3  23407670.393 3
        44.000          25.000
  23165170.333 6 123918054.016 6  96380760.32645  23165169.168 6  23165172.197 5
        43.000          39.000
  22308954.848 7 118919302.085 7  92492833.80445  22308954.167 7  22308960.314 5
        47.000          35.000
  21870176.723 7 114928573.087 7  89554749.78745  21870176.274 5  21870177.025 5
        48.000          36.000
  24074049.269 5 128915466.579 5 100267636.48945  24074047.757 5  24074050.616 5
        38.000          38.000
  21100494.689 8 110883875.976 8  86403036.03946  21100494.634 6  21100496.603 6
        51.000          41.000
  22949470.094 7 120600309.856 7  93974276.59944  22949469.127 4  22949472.385 4
        46.000          31.000
 11 10  1  0 11 30.0000000  0 19G23R01R12R18R17G05R02G29G16G13R11G10
                                G04R19R10G02R08G07G08
  22670363.146 7 119133601.491 7  92831406.80444  22670362.717 4  22670362.208 4
        47.000          30.000
  19991283.001 8 106864897.531 8  83117185.39446  19991282.225 8  19991285.974 6
        52.000          43.000
  21409613.689 7 114366333.319 7  88951628.86347  21409613.338 7  21409618.736 7
        49.000          45.000
  22547842.336 7 120361913.517 7  93614873.70446  22547841.576 7  22547846.723 6
        46.000          42.000
  24253333.523 5 129784486.398 5 100943521.66744  24253333.382 4  24253338.741 4
        35.000          33.000
  22869980.577 7 120182580.272 7  93648781.34844  22869981.378 4  22869983.772 4
        45.000          33.000
  19805897.262 8 105688088.319 8  82201890.90947  19805896.926 8  19805899.882 7
        54.000          49.000
  24661989.290 5 129599639.563 5 100986753.95341  24661989.185 1  24661992.329 1
        37.000          15.000
  23158699.014 6 121699802.048 6  94831032.64843  23158699.062 3  23158700.538 3
        44.000          26.000
  20833379.599 8 109480168.284 8  85309265.93546  20833379.501 6  20833381.282 6
        52.000          40.000
  19516632.649 8 104290978.917 8  81115262.48946  19516632.066 7  19516636.013 6
        50.000          44.000
  20288972.145 8 106619293.554 8  83079990.61846  20288971.087 6  20288974.507 6
        51.000          42.000
  23427227.641 6 123110956.144 6  95930632.31943  23427227.318 3  23427230.465 3
        43.000          25.000
  23153864.095 6 123857567.021 6  96333714.72645  23153863.210 6  23153864.494 5
        43.000          39.000
  22330780.652 7 119035645.034 7  92583322.62845  22330779.938 7  22330784.811 5
        47.000          35.000
  21875115.391 7 114954525.110 7  89574972.14045  21875114.449 5  21875115.367 5
        48.000          36.000
  24097225.610 5 129039588.858 5 100364176.03545  24097225.671 5  24097229.343 5
        37.000          36.000
  21089385.917 7 110825501.134 7  86357549.16546  21089386.243 6  21089387.951 6
        49.000          40.000
  22930115.862 7 120498603.104 7  93895024.60944  22930115.011 4  22930118.036 4
        47.000          31.000
 11 10  1  0 12  0.0000000  0 18G23R01R12R18G05R02G29G16G13R11G10G04
                                R19R10G02R08G07G08
  22687689.337 7 119224649.338 7  92902353.16944  22687688.298 4  22687688.385 4
        47.000          31.000
  20003907.754 8 106932385.736 8  83169676.21246  20003907.066 8  20003910.383 6
        52.000          43.000
  21387891.693 7 114250296.051 7  88861377.68247  21387891.031 7  21387896.445 7
        49.000          45.000
  22556965.525 7 120410610.462 7  93652749.09746  22556964.371 7  22556968.921 6
        47.000          41.000
  22852608.066 7 120091281.228 7  93577639.25944  22852607.813 4  22852610.526 4
        45.000          33.000
  19794865.908 8 105629220.679 8  82156104.97247  19794865.350 8  19794868.008 7
        54.000          49.000
  24666007.181 5 129620758.143 5 101003209.86041  24666008.428 1  24666013.301 1
        38.000          17.000
  23158300.150 7 121697702.098 7  94829396.33143  23158299.303 3  23158301.071 3
        45.000          26.000
  20844846.506 8 109540425.681 8  85356219.75446  20844846.307 6  20844847.991 6
        52.000          40.000
  19518471.875 8 104300806.055 8  81122905.81646  19518471.300 8  19518475.024 6
        50.000          44.000
  20291722.177 8 106633744.655 8  83091251.21246  20291721.082 6  20291724.441 6
        52.000          42.000
  23446828.568 6 123213962.995 6  96010897.34143  23446828.813 3  23446831.556 3
        44.000          25.000
  23142689.325 6 123797788.064 6  96287220.18746  23142688.655 6  23142689.979 6
        44.000          40.000
  22352673.643 7 119152339.919 7  92674085.09945  22352672.343 7  22352677.659 5
        48.000          35.000
  21880169.072 7 114981082.779 7  89595666.42545  21880168.535 5  21880169.322 5
        48.000          36.000
  24120420.434 5 129163808.105 5 100460791.07844  24120422.182 4  24120424.907 4
        35.000          32.000
  21078373.595 8 110767627.754 8  86312453.03846  21078373.400 6  21078375.250 6
        51.000          41.000
  22910809.159 7 120397147.998 7  93815968.71744  22910808.540 4  22910812.037 4
        46.000          31.000
 11 10  1  0 12 30.0000000  0 18G23R01R12R18G05R02G29G16G13R11G10G04
                                R19R10G02R08G07G08
  22705054.573 7 119315905.457 7  92973461.81944  22705053.975 3  22705053.775 4
        47.000          30.000
  20016630.859 8 107000400.289 8  83222576.40646  20016630.747 8  20016634.271 6
        51.000          43.000
  21366247.551 7 114134676.745 7  88771451.58347  21366246.805 7  21366252.133 7
        49.000          45.000
  22566224.692 7 120460041.718 7  93691195.61846  22566224.310 7  22566229.589 6
        46.000          41.000
  22835284.653 7 120000248.185 7  93506704.45344  22835284.653 4  22835287.287 4
        46.000          33.000
  19783930.314 8 105570867.125 8  82110718.87748  19783929.956 8  19783932.745 8
        54.000          50.000
  24670130.940 5 129642428.338 5 101020095.62341  24670132.014 1  24670135.823 1
        37.000          18.000
  23158020.832 7 121696233.924 7  94828252.28443  23158020.128 3  23158022.110 3
        45.000          27.000
  20856384.973 8 109601061.466 8  85403468.41246  20856384.845 6  20856386.733 6
        52.000          40.000
  19520463.748 8 104311451.791 8  81131185.84146  19520463.083 7  19520467.277 6
        50.000          44.000
  20294577.474 8 106648749.057 8  83102942.95246  20294576.302 6  20294579.670 6
        52.000          42.000
  23466471.873 6 123317184.969 6  96091330.00943  23466471.135 3  23466474.132 3
        44.000          25.000
  23131646.089 6 123738719.176 6  96241277.66145  23131645.527 6  23131646.264 5
        43.000          39.000
  22374630.690 7 119269383.175 7  92765118.75245  22374629.639 7  22374633.962 5
        48.000          35.000
  21885338.045 7 115008245.048 7  89616831.82145  21885337.253 5  21885337.900 5
        48.000          35.000
  24143639.156 5 129288122.178 5 100557479.77345  24143638.570 4  24143641.241 5
        36.000          36.000
  21067455.950 7 110710257.370 7  86267748.86046  21067455.860 6  21067457.768 6
        49.000          40.000
  22891550.712 7 120295946.944 7  93737110.77744  22891550.447 4  22891554.396 4
        45.000          31.000
 11 10  1  0 13  0.0000000  0 17G23R01R12R18G05R02G29G16G13R11G10G04
                                R19R10G02G07G08
  22722458.788 7 119407368.721 7  93044731.89844  22722458.489 4  22722458.968 4
        45.000          30.000
  20029453.316 8 107068940.185 8  83275885.20346  20029452.693 8  20029456.360 6
        51.000          43.000
  21344682.335 7 114019478.780 7  88681853.18847  21344681.431 7  21344686.710 7
        49.000          45.000
  22575622.532 7 120510205.231 7  93730211.67346  22575621.442 7  22575626.437 6
        46.000          41.000
  22818012.599 7 119909483.509 7  93435978.73144  22818012.957 4  22818015.380 4
        46.000          34.000
  19773091.436 8 105513030.017 8  82065734.47048  19773091.205 8  19773094.147 8
        54.000          50.000
  24674360.207 5 129664649.363 5 101037410.66141  24674359.557 1  24674365.213 1
        37.000          18.000
  23157862.288 6 121695397.521 6  94827600.52643  23157861.047 3  23157862.820 3
        44.000          28.000
  20867994.917 8 109662073.922 8  85451010.59246  20867995.059 6  20867996.790 6
        50.000          40.000
  19522609.370 8 104322914.715 8  81140101.44346  19522608.498 8  19522612.271 6
        51.000          44.000
  20297537.803 8 106664307.017 8  83115066.03946  20297536.986 6  20297540.304 6
        52.000          42.000
  23486155.135 6 123420618.900 6  96171927.83943  23486153.956 3  23486157.986 3
        44.000          25.000
  23120737.623 7 123680363.866 7  96195890.29845  23120736.405 6  23120738.887 5
        45.000          39.000
  22396651.484 7 119386769.886 7  92856419.38845  22396650.823 7  22396656.488 5
        47.000          35.000
  21890621.320 7 115036010.885 7  89638467.53045  21890621.014 5  21890621.469 5
        48.000          36.000
  21056634.751 7 110653391.364 7  86223437.70646  21056634.774 6  21056636.598 6
        49.000          40.000
  22872341.737 7 120195002.119 7  93658452.50044  22872341.517 4  22872345.214 4
        46.000          32.000
 11 10  1  0 13 30.0000000  0 17G23R01R12R18G05R02G29G16G13R11G10G04
                                R19R10G02G07G08
  22739902.606 6 119499037.506 6  93116162.12144  22739902.054 3  22739902.463 4
        44.000          30.000
  20042373.250 8 107138004.078 8  83329601.56146  20042372.545 8  20042375.820 6
        52.000          42.000
  21323196.384 8 113904705.408 8  88592585.04747  21323195.588 7  21323201.035 7
        50.000          45.000
  22585157.199 7 120561097.303 7  93769794.37846  22585155.822 7  22585160.530 6
        46.000          42.000
  22800792.309 7 119818989.170 7  93365463.68544  22800792.393 4  22800794.847 4
        46.000          34.000
  19762350.328 8 105455711.851 8  82021153.66948  19762349.968 8  19762352.591 8
        54.000          50.000
  24678693.537 5 129687420.429 5 101055154.31541  24678694.768 1  24678697.940 1
        38.000          17.000
  23157821.720 6 121695193.176 6  94827441.24843  23157822.130 3  23157824.955 3
        43.000          28.000
  20879677.147 8 109723461.860 8  85498845.34546  20879677.001 6  20879678.789 6
        51.000          40.000
  19524906.245 8 104335193.957 8  81149651.96946  19524906.267 8  19524910.082 6
        50.000          44.000
  20300604.110 8 106680418.239 8  83127620.23646  20300602.998 6  20300606.161 6
        52.000          43.000
  23505877.085 6 123524262.238 6  96252688.85643  23505876.628 3  23505879.391 3
        43.000          25.000
  23109961.306 6 123622724.091 6  96151059.17346  23109960.975 6  23109965.365 6
        43.000          40.000
  22418737.351 7 119504496.860 7  92947984.66245  22418736.014 7  22418741.357 5
        46.000          36.000
  21896020.012 7 115064379.307 7  89660572.78745  21896019.521 5  21896019.705 5
        48.000          35.000
  21045909.745 8 110597030.918 8  86179520.49346  21045909.743 6  21045911.498 6
        50.000          41.000
  22853182.605 7 120094315.557 7  93579995.47744  22853181.383 4  22853184.724 4
        46.000          32.000
 11 10  1  0 14  0.0000000  0 17G23R01R12R18G05R02G29G16G13R11G10G04
                                R19R10G02G07G08
  22757386.200 6 119590910.649 6  93187751.58243  22757385.388 3  22757385.063 3
        43.000          29.000
  20055390.824 8 107207590.778 8  83383724.53646  20055390.299 8  20055393.708 6
        51.000          43.000
  21301790.487 7 113790360.104 7  88503649.84247  21301789.793 7  21301795.697 7
        49.000          46.000
  22594826.125 7 120612715.910 7  93809942.21046  22594824.948 7  22594829.695 6
        46.000          41.000
  22783623.208 7 119728767.179 7  93295160.84244  22783623.672 4  22783626.086 4
        46.000          33.000
  19751706.611 8 105398915.191 8  81976978.49248  19751706.155 8  19751709.028 8
        54.000          50.000
  24683133.104 5 129710740.085 5 101073325.44741  24683131.214 1  24683136.212 1
        39.000          17.000
  23157903.974 7 121695620.761 7  94827774.41643  23157904.156 3  23157905.053 3
        45.000          27.000
  20891430.162 8 109785223.862 8  85546971.57946  20891429.840 6  20891431.428 6
        52.000          40.000
  19527357.012 8 104348287.860 8  81159836.11046  19527356.423 8  19527360.473 6
        51.000          44.000
  20303775.225 8 106697082.607 8  83140605.46246  20303773.949 6  20303777.337 6
        52.000          43.000
  23525638.524 6 123628111.682 6  96333610.45643  23525637.610 3  23525641.744 3
        43.000          25.000
  23099321.231 6 123565803.243 6  96106787.33946  23099320.221 6  23099323.433 6
        43.000          40.000
  22440886.591 7 119622560.479 7  93039811.94745  22440885.166 7  22440890.734 5
        47.000          36.000
  21901532.274 7 115093348.978 7  89683146.55345  21901531.935 5  21901532.646 5
        49.000          36.000
  21035280.717 8 110541177.646 8  86135998.47446  21035281.024 6  21035283.122 6
        50.000          41.000
  22834071.737 7 119993889.508 7  93501741.43544  22834071.453 4  22834074.053 4
        47.000          32.000
 11 10  1  0 14 30.0000000  0 17G23R01R12R18G05R02G29G16G13R11G10G04
                                R19R10G02G07G08
  22774906.809 7 119682986.766 7  93259499.19543  22774907.021 3  22774906.698 3
        45.000          29.000
  20068505.395 8 107277699.077 8  83438253.20546  20068505.441 8  20068508.584 6
        51.000          43.000
  21280465.401 7 113676446.200 7  88415050.17447  21280464.975 7  21280470.524 7
        49.000          46.000
  22604632.351 7 120665058.321 7  93850652.98646  22604631.158 7  22604635.487 6
        46.000          41.000
  22766507.353 7 119638819.957 7  93225072.12544  22766507.254 4  22766509.713 4
        47.000          33.000
  19741160.756 8 105342642.386 8  81933210.75847  19741160.709 8  19741163.578 7
        54.000          49.000
  24687673.031 5 129734607.111 5 101091923.12541  24687674.006 1  24687675.692 1
        39.000          17.000
  23158105.610 7 121696680.856 7  94828600.42643  23158105.286 3  23158107.602 3
        46.000          27.000
  20903253.712 8 109847358.453 8  85595388.14546  20903253.641 5  20903255.783 6
        51.000          40.000
  19529960.087 8 104362195.693 8  81170653.31246  19529959.322 8  19529963.171 6
        50.000          44.000
  20307051.794 8 106714300.195 8  83154021.76346  20307050.495 6  20307053.693 6
        52.000          42.000
  23545438.240 6 123732164.731 6  96414690.73443  23545438.894 3  23545442.393 3
        42.000          25.000
  23088814.215 6 123509603.909 6  96063076.68645  23088813.834 6  23088817.013 5
        43.000          39.000
  22463096.479 7 119740956.348 7  93131897.66745  22463095.663 7  22463101.124 5
        47.000          36.000
  21907159.447 7 115122918.888 7  89706188.03445  21907158.757 5  21907159.640 5
        48.000          36.000
  21024749.756 8 110485832.840 8  86092872.67046  21024749.382 6  21024751.204 6
        51.000          41.000
  22815010.940 7 119893725.903 7  93423691.90644  22815010.100 4  22815013.642 4
        47.000          32.000
 11 10  1  0 15  0.0000000  0 17G23R01R12R18G05R02G29G16G13R11G10G04
                                R19R10G02G07G08
  22792466.767 7 119775264.202 7  93331403.67543  22792466.829 3  22792466.654 3
        45.000          29.000
  20081718.140 8 107348327.373 8  83493186.31246  20081717.797 8  20081720.873 6
        51.000          42.000
  21259221.973 8 113562967.042 8  88326788.64947  21259221.343 7  21259226.731 7
        50.000          46.000
  22614572.213 7 120718122.068 7  93891924.77446  22614571.616 7  22614576.965 6
        46.000          42.000
  22749443.716 7 119549149.693 7  93155199.19544  22749443.525 4  22749445.814 4
        47.000          33.000
  19730713.775 8 105286895.459 8  81889852.04048  19730713.786 8  19730716.432 8
        54.000          50.000
  24692319.302 5 129759021.161 5 101110947.05841  24692318.710 1  24692321.183 1
        38.000          18.000
  23158428.154 7 121698373.411 7  94829919.28643  23158427.652 3  23158429.556 3
        46.000          28.000
  20915148.306 8 109909864.080 8  85644093.82846  20915147.998 5  20915149.704 6
        52.000          40.000
  19532714.511 8 104376915.982 8  81182102.42646  19532714.079 8  19532717.816 6
        51.000          44.000
  20310433.031 8 106732070.503 8  83167868.75646  20310432.051 6  20310435.239 6
        51.000          42.000
  23565278.058 6 123836418.143 6  96495927.10343  23565277.197 3  23565281.448 3
        43.000          25.000
  23078443.477 6 123454128.807 6  96019929.34745  23078443.342 6  23078447.110 5
        42.000          39.000
  22485368.873 7 119859680.330 7  93224238.51645  22485367.638 7  22485372.707 5
        46.000          36.000
  21912900.714 7 115153087.825 7  89729696.28945  21912900.033 5  21912900.495 5
        47.000          35.000
  21014315.020 8 110430997.761 8  86050144.05046  21014314.631 6  21014316.505 6
        51.000          41.000
  22796000.534 7 119793826.900 7  93345848.56044  22796000.184 4  22796003.650 4
        45.000          32.000
 11 10  1  0 15 30.0000000  0 17G23R01R12R18G05R02G29G16G13R11G10G04
                                R19R10G02G07G08
  22810064.529 7 119867741.652 7  93403464.03743  22810064.444 3  22810064.186 3
        46.000          29.000
  20095028.015 8 107419474.390 8  83548522.87846  20095027.358 8  20095030.710 6
        51.000          42.000
  21238059.922 8 113449926.053 8  88238867.90747  21238059.835 7  21238065.454 7
        50.000          46.000
  22624647.167 7 120771903.604 7  93933754.81846  22624646.707 7  22624651.419 6
        46.000          41.000
  22732432.299 7 119459758.507 7  93085543.74244  22732432.700 4  22732435.327 4
        46.000          33.000
  19720365.772 8 105231677.321 8  81846904.60548  19720365.710 8  19720368.771 8
        54.000          50.000
  24697068.518 5 129783980.573 5 101130396.00341  24697068.252 1  24697071.694 1
        39.000          18.000
  23158870.022 7 121700698.906 7  94831731.36243  23158870.082 3  23158871.442 3
        45.000          27.000
  20927112.961 8 109972738.912 8  85693087.20245  20927112.972 5  20927114.587 5
        51.000          39.000
  19535621.383 8 104392447.461 8  81194182.46546  19535620.623 8  19535624.482 6
        51.000          44.000
  20313919.760 8 106750393.201 8  83182146.18346  20313918.815 6  20313922.012 6
        52.000          42.000
  23585154.926 6 123940869.300 6  96577317.59043  23585153.789 3  23585157.810 3
        43.000          25.000
  23068210.632 6 123399380.744 6  95977347.66846  23068209.948 6  23068213.124 6
        44.000          41.000
  22507700.918 7 119978728.757 7  93316831.71845  22507700.478 7  22507706.762 5
        47.000          37.000
  21918754.909 7 115183854.619 7  89753670.40445  21918754.873 5  21918755.314 5
        48.000          35.000
  21003977.121 8 110376673.685 8  86007813.62046  21003977.132 6  21003978.773 6
        51.000          41.000
  22777041.525 7 119694194.911 7  93268213.27544  22777040.644 4  22777043.831 4
        46.000          32.000
 11 10  1  0 16  0.0000000  0 17G23R01R12R18G05R02G29G16G13R11G10G04
                                R19R10G02G07G08
  22827699.375 7 119960417.752 7  93475679.16543  22827699.373 3  22827700.402 3
        45.000          29.000
  20108434.274 8 107491138.877 8  83604261.90846  20108433.656 8  20108437.090 6
        51.000          43.000
  21216981.252 8 113337326.293 8  88151290.35947  21216980.975 7  21216986.161 7
        50.000          46.000
  22634857.130 7 120826400.197 7  93976141.01746  22634856.149 7  22634860.411 6
        46.000          41.000
  22715475.524 7 119370649.022 7  93016107.79144  22715475.823 4  22715478.450 4
        46.000          33.000
  19710117.429 8 105176990.007 8  81804370.02948  19710117.151 8  19710120.307 8
        54.000          50.000
  24701921.688 5 129809483.850 5 101150268.52841  24701921.851 1  24701925.515 1
        37.000          17.000
  23159434.649 7 121703656.937 7  94834036.30443  23159433.742 3  23159435.557 3
        45.000          28.000
  20939147.765 8 110035982.081 8  85742367.59846  20939147.591 5  20939149.308 6
        51.000          40.000
  19538679.116 8 104408788.675 8  81206892.29146  19538678.728 8  19538682.418 6
        51.000          44.000
  20317511.783 8 106769268.179 8  83196853.95746  20317510.627 6  20317513.825 6
        51.000          42.000
  23605066.149 6 124045515.172 6  96658859.79043  23605067.163 3  23605071.453 3
        42.000          25.000
  23058111.599 6 123345362.478 6  95935333.89446  23058110.910 6  23058114.250 6
        44.000          41.000
  22530095.363 7 120098097.849 7  93409674.30745  22530094.342 7  22530099.144 5
        48.000          36.000
  21924723.246 7 115215217.887 7  89778109.30845  21924722.990 5  21924723.547 5
        47.000          35.000
  20993737.189 8 110322862.100 8  85965882.52646  20993737.150 6  20993738.792 6
        51.000          41.000
  22758132.920 7 119594831.745 7  93190787.46144  22758132.421 4  22758136.325 4
        46.000          32.000
 11 10  1  0 16 30.0000000  0 17G23R01R12R18G05R02G29G16G13R11G10G04
                                R19R10G02G07G08
  22845374.321 7 120053291.284 7  93548048.15743  22845373.528 3  22845373.240 3
        45.000          29.000
  20121936.751 8 107563319.354 8  83660402.26846  20121936.636 8  20121940.088 6
        51.000          42.000
  21195986.261 8 113225171.706 8  88064059.03847  21195985.925 7  21195990.511 7
        50.000          46.000
  22645199.134 7 120881609.981 7  94019082.00846  22645198.402 7  22645203.571 6
        46.000          42.000
  22698572.152 7 119281822.828 7  92946892.59144  22698572.643 4  22698575.123 4
        45.000          33.000
  19699969.664 8 105122835.918 8  81762250.18448  19699969.076 8  19699972.011 8
        54.000          50.000
  24706877.250 5 129835530.716 5 101170564.91241  24706878.116 1  24706881.699 1
        36.000          16.000
  23160117.007 7 121707247.539 7  94836834.14643  23160116.149 3  23160117.719 3
        45.000          28.000
  20951252.686 8 110099592.168 8  85791933.88945  20951252.064 5  20951253.841 5
        51.000          39.000
  19541888.295 8 104425938.312 8  81220230.89046  19541887.968 8  19541891.742 6
        51.000          44.000
  20321208.394 8 106788695.579 8  83211992.19346  20321207.398 6  20321210.712 6
        52.000          42.000
  23625017.659 6 124150353.110 6  96740551.63243  23625017.353 3  23625021.581 3
        43.000          25.000
  23048150.118 6 123292075.896 6  95893888.92745  23048149.005 6  23048150.838 5
        44.000          38.000
  22552547.842 7 120217783.513 7  93502762.95045  22552546.800 7  22552552.628 5
        47.000          37.000
  21930805.089 7 115247176.653 7  89803012.23745  21930804.477 5  21930805.249 5
        49.000          35.000
  20983594.951 8 110269564.342 8  85924351.82246  20983594.804 6  20983596.606 6
        51.000          41.000
  22739276.910 7 119495739.884 7  93113573.05944  22739275.828 4  22739279.794 4
        47.000          32.000
 11 10  1  0 17  0.0000000  0 17G23R01R12R18G05R02G29G16G13R11G10G04
                                R19R10G02G07G08
  22863084.864 7 120146360.625 7  93620569.69943  22863084.221 3  22863084.237 3
        46.000          29.000
  20135536.177 8 107636014.579 8  83716942.99146  20135535.598 8  20135538.934 6
        51.000          43.000
  21175074.672 8 113113465.175 8  87977176.21447  21175073.940 7  21175079.029 7
        50.000          46.000
  22655674.463 7 120937529.608 7  94062575.02146  22655673.633 7  22655678.673 6
        45.000          41.000
  22681724.012 7 119193282.270 7  92877899.96344  22681723.979 4  22681726.513 4
        46.000          34.000
  19689920.855 8 105069217.358 8  81720546.87448  19689920.796 8  19689923.832 8
        54.000          50.000
  24711938.544 5 129862119.153 5 101191283.23441  24711937.060 1  24711940.975 1
        39.000          17.000
  23160920.389 7 121711471.182 7  94840125.25343  23160920.436 3  23160921.820 3
        45.000          27.000
  20963426.193 8 110163567.650 8  85841784.92445  20963426.185 5  20963427.820 5
        50.000          39.000
  19545248.418 8 104443894.873 8  81234197.10546  19545248.017 7  19545252.160 6
        50.000          44.000
  20325010.570 8 106808674.964 8  83227560.54146  20325009.367 6  20325012.693 6
        51.000          42.000
  23645004.332 6 124255380.066 6  96822390.80443  23645003.752 3  23645007.494 3
        43.000          25.000
  23038325.378 6 123239523.642 6  95853015.05545  23038323.723 6  23038328.257 5
        43.000          38.000
  22575059.036 7 120337781.859 7  93596094.89945  22575058.319 7  22575063.382 5
        47.000          36.000
  21936999.069 7 115279729.159 7  89828377.81745  21936998.923 5  21936999.860 5
        48.000          36.000
  20973550.446 8 110216781.331 8  85883222.21846  20973550.537 6  20973552.362 6
        50.000          41.000
  22720472.916 7 119396921.114 7  93036571.44944  22720471.156 4  22720474.933 4
        47.000          32.000
 11 10  1  0 17 30.0000000  0 17G23R01R12R18G05R02G29G16G13R11G10G04
                                R19R10G02G07G08
  22880831.060 7 120239624.502 7  93693242.87143  22880831.211 3  22880831.387 3
        46.000          28.000
  20149231.253 8 107709223.298 8  83773883.09446  20149230.828 8  20149234.189 6
        51.000          42.000
  21154246.781 8 113002210.101 8  87890644.52547  21154246.657 7  21154251.790 7
        50.000          46.000
  22666283.560 7 120994155.994 7  94106617.71446  22666282.525 7  22666286.906 6
        46.000          41.000
  22664929.482 7 119105029.779 7  92809131.80344  22664929.853 4  22664932.821 4
        46.000          34.000
  19679973.738 8 105016136.839 8  81679262.03448  19679973.528 8  19679976.565 8
        54.000          50.000
  24717100.411 5 129889248.487 5 101212422.95441  24717099.915 1  24717103.590 1
        37.000          17.000
  23161844.958 7 121716327.343 7  94843909.26243  23161844.174 3  23161845.686 3
        46.000          27.000
  20975669.871 8 110227906.975 8  85891919.46045  20975669.607 5  20975671.468 5
        52.000          39.000
  19548760.254 8 104462656.902 8  81248789.78946  19548759.436 7  19548763.040 6
        51.000          44.000
  20328917.198 8 106829206.031 8  83243558.77446  20328916.276 6  20328919.504 6
        52.000          42.000
  23665024.603 6 124360593.289 6  96904375.09743  23665024.919 3  23665028.782 3
        42.000          25.000
  23028639.452 6 123187708.448 6  95812714.42445  23028639.199 6  23028640.982 5
        44.000          39.000
  22597628.607 7 120458089.178 7  93689667.16145  22597627.522 7  22597632.234 5
        47.000          35.000
  21943306.269 7 115312874.400 7  89854205.27345  21943306.253 5  21943307.171 5
        49.000          35.000
  20963603.934 8 110164514.809 8  85842495.07246  20963604.572 6  20963606.312 6
        50.000          41.000
  22701719.237 7 119298377.704 7  92959784.40944  22701718.642 4  22701722.788 4
        46.000          32.000
 11 10  1  0 18  0.0000000  0 17G23R01R12R18G05R02G29G16G13R11G10G04
                                R19R10G02G07G08
  22898616.050 7 120333081.545 7  93766066.50943  22898616.285 3  22898616.268 3
        45.000          29.000
  20163022.642 8 107782943.830 8  83831221.28346  20163022.054 8  20163024.905 6
        51.000          42.000
  21133505.139 8 112891409.899 8  87804466.62247  21133504.319 7  21133510.030 7
        50.000          46.000
  22677022.869 7 121051485.975 7  94151207.65546  22677022.201 7  22677026.804 6
        46.000          41.000
  22648191.123 7 119017067.125 7  92740589.48044  22648191.288 4  22648194.190 4
        47.000          34.000
  19670127.567 8 104963596.354 8  81638397.21148  19670127.216 8  19670130.459 8
        54.000          50.000
  24722365.979 5 129916917.294 5 101233983.11441  24722366.661 1  24722370.815 1
        39.000          19.000
  23162889.135 7 121721815.981 7  94848186.10943  23162888.251 3  23162890.763 3
        46.000          26.000
  20987981.802 8 110292608.228 8  85942336.01745  20987981.769 5  20987983.271 5
        51.000          39.000
  19552420.987 8 104482223.018 8  81264007.87646  19552420.740 8  19552424.589 6
        51.000          44.000
  20332929.428 8 106850288.474 8  83259986.65246  20332928.055 6  20332931.399 6
        52.000          42.000
  23685081.070 6 124465989.811 6  96986502.21742  23685080.973 2  23685085.238 2
        43.000          24.000
  23019091.296 6 123136632.405 6  95772988.56645  23019090.856 6  23019093.439 5
        44.000          39.000
  22620254.445 7 120578702.021 7  93783477.18845  22620254.233 7  22620259.276 5
        46.000          35.000
  21949726.396 7 115346611.076 7  89880493.57745  21949725.911 5  21949726.934 5
        47.000          35.000
  20953756.932 8 110112765.947 8  85802171.29846  20953756.947 6  20953758.799 6
        50.000          41.000
  22683020.370 7 119200111.897 7  92883213.68744  22683019.642 4  22683023.197 4
        47.000          32.000
 11 10  1  0 18 30.0000000  0 17G23R01R12R18G05R02G29G16G13R11G10G04
                                R19R10G02G07G08
  22916436.108 6 120426730.375 6  93839039.63243  22916435.849 3  22916436.330 3
        43.000          28.000
  20176909.144 8 107857174.827 8  83888956.48846  20176908.137 8  20176911.747 6
        51.000          42.000
  21112848.747 8 112781067.719 8  87718644.96847  21112848.034 7  21112853.724 7
        50.000          46.000
  22687893.231 7 121109517.600 7  94196343.35046  22687892.852 7  22687897.860 6
        45.000          40.000
  22631507.818 7 118929396.689 7  92672274.87945  22631508.199 5  22631511.008 5
        47.000          35.000
  19660383.362 8 104911598.383 8  81597954.35148  19660383.151 8  19660386.020 8
        54.000          50.000
  24727733.414 5 129945123.949 5 101255962.26142  24727734.183 2  24727736.928 2
        39.000          21.000
  23164053.230 7 121727937.412 7  94852956.07143  23164052.929 3  23164055.382 3
        45.000          27.000
  21000362.897 8 110357670.734 8  85993034.07045  21000362.703 5  21000364.605 5
        51.000          39.000
  19556233.163 8 104502591.730 8  81279850.19746  19556232.610 8  19556236.420 6
        50.000          44.000
  20337045.833 8 106871922.302 8  83276844.18146  20337044.861 6  20337048.118 6
        51.000          43.000
  23705173.162 6 124571566.929 6  97068770.07043  23705172.546 2  23705176.183 3
        43.000          25.000
  23009681.955 6 123086298.763 6  95733840.29646  23009681.656 6  23009685.398 6
        44.000          40.000
  22642938.195 7 120699615.848 7  93877521.28244  22642937.082 6  22642941.751 4
        46.000          34.000
  21956258.212 7 115380937.907 7  89907241.75645  21956258.250 5  21956259.042 5
        46.000          35.000
  20944008.268 8 110061535.840 8  85762251.75246  20944008.173 6  20944010.040 6
        50.000          41.000
  22664374.230 7 119102125.450 7  92806860.63144  22664373.593 4  22664377.138 4
        47.000          32.000
 11 10  1  0 19  0.0000000  0 17G23R01R12R18G05R02G29G16G13R11G10G04
                                R19R10G02G07G08
  22934293.734 7 120520569.575 7  93912161.07443  22934293.229 3  22934293.434 3
        45.000          28.000
  20190890.163 8 107931914.871 8  83947087.62346  20190889.918 8  20190893.236 6
        51.000          42.000
  21092278.406 8 112671186.866 8  87633182.11947  21092278.047 7  21092283.580 7
        50.000          46.000
  22698894.657 7 121168246.704 7  94242021.49446  22698894.865 7  22698900.566 6
        45.000          41.000
  22614881.167 7 118842020.944 7  92604189.88444  22614881.246 4  22614883.529 4
        47.000          34.000
  19650740.960 8 104860145.278 8  81557935.27348  19650740.781 8  19650743.703 8
        54.000          50.000
  24733202.499 5 129973867.738 5 101278360.03042  24733203.124 2  24733207.081 2
        39.000          21.000
  23165338.846 6 121734691.372 6  94858218.88143  23165338.084 3  23165340.573 3
        44.000          27.000
  21012811.894 8 110423092.673 8  86044012.20545  21012811.958 5  21012813.905 5
        50.000          39.000
  19560194.784 8 104523761.187 8  81296315.32946  19560194.230 8  19560197.834 6
        51.000          44.000
  20341267.773 8 106894106.713 8  83294130.73646  20341266.355 6  20341269.777 6
        52.000          42.000
  23725295.924 6 124677321.429 6  97151176.12742  23725296.590 2  23725300.543 2
        42.000          24.000
  23000411.928 6 123036709.078 6  95695270.45145  23000410.770 6  23000413.962 5
        43.000          39.000
  22665677.509 7 120820827.324 7  93971796.82944  22665676.307 7  22665681.159 4
        46.000          34.000
  21962902.963 7 115415852.993 7  89934448.30445  21962902.455 5  21962902.941 5
        48.000          35.000
  20934358.756 8 110010825.373 8  85722737.11746  20934358.273 6  20934360.075 6
        50.000          41.000
  22645781.873 7 119004420.619 7  92730727.03344  22645781.160 4  22645784.203 4
        47.000          32.000
 11 10  1  0 19 30.0000000  0 17G23R01R12R18G05R02G29G16G13R11G10G04
                                R19R10G02G07G08
  22952186.727 7 120614597.970 7  93985429.96043  22952186.792 3  22952186.132 3
        45.000          28.000
  20204967.347 8 108007162.557 8  84005613.59546  20204966.568 8  20204970.198 6
        51.000          42.000
  21071795.199 8 112561770.631 8  87548080.64647  21071795.020 7  21071800.677 7
        50.000          46.000
  22710028.431 7 121227670.819 7  94288240.19046  22710027.304 7  22710032.394 6
        46.000          41.000
  22598310.395 7 118754941.679 7  92536335.91445  22598310.782 5  22598312.968 5
        47.000          35.000
  19641201.761 9 104809239.416 9  81518341.83148  19641201.308 8  19641204.049 8
        55.000          50.000
  24738774.272 5 130003146.981 5 101301174.98442  24738774.407 2  24738778.217 2
        37.000          20.000
  23166744.794 6 121742077.941 6  94863974.59843  23166744.024 3  23166746.650 3
        44.000          28.000
  21025330.091 8 110488872.463 8  86095269.18745  21025330.006 5  21025331.352 5
        51.000          39.000
  19564305.677 8 104545730.168 8  81313402.30746  19564305.347 7  19564309.062 6
        50.000          44.000
  20345594.087 8 106916841.676 8  83311846.29146  20345592.746 6  20345596.046 6
        52.000          42.000
  23745454.461 6 124783250.708 6  97233718.39442  23745454.701 2  23745457.470 2
        42.000          23.000
  22991279.958 6 122987866.260 6  95657281.58945  22991279.514 6  22991284.162 5
        43.000          39.000
  22688471.370 7 120942332.408 7  94066300.86844  22688470.942 7  22688474.981 4
        46.000          34.000
  21969658.680 7 115451355.446 7  89962112.54945  21969658.307 5  21969658.945 5
        47.000          35.000
  20924807.516 8 109960636.522 8  85683628.93746  20924807.650 6  20924809.425 6
        51.000          41.000
  22627243.531 7 118906999.422 7  92654814.44544  22627242.217 4  22627245.666 4
        47.000          33.000
 11 10  1  0 20  0.0000000  0 17G23R01R12R18G05R02G29G16G13R11G10G04
                                R19R10G02G07G08
  22970116.035 7 120708813.757 7  94058844.85543  22970115.830 3  22970115.262 3
        46.000          29.000
  20219138.512 8 108082916.478 8  84064533.29246  20219138.023 8  20219141.796 6
        51.000          42.000
  21051399.956 8 112452822.514 8  87463343.25547  21051399.827 7  21051405.709 7
        50.000          47.000
  22721289.789 7 121287787.430 7  94334997.50846  22721288.827 7  22721294.069 6
        46.000          40.000
  22581796.638 7 118668161.288 7  92468714.84345  22581796.744 5  22581799.464 5
        46.000          35.000
  19631764.712 8 104758882.975 8  81479175.71048  19631764.173 8  19631767.135 8
        54.000          50.000
  24744447.764 5 130032960.789 5 101324406.51141  24744447.578 1  24744451.365 1
        39.000          19.000
  23168270.645 6 121750096.355 6  94870222.65743  23168270.017 3  23168272.083 3
        44.000          27.000
  21037914.887 8 110555008.494 8  86146803.75045  21037914.876 5  21037916.704 5
        51.000          39.000
  19568566.197 8 104568496.709 8  81331109.60246  19568565.744 7  19568569.781 6
        50.000          44.000
  20350024.959 8 106940126.603 8  83329990.39246  20350023.727 6  20350027.024 6
        50.000          42.000
  23765645.828 6 124889351.705 6  97316394.46542  23765644.526 2  23765648.998 2
        42.000          23.000
  22982289.565 6 122939772.753 6  95619875.50246  22982289.538 6  22982294.173 6
        43.000          41.000
  22711320.762 7 121064126.871 7  94161029.84744  22711319.965 6  22711324.182 4
        46.000          32.000
  21976525.953 7 115487443.741 7  89990233.29645  21976525.939 5  21976526.330 5
        47.000          35.000
  20915356.512 8 109910969.879 8  85644927.67446  20915356.272 6  20915358.219 6
        51.000          41.000
  22608758.743 7 118809863.936 7  92579124.47844  22608758.184 4  22608761.234 4
        47.000          33.000
