     2.11           OBSERVATION DATA    M (MIXED)           RINEX VERSION / TYPE
teqc  2016Apr1                          20160930 07:51:15UTCPGM / RUN BY / DATE
Linux 2.4.20-8|Pentium IV|gcc|Linux|486/DX+                 COMMENT
teqc  2016Apr1                          20160816 03:29:02UTCCOMMENT
teqc  2010Oct21                         20111002 02:32:38UTCCOMMENT
MSXP|IAx86-PII|bcc32 5.0|MSWin95->XP|486/DX+                COMMENT
teqc  2010Oct21                         20111001 01:04:48UTCCOMMENT
Forced Modulo Decimation to 30 seconds                      COMMENT
IMoS GFileSrv 3.60  Lantmäteriet        30.09.2011          COMMENT
KIR0                                                        MARKER NAME
10422M001                                                   MARKER NUMBER
SWEPOS              LMV                                     OBSERVER / AGENCY
8POGQ1TVLKW         JPS EGGDT           2.6.1 Jan,10,2008   REC # / TYPE / VERS
247                 AOAD/M_T        OSOD                    ANT # / TYPE
  2248123.5038   865686.5326  5886425.5943                  APPROX POSITION XYZ
        0.0710        0.0000        0.0000                  ANTENNA: DELTA H/E/N
     1     1                                                WAVELENGTH FACT L1/2
     7    C1    L1    L2    P1    P2    S1    S2            # / TYPES OF OBSERV
    30.0000                                                 INTERVAL
teqc windowed: start @ 2011 Oct  1 00:10:00.000             COMMENT
teqc windowed:  end  @ 2011 Oct  1 00:20:00.000             COMMENT
  2011    10     1     0    10    0.0000000     GPS         TIME OF FIRST OBS
    15                                                      LEAP SECONDS
                                                            END OF HEADER
 11 10  1  0 10  0.0000000  0 17G16G23R18R11R19G08G29G02R10R02R01G04
                                G05G13G07R12G10
  22433836.598 7 117890596.601 7  91862822.80945  22433837.480 4  22433840.289 5
        48.000          35.000
  22305866.367 8 117218129.589 8  91338831.78445  22305866.983 5  22305867.723 5
        50.000          36.000
  22152541.092 7 118251802.770 7  91973650.95146  22152540.999 7  22152548.382 6
        47.000          44.000
  19562163.409 8 104534264.019 8  81304461.42347  19562163.281 8  19562165.882 7
        51.000          46.000
  22095219.551 7 118194528.392 7  91929094.84246  22095218.470 7  22095214.152 6
        49.000          44.000
  24160096.499 6 126962163.220 6  98931571.30343  24160097.456 3  24160100.819 3
        42.000          26.000
  23877698.148 6 125478154.517 6  97775212.04143  23877699.542 3  23877702.764 3
        42.000          29.000
  22405130.945 7 117739785.844 7  91745288.92445  22405132.094 5  22405132.806 5
        48.000          36.000
  21270424.534 8 113383328.705 8  88187047.89546  21270423.118 7  21270427.110 6
        51.000          43.000
  19844003.096 9 105891417.870 9  82360018.73948  19844002.901 8  19844007.805 8
        55.000          52.000
  20302092.026 8 108526334.996 8  84409401.34246  20302092.004 8  20302092.108 6
        52.000          43.000
  24573892.938 6 129136672.657 6 100625999.77342  24573894.602 2  24573897.001 2
        41.000          23.000
  22852397.634 7 120090157.958 7  93576761.98745  22852398.911 5  22852401.407 5
        47.000          36.000
  20675258.256 8 108649227.808 8  84661758.16846  20675259.951 6  20675261.795 6
        53.000          44.000
  21904443.942 8 115108630.232 8  89695061.24346  21904445.447 6  21904447.275 6
        50.000          40.000
  22590148.805 7 120672525.384 7  93856435.83546  22590147.702 6  22590153.826 6
        45.000          43.000
  20786361.850 8 109233083.928 8  85116708.48846  20786362.608 6  20786366.300 6
        52.000          44.000
 11 10  1  0 10 30.0000000  0 17G16G23R18R11R19G08G29G02R10R02R01G04
                                G05G13G07R12G10
  22430074.135 7 117870820.723 7  91847412.80445  22430075.021 5  22430076.968 5
        48.000          36.000
  22323035.252 7 117308358.975 7  91409140.35745  22323036.567 5  22323037.747 5
        49.000          36.000
  22165373.614 7 118320296.278 7  92026923.69946  22165372.545 7  22165378.934 6
        47.000          44.000
  19557367.116 8 104508634.960 8  81284527.73847  19557366.866 8  19557369.585 7
        51.000          46.000
  22085596.314 7 118143048.603 7  91889055.21446  22085595.265 7  22085590.980 6
        49.000          44.000
  24138566.151 6 126849020.048 6  98843407.80743  24138567.179 3  24138570.216 3
        42.000          26.000
  23884291.588 6 125512808.748 6  97802215.85243  23884293.464 3  23884296.780 3
        42.000          29.000
  22414331.077 7 117788134.071 7  91782962.71545  22414332.467 5  22414333.136 5
        47.000          35.000
  21289218.008 8 113483513.074 8  88264968.97846  21289217.032 7  21289221.619 6
        51.000          42.000
  19834285.051 9 105839562.006 9  82319686.81948  19834284.646 8  19834289.444 8
        55.000          53.000
  20317614.765 8 108609308.958 8  84473936.49046  20317614.453 8  20317614.124 6
        52.000          43.000
  24595123.083 6 129248242.407 6 100712937.11442  24595125.793 2  24595128.732 2
        40.000          22.000
  22835967.285 7 120003817.201 7  93509483.53345  22835968.810 5  22835971.141 5
        48.000          37.000
  20684723.517 8 108698968.143 8  84700516.75146  20684725.264 6  20684727.291 6
        53.000          44.000
  21888968.224 8 115027303.974 8  89631690.06746  21888969.492 6  21888971.468 6
        50.000          40.000
  22565593.466 7 120541361.597 7  93754419.61746  22565593.484 7  22565599.650 6
        46.000          44.000
  20791550.265 8 109260348.900 8  85137954.08246  20791550.907 6  20791554.574 6
        52.000          44.000
 11 10  1  0 11  0.0000000  0 17G16G23R18R11R19G08G29G02R10R02R01G04
                                G05G13G07R12G10
  22426433.606 7 117851691.556 7  91832507.09145  22426434.604 5  22426437.274 5
        48.000          36.000
  22340264.857 7 117398900.117 7  91479692.02445  22340266.400 5  22340267.062 5
        48.000          35.000
  22178335.580 7 118389497.188 7  92080746.51746  22178335.920 7  22178342.761 6
        47.000          44.000
  19552721.981 8 104483811.316 8  81265220.35947  19552721.569 8  19552723.909 7
        51.000          45.000
  22076119.081 7 118092354.650 7  91849626.74546  22076118.084 7  22076114.241 6
        49.000          44.000
  24117064.416 6 126736019.702 6  98755355.34743  24117064.488 3  24117067.321 3
        44.000          26.000
  23890995.354 6 125548033.112 6  97829663.80744  23890996.321 4  23890999.515 4
        42.000          30.000
  22423638.240 7 117837041.156 7  91821072.02445  22423639.606 5  22423640.319 5
        46.000          35.000
  21308107.384 8 113584196.350 8  88343278.07546  21308105.324 7  21308109.572 6
        51.000          42.000
  19824690.352 8 105788362.126 8  82279864.86048  19824689.939 8  19824694.639 8
        54.000          52.000
  20333242.419 8 108692848.228 8  84538911.44146  20333242.235 8  20333241.623 6
        52.000          44.000
  24616378.346 5 129359939.058 5 100799973.44041  24616379.405 2  24616383.197 1
        39.000          19.000
  22819606.711 7 119917840.209 7  93442488.44845  22819608.090 5  22819610.128 5
        47.000          37.000
  20694285.244 8 108749212.478 8  84739667.86946  20694286.763 6  20694288.736 6
        52.000          44.000
  21873571.539 7 114946393.306 7  89568642.72346  21873572.821 6  21873574.820 6
        49.000          41.000
  22541087.854 7 120410455.721 7  93652603.87546  22541087.582 7  22541094.091 6
        45.000          43.000
  20796853.052 8 109288213.604 8  85159666.91246  20796853.582 6  20796856.954 6
        53.000          44.000
 11 10  1  0 11 30.0000000  0 17G16G23R18R11R19G08G29G02R10R02R01G04
                                G05G13G07R12G10
  22422916.493 7 117833208.853 7  91818104.94445  22422917.453 5  22422919.998 5
        49.000          36.000
  22357553.562 7 117489750.807 7  91550484.91745  22357554.853 5  22357555.126 5
        48.000          36.000
  22191432.972 7 118459402.750 7  92135117.44646  22191432.381 7  22191438.892 6
        48.000          43.000
  19548227.316 8 104459794.630 8  81246541.17147  19548226.938 8  19548229.164 7
        51.000          46.000
  22066789.320 8 118042448.622 8  91810811.11146  22066788.521 7  22066784.927 6
        50.000          44.000
  24095587.390 6 126623164.599 6  98667416.24443  24095588.571 3  24095591.323 3
        42.000          26.000
  23897806.507 6 125583825.648 6  97857554.21844  23897807.581 4  23897810.567 4
        42.000          30.000
  22433051.128 7 117886505.629 7  91859615.75545  22433051.847 5  22433052.829 5
        47.000          35.000
  21327087.780 8 113685374.305 8  88421971.65746  21327086.064 7  21327090.449 6
        50.000          42.000
  19815218.727 9 105737820.575 9  82240554.79548  19815218.503 8  19815223.205 8
        55.000          52.000
  20348975.407 8 108776949.881 8  84604323.78946  20348975.283 8  20348974.952 6
        52.000          43.000
  24637657.971 5 129471759.213 5 100887105.84341  24637659.150 1  24637661.079 1
        39.000          17.000
  22803314.842 7 119832229.129 7  93375778.54245  22803316.568 5  22803319.181 5
        46.000          36.000
  20703942.317 8 108799960.003 8  84779211.25646  20703943.890 6  20703945.782 6
        53.000          44.000
  21858253.840 8 114865899.735 8  89505920.42546  21858255.414 6  21858257.381 6
        50.000          40.000
  22516631.405 7 120279810.958 7  93550991.19246  22516630.986 7  22516637.011 6
        46.000          44.000
  20802269.207 8 109316676.763 8  85181846.06746  20802269.850 6  20802273.242 6
        51.000          44.000
 11 10  1  0 12  0.0000000  0 17G16G23R18R11R19G08G29G02R10R02R01G04
                                G05G13G07R12G10
  22419522.331 7 117815373.897 7  91804207.45445  22419523.391 5  22419526.346 5
        47.000          36.000
  22374900.705 7 117580908.926 7  91621517.05245  22374901.590 5  22374901.932 5
        49.000          35.000
  22204659.206 7 118530009.515 7  92190033.83046  22204658.950 7  22204665.387 6
        47.000          43.000
  19543883.432 8 104436584.567 8  81228489.26247  19543883.279 8  19543885.805 7
        52.000          46.000
  22057608.003 7 117993333.155 7  91772610.33746  22057606.857 7  22057602.634 6
        49.000          44.000
  24074139.909 6 126510457.071 6  98579592.20143  24074140.451 3  24074144.176 3
        41.000          26.000
  23904724.169 6 125620185.175 6  97885886.14043  23904726.018 3  23904729.768 3
        42.000          29.000
  22442569.229 7 117936525.125 7  91898591.73945  22442570.776 5  22442571.701 5
        48.000          35.000
  21346160.730 8 113787044.277 8  88501047.83646  21346159.486 7  21346163.972 6
        50.000          42.000
  19805871.533 9 105687940.301 9  82201758.92848  19805871.096 8  19805875.916 8
        55.000          52.000
  20364813.041 8 108861612.160 8  84670172.03946  20364812.881 8  20364812.867 6
        51.000          43.000
  24658958.920 6 129583700.691 6 100974332.96241  24658960.094 1  24658963.893 1
        40.000          18.000
  22787093.897 7 119746986.246 7  93309355.36445  22787095.536 5  22787097.774 5
        48.000          36.000
  20713694.453 8 108851208.893 8  84819145.18946  20713696.110 6  20713698.526 6
        53.000          44.000
  21843016.340 8 114785826.370 8  89443525.68746  21843017.878 6  21843019.665 6
        50.000          41.000
  22492224.692 7 120149430.408 7  93449583.76346  22492224.692 7  22492230.576 6
        47.000          44.000
  20807799.394 8 109345737.951 8  85204491.10746  20807800.086 6  20807803.270 6
        52.000          44.000
 11 10  1  0 12 30.0000000  0 17G16G23R18R11R19G08G29G02R10R02R01G04
                                G05G13G07R12G10
  22416252.360 7 117798187.988 7  91790815.99545  22416253.243 5  22416255.952 5
        48.000          35.000
  22392305.364 7 117672373.168 7  91692787.86845  22392306.928 5  22392307.383 5
        49.000          35.000
  22218016.876 7 118601314.338 7  92245493.20446  22218016.780 7  22218023.779 6
        47.000          44.000
  19539691.000 8 104414181.452 8  81211064.76147  19539690.824 8  19539693.094 7
        52.000          46.000
  22048573.466 7 117945010.125 7  91735025.64046  22048572.980 7  22048569.576 6
        49.000          44.000
  24052720.961 6 126397899.309 6  98491884.97043  24052721.603 3  24052725.481 3
        42.000          27.000
  23911751.581 6 125657110.727 6  97914659.05843  23911753.087 3  23911756.833 3
        41.000          29.000
  22452193.205 7 117987098.428 7  91937999.46845  22452194.890 5  22452195.650 5
        46.000          35.000
  21365325.518 8 113889204.748 8  88580506.70146  21365324.330 7  21365329.133 6
        51.000          42.000
  19796648.212 9 105638723.082 9  82163478.68648  19796647.869 8  19796652.646 8
        55.000          52.000
  20380754.882 8 108946832.469 8  84736454.50146  20380755.359 8  20380755.211 6
        52.000          43.000
  24680282.928 6 129695760.474 6 101061652.22742  24680286.055 2  24680288.000 2
        41.000          20.000
  22770943.002 7 119662114.043 7  93243221.09645  22770944.889 5  22770947.416 5
        47.000          36.000
  20723541.898 8 108902959.682 8  84859471.10546  20723543.598 6  20723545.553 6
        52.000          43.000
  21827858.978 8 114706175.133 8  89381460.14346  21827860.667 6  21827862.039 6
        51.000          41.000
  22467868.084 7 120019318.363 7  93348385.49246  22467867.530 7  22467873.053 6
        47.000          43.000
  20813443.180 8 109375396.348 8  85227601.63846  20813443.771 6  20813447.106 6
        51.000          44.000
 11 10  1  0 13  0.0000000  0 17G16G23R18R11R19G08G29G02R10R02R01G04
                                G05G13G07R12G10
  22413104.706 7 117781650.211 7  91777929.04045  22413106.246 5  22413109.051 5
        47.000          35.000
  22409768.434 7 117764141.798 7  91764295.91145  22409769.650 5  22409770.102 5
        49.000          35.000
  22231505.846 7 118673313.894 7  92301492.62346  22231505.185 7  22231511.679 6
        47.000          44.000
  19535649.523 8 104392585.687 8  81194268.03147  19535649.643 8  19535651.971 7
        52.000          46.000
  22039689.343 7 117897481.987 7  91698058.88146  22039688.681 7  22039686.143 6
        49.000          44.000
  24031330.699 6 126285493.458 6  98404296.14743  24031331.527 3  24031334.551 3
        43.000          26.000
  23918885.301 5 125694600.515 5  97943871.52543  23918887.337 3  23918891.233 3
        39.000          28.000
  22461922.406 7 118038223.116 7  91977836.66945  22461923.443 5  22461924.489 5
        45.000          35.000
  21384581.637 8 113991848.837 8  88660341.56046  21384579.522 7  21384583.668 6
        51.000          42.000
  19787549.580 9 105590171.520 9  82125716.23648  19787549.232 8  19787553.938 8
        55.000          52.000
  20396801.291 8 109032608.684 8  84803169.36546  20396801.279 8  20396801.018 6
        52.000          43.000
  24701629.765 6 129807936.039 6 101149061.83742  24701630.856 2  24701635.177 2
        41.000          22.000
  22754863.783 7 119577616.020 7  93177378.74345  22754865.273 5  22754867.724 5
        48.000          37.000
  20733484.485 8 108955208.248 8  84900184.48946  20733485.995 6  20733488.046 6
        53.000          43.000
  21812782.169 8 114626947.317 8  89319724.34446  21812783.642 6  21812785.468 6
        50.000          40.000
  22443560.956 7 119889477.429 7  93247397.90946  22443560.605 7  22443565.921 6
        46.000          42.000
  20819200.738 8 109405651.066 8  85251176.69846  20819201.214 6  20819204.561 6
        53.000          44.000
 11 10  1  0 13 30.0000000  0 17G16G23R18R11R19G08G29G02R10R02R01G04
                                G05G13G07R12G10
  22410081.483 7 117765762.418 7  91765548.77345  22410082.815 5  22410085.554 5
        47.000          36.000
  22427289.042 7 117856212.373 7  91836039.19645  22427290.092 5  22427290.542 5
        48.000          35.000
  22245121.985 7 118746004.802 7  92358030.15546  22245121.884 7  22245128.697 6
        47.000          44.000
  19531759.427 8 104371798.245 8  81178100.10347  19531759.414 8  19531761.671 7
        52.000          46.000
  22030954.662 8 117850752.466 8  91661713.85847  22030953.282 7  22030949.565 7
        50.000          45.000
  24009969.720 6 126173241.214 6  98316826.93443  24009971.171 3  24009973.958 3
        43.000          28.000
  23926128.189 6 125732653.625 6  97973522.99043  23926129.340 3  23926132.333 3
        43.000          29.000
  22471756.246 7 118089897.705 7  92018102.43445  22471757.070 5  22471757.938 5
        48.000          36.000
  21403926.487 8 114094972.575 8  88740548.98146  21403924.928 7  21403928.824 6
        50.000          41.000
  19778575.971 9 105542286.944 9  82088472.22948  19778575.923 8  19778581.105 8
        55.000          53.000
  20412951.294 8 109118937.640 8  84870314.00846  20412950.995 8  20412950.700 6
        52.000          42.000
  24722996.721 6 129920224.254 6 101236559.20342  24722999.028 2  24723002.532 2
        40.000          23.000
  22738855.244 7 119493492.838 7  93111828.34445  22738856.977 5  22738859.652 5
        47.000          37.000
  20743521.545 8 109007954.152 8  84941285.47946  20743523.064 6  20743524.898 6
        52.000          44.000
  21797786.196 8 114548144.821 8  89258320.01146  21797787.660 6  21797789.670 6
        50.000          41.000
  22419305.822 7 119759911.109 7  93146624.13646  22419305.437 7  22419310.655 6
        47.000          43.000
  20825071.088 8 109436500.772 8  85275215.21246  20825071.606 6  20825075.282 6
        53.000          44.000
 11 10  1  0 14  0.0000000  0 17G16G23R18R11R19G08G29G02R10R02R01G04
                                G05G13G07R12G10
  22407182.151 7 117750525.223 7  91753675.70745  22407183.408 5  22407186.386 5
        48.000          36.000
  22444866.389 7 117948584.005 7  91908017.29944  22444867.696 4  22444868.064 4
        49.000          34.000
  22258868.810 7 118819383.317 7  92415102.24946  22258868.589 7  22258874.680 6
        47.000          43.000
  19528020.254 8 104351818.763 8  81162560.44947  19528020.121 8  19528022.635 7
        51.000          46.000
  22022367.392 7 117804823.126 7  91625991.29846  22022366.462 7  22022362.969 6
        49.000          44.000
  23988638.390 6 126061144.742 6  98229479.02943  23988639.525 3  23988643.118 3
        42.000          28.000
  23933475.346 6 125771268.315 6  98003612.06043  23933476.948 3  23933480.593 3
        40.000          29.000
  22481694.296 7 118142120.692 7  92058795.83045  22481695.016 5  22481695.371 5
        47.000          36.000
  21423361.258 8 114198573.084 8  88821127.10346  21423360.073 7  21423363.903 6
        50.000          41.000
  19769728.572 9 105495073.528 9  82051750.71648  19769728.134 8  19769732.934 8
        55.000          52.000
  20429204.371 8 109205817.827 8  84937887.51846  20429204.382 8  20429203.392 6
        52.000          42.000
  24744387.351 5 130032622.325 5 101324142.21442  24744387.864 2  24744391.228 2
        39.000          23.000
  22722918.784 7 119409747.587 7  93046572.59845  22722920.422 5  22722923.292 5
        47.000          36.000
  20753653.049 8 109061195.467 8  84982772.26946  20753654.559 6  20753656.430 6
        53.000          43.000
  21782872.257 8 114469769.343 8  89197248.08246  21782873.600 6  21782875.600 6
        50.000          41.000
  22395102.769 7 119630622.624 7  93046066.53046  22395102.781 7  22395108.600 6
        48.000          44.000
  20831054.653 8 109467945.905 8  85299718.12146  20831055.174 6  20831058.676 6
        52.000          44.000
 11 10  1  0 14 30.0000000  0 17G16G23R18R11R19G08G29G02R10R02R01G04
                                G05G13G07R12G10
  22404406.746 7 117735938.741 7  91742309.59045  22404407.606 5  22404410.537 5
        47.000          35.000
  22462500.778 7 118041253.382 7  91980226.96344  22462502.024 4  22462503.267 4
        48.000          34.000
  22272743.228 7 118893446.479 7  92472706.96746  22272743.421 7  22272749.994 6
        47.000          43.000
  19524433.387 8 104332648.085 8  81147649.78547  19524433.154 8  19524435.844 7
        51.000          46.000
  22013931.711 7 117759695.162 7  91590891.72747  22013931.064 7  22013927.729 7
        49.000          45.000
  23967337.530 6 125949206.207 6  98142254.26143  23967338.385 3  23967341.896 3
        42.000          27.000
  23940930.993 6 125810443.034 6  98034137.67243  23940932.461 3  23940936.088 3
        41.000          29.000
  22491734.948 7 118194889.336 7  92099914.29245  22491736.028 5  22491737.111 5
        47.000          35.000
  21442886.419 8 114302647.088 8  88902073.67046  21442884.538 7  21442888.322 6
        51.000          42.000
  19761006.731 9 105448532.286 9  82015552.06948  19761006.526 9  19761011.130 8
        55.000          52.000
  20445559.686 8 109293246.841 8  85005888.08146  20445559.282 8  20445558.472 6
        52.000          43.000
  24765794.513 5 130145127.156 5 101411808.24542  24765796.999 2  24765799.404 2
        39.000          21.000
  22707054.849 7 119326381.981 7  92981612.49845  22707056.348 5  22707059.116 5
        47.000          37.000
  20763878.328 8 109114931.075 8  85024644.22446  20763879.904 6  20763881.946 6
        53.000          43.000
  21768039.620 7 114391823.130 7  89136510.53946  21768041.044 6  21768043.029 6
        49.000          41.000
  22370951.488 7 119501615.423 7  92945727.97246  22370951.528 7  22370956.707 6
        46.000          44.000
  20837151.557 8 109499984.718 8  85324683.54846  20837152.159 6  20837155.394 6
        51.000          44.000
 11 10  1  0 15  0.0000000  0 17G16G23R18R11R19G08G29G02R10R02R01G04
                                G05G13G07R12G10
  22401755.036 7 117722004.155 7  91731451.67845  22401755.953 5  22401758.512 5
        48.000          35.000
  22480192.041 7 118134219.939 7  92052668.52245  22480193.622 5  22480193.793 5
        47.000          35.000
  22286745.734 7 118968191.150 7  92530841.76246  22286745.158 7  22286751.963 6
        48.000          44.000
  19520997.141 8 104314286.952 8  81133368.90747  19520996.933 8  19520998.804 7
        51.000          46.000
  22005646.178 7 117715370.966 7  91556417.00246  22005644.694 7  22005641.222 6
        49.000          44.000
  23946066.168 6 125837427.600 6  98055154.01443  23946067.345 3  23946070.673 3
        43.000          27.000
  23948491.569 6 125850176.320 6  98065098.38743  23948493.133 3  23948497.255 3
        42.000          29.000
  22501880.717 7 118248200.863 7  92141455.20145  22501881.468 5  22501882.597 5
        47.000          35.000
  21462497.250 8 114407190.022 8  88983384.90646  21462495.977 7  21462499.759 6
        50.000          41.000
  19752411.175 9 105402664.646 9  81979877.05148  19752410.792 8  19752415.723 8
        55.000          52.000
  20462016.677 8 109381221.321 8  85074312.72246  20462016.455 8  20462016.002 6
        52.000          42.000
  24787223.791 5 130257736.568 5 101499555.90141  24787224.827 1  24787227.664 1
        38.000          19.000
  22691263.851 7 119243398.716 7  92916950.28945  22691265.372 5  22691267.657 5
        47.000          37.000
  20774197.914 8 109169159.530 8  85066900.22946  20774199.404 6  20774201.195 6
        52.000          44.000
  21753289.350 7 114314306.848 7  89076107.33446  21753290.880 6  21753293.366 6
        49.000          40.000
  22346855.723 7 119372891.352 7  92845609.06146  22346854.882 7  22346860.645 6
        47.000          44.000
  20843361.227 8 109532615.684 8  85350110.16646  20843361.861 6  20843364.942 6
        52.000          43.000
 11 10  1  0 15 30.0000000  0 17G16G23R18R11R19G08G29G02R10R02R01G04
                                G05G13G07R12G10
  22399227.146 7 117708721.107 7  91721101.09345  22399228.388 5  22399230.955 5
        48.000          36.000
  22497938.795 7 118227481.168 7  92125339.57445  22497940.685 5  22497941.004 5
        47.000          35.000
  22300874.353 7 119043613.088 7  92589503.28346  22300873.996 7  22300880.913 6
        47.000          43.000
  19517712.412 8 104296735.513 8  81119717.88647  19517712.182 8  19517714.719 7
        51.000          46.000
  21997510.701 7 117671852.826 7  91522568.92746  21997509.770 7  21997506.721 6
        49.000          44.000
  23924825.255 6 125725811.480 6  97968180.41543  23924826.421 3  23924830.503 3
        41.000          26.000
  23956158.672 6 125890467.805 6  98096494.81843  23956160.114 3  23956163.583 3
        43.000          29.000
  22512128.798 7 118302056.721 7  92183421.35345  22512129.633 5  22512130.465 5
        49.000          36.000
  21482197.332 8 114512198.616 8  89065058.22346  21482195.827 7  21482200.231 6
        50.000          42.000
  19743942.679 9 105357474.080 9  81944728.81348  19743942.212 8  19743947.183 8
        55.000          53.000
  20478575.423 8 109469739.361 8  85143160.20946  20478575.393 8  20478575.388 6
        52.000          43.000
  24808671.999 5 130370447.009 5 101587382.08841  24808674.062 1  24808676.999 1
        38.000          18.000
  22675545.437 7 119160799.929 7  92852587.53745  22675547.235 5  22675549.808 5
        47.000          37.000
  20784610.667 8 109223878.855 8  85109538.66946  20784612.246 6  20784613.716 6
        53.000          43.000
  21738621.282 8 114237225.966 8  89016044.40846  21738622.751 6  21738625.189 6
        50.000          41.000
  22322810.942 7 119244455.444 7  92745714.60546  22322810.228 7  22322816.369 6
        46.000          44.000
  20849683.195 8 109565838.170 8  85375997.64346  20849683.767 6  20849687.320 6
        51.000          44.000
 11 10  1  0 16  0.0000000  0 17G16G23R18R11R19G08G29G02R10R02R01G04
                                G05G13G07R12G10
  22396823.866 7 117696090.885 7  91711259.35745  22396824.829 5  22396827.239 5
        48.000          35.000
  22515742.738 7 118321035.300 7  92198238.86245  22515743.982 5  22515743.509 5
        49.000          35.000
  22315130.735 7 119119708.466 7  92648688.41546  22315129.673 7  22315136.011 6
        47.000          43.000
  19514579.414 8 104279993.227 8  81106695.90947  19514579.243 8  19514581.823 7
        52.000          46.000
  21989527.952 7 117629144.525 7  91489351.49747  21989526.618 7  21989522.426 7
        49.000          45.000
  23903618.138 6 125614359.471 6  97881334.62843  23903618.874 3  23903622.170 3
        42.000          27.000
  23963931.504 6 125931313.782 6  98128322.82343  23963933.480 3  23963936.396 3
        41.000          29.000
  22522479.859 7 118356452.009 7  92225807.56545  22522480.678 5  22522481.040 5
        48.000          35.000
  21501983.513 8 114617669.428 8  89147091.16146  21501981.872 7  21501986.072 6
        51.000          42.000
  19735601.015 9 105312961.612 9  81910107.74348  19735600.814 8  19735606.474 8
        55.000          52.000
  20495235.717 8 109558797.905 8  85212427.81446  20495235.863 8  20495235.537 6
        51.000          42.000
  24830139.337 6 130483256.185 6 101675285.18341  24830139.553 1  24830143.168 1
        40.000          18.000
  22659901.156 7 119078588.955 7  92788527.14545  22659902.901 5  22659905.384 5
        48.000          37.000
  20795116.441 8 109279088.203 8  85152558.94446  20795118.012 6  20795119.824 6
        53.000          43.000
  21724035.976 8 114160580.897 8  88956321.35046  21724037.485 6  21724039.542 6
        50.000          41.000
  22298822.457 7 119116309.763 7  92646045.81946  22298821.505 7  22298827.405 6
        47.000          44.000
  20856117.838 8 109599651.663 8  85402345.77446  20856118.223 6  20856121.706 6
        53.000          44.000
 11 10  1  0 16 30.0000000  0 17G16G23R18R11R19G08G29G02R10R02R01G04
                                G05G13G07R12G10
  22394544.711 7 117684112.875 7  91701925.74745  22394545.625 5  22394548.121 5
        49.000          36.000
  22533600.243 7 118414880.305 7  92271364.79545  22533601.469 5  22533602.087 5
        49.000          35.000
  22329510.893 7 119196474.858 7  92708395.57946  22329510.302 7  22329517.727 6
        47.000          43.000
  19511598.243 8 104264061.370 8  81094304.71947  19511597.772 8  19511600.596 7
        52.000          46.000
  21981694.787 7 117587246.437 7  91456764.00447  21981694.115 7  21981690.614 7
        49.000          45.000
  23882441.119 7 125503074.038 7  97794618.72343  23882442.321 3  23882445.327 3
        45.000          28.000
  23971809.366 6 125972712.653 6  98160581.49543  23971810.969 3  23971814.605 3
        41.000          29.000
  22532932.401 7 118411384.207 7  92268611.62145  22532933.910 5  22532934.730 5
        48.000          35.000
  21521854.193 8 114723597.429 8  89229479.33446  21521853.096 7  21521857.642 6
        50.000          42.000
  19727386.795 9 105269130.286 9  81876016.91048  19727386.627 8  19727391.497 8
        55.000          52.000
  20511997.183 8 109648394.917 8  85282114.43646  20511996.985 8  20511996.324 6
        52.000          42.000
  24851625.456 6 130596161.554 6 101763263.58042  24851625.425 2  24851628.006 2
        41.000          20.000
  22644331.008 7 118996766.078 7  92724768.86145  22644332.341 5  22644335.080 5
        47.000          37.000
  20805715.653 8 109334785.230 8  85195958.97746  20805717.174 6  20805719.041 6
        53.000          43.000
  21709534.249 8 114084372.583 8  88896938.52646  21709535.677 6  21709537.305 6
        50.000          42.000
  22274887.687 7 118988458.060 7  92546605.64146  22274887.152 7  22274892.680 6
        47.000          43.000
  20862664.491 8 109634055.239 8  85429153.92546  20862664.922 6  20862668.319 6
        53.000          44.000
 11 10  1  0 17  0.0000000  0 17G16G23R18R11R19G08G29G02R10R02R01G04
                                G05G13G07R12G10
  22392390.171 7 117672788.776 7  91693101.83045  22392391.053 5  22392393.323 5
        48.000          36.000
  22551513.750 7 118509014.213 7  92344715.75445  22551514.704 5  22551515.341 5
        47.000          35.000
  22344017.305 7 119273907.894 7  92768620.98746  22344017.167 7  22344024.361 6
        47.000          44.000
  19508767.743 8 104248939.077 8  81082543.00847  19508767.813 8  19508770.404 7
        52.000          46.000
  21974015.121 7 117546160.738 7  91424808.30547  21974013.534 7  21974009.982 7
        49.000          45.000
  23861296.070 6 125391956.928 6  97708034.00043  23861297.083 3  23861300.328 3
        44.000          29.000
  23979792.836 6 126014663.585 6  98193270.36743  23979794.427 3  23979798.018 3
        43.000          29.000
  22543487.918 7 118466852.911 7  92311834.22145  22543489.050 5  22543489.435 5
        46.000          35.000
  21541812.624 8 114829980.749 8  89312222.27746  21541810.867 7  21541814.715 6
        50.000          41.000
  19719300.893 9 105225981.032 9  81842456.31848  19719300.575 8  19719305.266 8
        55.000          52.000
  20528858.295 8 109738527.782 8  85352217.81746  20528858.266 8  20528857.675 6
        52.000          42.000
  24873126.737 5 130709159.753 5 101851314.21142  24873128.004 2  24873131.401 2
        38.000          20.000
  22628834.975 7 118915335.266 7  92661316.36245  22628836.743 5  22628839.105 5
        47.000          37.000
  20816407.483 8 109390968.961 8  85239738.16146  20816408.878 6  20816410.629 6
        53.000          43.000
  21695115.507 8 114008602.507 8  88837896.95246  21695116.979 6  21695119.055 6
        50.000          41.000
  22251009.432 7 118860903.121 7  92447396.19846  22251008.588 7  22251014.484 6
        47.000          44.000
  20869323.079 8 109669047.236 8  85456420.41646  20869323.680 6  20869326.834 6
        52.000          43.000
 11 10  1  0 17 30.0000000  0 17G16G23R18R11R19G08G29G02R10R02R01G04
                                G05G13G07R12G10
  22390359.300 7 117662118.397 7  91684787.37545  22390360.426 5  22390362.831 5
        48.000          36.000
  22569481.238 7 118603435.901 7  92418291.18044  22569482.091 4  22569482.134 4
        47.000          33.000
  22358647.458 7 119352004.045 7  92829361.93746  22358646.940 7  22358653.806 6
        47.000          43.000
  19506089.849 8 104234627.102 8  81071411.60247  19506089.481 8  19506092.124 7
        51.000          46.000
  21966486.974 8 117505890.363 8  91393487.05347  21966485.804 7  21966481.647 7
        50.000          45.000
  23840183.719 6 125281010.525 6  97621582.27943  23840184.742 3  23840187.888 3
        43.000          28.000
  23987880.907 6 126057163.573 6  98226386.29343  23987882.121 3  23987886.474 3
        43.000          28.000
  22554144.847 7 118522854.876 7  92355471.94845  22554145.976 4  22554146.743 5
        45.000          35.000
  21561854.207 8 114936814.058 8  89395314.89146  21561852.432 7  21561856.413 6
        50.000          41.000
  19711342.988 9 105183516.877 9  81809428.68848  19711342.737 8  19711347.755 8
        55.000          53.000
  20545819.803 8 109829194.326 8  85422736.32146  20545819.508 8  20545818.475 6
        51.000          42.000
  24894646.370 5 130822248.294 5 101939435.06342  24894647.929 2  24894652.589 2
        39.000          20.000
  22613414.440 7 118834298.378 7  92598170.72845  22613416.059 5  22613418.436 5
        48.000          37.000
  20827190.969 8 109447639.038 8  85283896.82246  20827192.602 6  20827194.404 6
        52.000          43.000
  21680780.987 8 113933273.693 8  88779199.27146  21680782.389 6  21680784.069 6
        50.000          41.000
  22227186.954 7 118733648.557 7  92348420.37246  22227186.213 7  22227191.962 6
        46.000          44.000
  20876093.798 8 109704626.914 8  85484144.77746  20876094.277 6  20876097.707 6
        53.000          43.000
 11 10  1  0 18  0.0000000  0 17G16G23R18R11R19G08G29G02R10R02R01G04
                                G05G13G07R12G10
  22388453.109 7 117652101.572 7  91676982.04645  22388454.335 5  22388456.820 5
        48.000          36.000
  22587502.558 7 118698142.653 7  92492088.63144  22587503.675 4  22587504.807 4
        47.000          32.000
  22373401.027 7 119430760.414 7  92890616.73946  22373400.671 7  22373407.077 6
        47.000          43.000
  19503562.892 8 104221125.295 8  81060910.29947  19503562.542 8  19503565.115 7
        51.000          46.000
  21959110.937 8 117466436.672 8  91362801.09147  21959109.704 7  21959106.457 7
        50.000          45.000
  23819104.615 6 125170237.093 6  97535265.41043  23819105.259 3  23819108.471 3
        43.000          29.000
  23996073.608 6 126100213.897 6  98259931.99143  23996074.762 3  23996078.241 3
        42.000          29.000
  22564902.741 7 118579389.079 7  92399524.64345  22564904.091 5  22564904.627 5
        47.000          35.000
  21581978.774 8 115044094.222 8  89478755.03746  21581977.563 7  21581981.337 6
        50.000          40.000
  19703513.640 9 105141739.245 9  81776935.06748  19703513.448 8  19703518.545 8
        55.000          53.000
  20562879.814 8 109920391.383 8  85493667.37346  20562879.538 8  20562878.971 6
        52.000          42.000
  24916183.400 5 130935424.911 5 102027624.84142  24916184.515 2  24916188.783 2
        39.000          21.000
  22598069.359 7 118753657.295 7  92535333.49845  22598070.845 5  22598072.888 5
        48.000          38.000
  20838066.657 8 109504792.795 8  85328432.63146  20838068.158 6  20838069.839 6
        53.000          43.000
  21666530.097 8 113858387.604 8  88720846.51546  21666531.908 6  21666533.779 6
        50.000          42.000
  22203422.004 7 118606697.750 7  92249680.85146  22203421.724 7  22203426.437 6
        47.000          44.000
  20882976.062 8 109740792.462 8  85512325.32746  20882976.662 6  20882980.191 6
        51.000          44.000
 11 10  1  0 18 30.0000000  0 17G16G23R18R11R19G08G29G02R10R02R01G04
                                G05G13G07R12G10
  22386671.382 7 117642739.476 7  91669686.94745  22386672.594 5  22386675.269 5
        49.000          36.000
  22605579.221 7 118793133.242 7  92566107.33544  22605580.703 4  22605580.490 4
        47.000          33.000
  22388279.008 7 119510173.971 7  92952382.92946  22388277.802 7  22388284.199 6
        47.000          43.000
  19501187.778 8 104208433.733 8  81051039.12347  19501187.656 8  19501189.604 7
        52.000          46.000
  21951887.276 7 117427801.393 7  91332751.46947  21951886.853 7  21951883.462 7
        49.000          45.000
  23798057.044 6 125059638.079 6  97449084.39043  23798058.793 3  23798062.458 3
        43.000          28.000
  24004370.162 6 126143808.733 6  98293900.80043  24004371.366 3  24004375.165 3
        42.000          28.000
  22575761.548 7 118636453.399 7  92443990.46444  22575762.663 4  22575763.463 4
        48.000          34.000
  21602187.182 7 115151817.539 7  89562539.95446  21602185.886 7  21602190.190 6
        49.000          41.000
  19695813.650 9 105100649.970 9  81744976.67348  19695813.562 8  19695818.586 8
        55.000          53.000
  20580038.841 8 110012116.557 8  85565009.07446  20580038.954 8  20580037.881 6
        51.000          42.000
  24937736.475 6 131048685.967 6 102115880.23242  24937738.331 2  24937741.550 2
        40.000          21.000
  22582799.696 7 118673414.652 7  92472806.76645  22582801.182 5  22582803.166 5
        49.000          38.000
  20849034.340 8 109562428.609 8  85373343.84446  20849035.656 6  20849037.686 6
        52.000          43.000
  21652364.948 8 113783946.285 8  88662840.38246  21652366.395 6  21652367.838 6
        50.000          41.000
  22179713.294 7 118480053.719 7  92151179.92446  22179713.442 7  22179718.614 6
        47.000          44.000
  20889969.708 8 109777544.832 8  85540963.61346  20889970.351 6  20889973.760 6
        52.000          43.000
 11 10  1  0 19  0.0000000  0 17G16G23R18R11R19G08G29G02R10R02R01G04
                                G05G13G07R12G10
  22385014.867 7 117634031.745 7  91662901.55145  22385015.823 5  22385018.238 5
        49.000          36.000
  22623709.222 7 118888405.045 7  92640345.04744  22623710.543 4  22623710.809 4
        48.000          34.000
  22403277.216 7 119590239.062 7  93014655.46746  22403277.031 7  22403283.799 6
        47.000          43.000
  19498964.403 8 104196550.978 8  81041796.33547  19498964.400 8  19498966.131 7
        51.000          46.000
  21944818.847 7 117389986.089 7  91303339.45147  21944817.935 7  21944814.535 7
        49.000          45.000
  23777043.968 6 124949216.013 6  97363041.25243  23777045.565 3  23777049.324 3
        42.000          27.000
  24012769.915 6 126187949.970 6  98328295.96543  24012771.223 3  24012775.694 3
        42.000          28.000
  22586720.733 7 118694044.618 7  92488866.75645  22586722.073 4  22586722.721 5
        47.000          35.000
  21622478.744 7 115259979.665 7  89646665.83246  21622477.053 7  21622481.381 6
        49.000          41.000
  19688243.463 9 105060251.009 9  81713555.04248  19688242.987 8  19688247.648 8
        55.000          52.000
  20597296.089 8 110104367.693 8  85636760.03946  20597296.300 8  20597295.695 6
        51.000          42.000
  24959304.319 5 131162028.836 5 102204199.34942  24959306.089 2  24959310.286 2
        39.000          20.000
  22567605.850 7 118593572.656 7  92410592.17445  22567607.624 5  22567610.073 5
        48.000          38.000
  20860093.534 8 109620544.651 8  85418629.10046  20860095.087 6  20860096.794 6
        54.000          43.000
  21638283.795 8 113709951.249 8  88605182.11446  21638285.176 6  21638286.782 6
        50.000          41.000
  22156063.288 7 118353719.826 7  92052920.34646  22156062.982 7  22156068.138 6
        47.000          44.000
  20897074.628 8 109814880.443 8  85570055.88546  20897075.498 6  20897079.163 6
        52.000          44.000
 11 10  1  0 19 30.0000000  0 17G16G23R18R11R19G08G29G02R10R02R01G04
                                G05G13G07R12G10
  22383482.338 7 117625980.244 7  91656627.83045  22383483.367 5  22383485.927 5
        49.000          36.000
  22641892.112 7 118983956.851 7  92714800.83944  22641893.464 5  22641894.331 4
        47.000          34.000
  22418396.747 7 119670953.836 7  93077433.53846  22418396.942 7  22418404.475 6
        46.000          43.000
  19496892.307 8 104185480.820 8  81033186.60447  19496892.359 8  19496894.690 7
        51.000          46.000
  21937903.697 8 117352993.439 8  91274567.34547  21937902.925 7  21937898.983 7
        50.000          45.000
  23756066.453 6 124838973.322 6  97277137.97643  23756067.467 3  23756071.150 3
        44.000          28.000
  24021273.163 6 126232636.421 6  98363116.75243  24021275.050 3  24021279.277 3
        42.000          29.000
  22597780.345 7 118752161.675 7  92534152.73144  22597781.509 4  22597781.766 4
        46.000          34.000
  21642851.348 7 115368575.913 7  89731128.51146  21642850.180 7  21642854.929 6
        49.000          41.000
  19680802.432 9 105020545.772 9  81682673.34848  19680802.140 8  19680806.844 8
        55.000          52.000
  20614651.225 8 110197142.020 8  85708917.81246  20614651.391 8  20614651.162 6
        52.000          42.000
  24980888.308 5 131275451.302 5 102292580.44641  24980889.178 1  24980893.581 1
        38.000          18.000
  22552489.618 7 118514133.597 7  92348691.46245  22552491.170 5  22552493.521 5
        49.000          38.000
  20871243.884 8 109679138.845 8  85464286.45046  20871245.488 6  20871247.478 6
        52.000          43.000
  21624288.124 8 113636405.010 8  88547873.43346  21624289.819 6  21624291.390 6
        51.000          41.000
  22132472.036 7 118227699.231 7  91954904.28147  22132471.913 7  22132477.896 7
        47.000          45.000
  20904290.764 8 109852800.929 8  85599604.50746  20904291.423 6  20904294.944 6
        53.000          43.000
 11 10  1  0 20  0.0000000  0 17G16G23R18R11R19G08G29G02R10R02R01G04
                                G05G13G07R12G10
  22382074.869 7 117618583.243 7  91650863.80945  22382075.852 5  22382078.256 5
        47.000          36.000
  22660127.139 7 119079786.607 7  92789473.29544  22660128.761 4  22660130.388 4
        46.000          34.000
  22433637.904 7 119752314.566 7  93140713.98646  22433638.466 7  22433646.279 6
        45.000          43.000
  19494972.767 8 104175219.571 8  81025205.33947  19494972.410 8  19494975.347 7
        52.000          46.000
  21931141.717 7 117316825.776 7  91246437.21346  21931140.947 7  21931137.100 6
        49.000          44.000
  23735122.262 6 124728911.120 6  97191375.05643  23735123.575 3  23735127.182 3
        44.000          28.000
  24029880.554 6 126277864.442 6  98398359.36343  24029881.222 3  24029885.966 3
        43.000          29.000
  22608938.776 7 118810802.343 7  92579846.76244  22608940.075 4  22608940.850 4
        48.000          34.000
  21663306.025 8 115477605.718 8  89815929.29246  21663304.425 7  21663308.966 6
        50.000          42.000
  19673491.524 9 104981535.018 9  81652331.74948  19673491.439 8  19673496.248 8
        55.000          52.000
  20632104.479 8 110290437.198 8  85781480.73946  20632104.115 8  20632103.705 6
        51.000          42.000
  25002486.182 5 131388950.359 5 102381021.24541  25002486.653 1  25002490.753 1
        38.000          17.000
  22537449.996 7 118435100.692 7  92287107.67845  22537451.371 5  22537453.761 5
        48.000          38.000
  20882484.830 8 109738212.379 8  85510318.30646  20882486.285 6  20882487.928 6
        53.000          43.000
  21610378.336 8 113563308.870 8  88490915.50146  21610379.955 6  21610381.708 6
        50.000          42.000
  22108940.821 7 118101994.841 7  91857133.84046  22108939.888 7  22108945.035 6
        48.000          44.000
  20911617.785 8 109891303.462 8  85629606.56346  20911618.286 6  20911621.609 6
        53.000          44.000
