     2.11           OBSERVATION DATA    G (GPS)             RINEX VERSION / TYPE
teqc  2016Apr1                          20160930 07:51:16UTCPGM / RUN BY / DATE
Linux 2.4.20-8|Pentium IV|gcc|Linux|486/DX+                 COMMENT
teqc  2016Apr1                          20160816 03:17:50UTCCOMMENT
teqc  2010Mar17     gpsops              20111002 00:19:46UTCCOMMENT
Linux 2.4.21-27.ELsmp|Opteron|gcc -static|Linux x86_64|=+   COMMENT
BIT 2 OF LLI FLAGS DATA COLLECTED UNDER A/S CONDITION       COMMENT
                                                            COMMENT
This data is provided as a public service by NASA/JPL.      COMMENT
No warranty is expressed or implied regarding suitability   COMMENT
for use.  For further information, contact:                 COMMENT
Dave Stowers, NASA/JPL m/s 238-600                          COMMENT
4800 Oak Grove Drive, Pasadena CA 91109 USA                 COMMENT
                                                            COMMENT
Forced Modulo Decimation to 30 seconds                      COMMENT
 SNR is mapped to RINEX snr flag value [0-9]                COMMENT
  L1 & L2: min(max(int(snr_dBHz/6), 0), 9)                  COMMENT
pseudorange smoothing corrections not applied               COMMENT
QUIN                                                        MARKER NAME
40433M004                                                   MARKER NUMBER
GGN                 JPL                                     OBSERVER / AGENCY
UC2200524016        ASHTECH UZ-12       CQ00                REC # / TYPE / VERS
CR6200548028        ASH701945E_M    SNOW                    ANT # / TYPE
 -2517231.2090 -4198595.0580  4076531.2080                  APPROX POSITION XYZ
        0.0614        0.0000        0.0000                  ANTENNA: DELTA H/E/N
     1     1                                                WAVELENGTH FACT L1/2
     7    L1    L2    P1    P2    C1    S1    S2            # / TYPES OF OBSERV
    30.0000                                                 INTERVAL
teqc windowed: start @ 2011 Oct  1 00:10:00.000             COMMENT
teqc windowed:  end  @ 2011 Oct  1 00:20:00.000             COMMENT
  2011    10     1     0    10    0.0000000     GPS         TIME OF FIRST OBS
                                                            END OF HEADER
 11 10  1  0 10  0.0000000  0  8G21G26G02G30G05G29G12G25
 -11370297.31548  -8805276.94947  22750642.0924   22750647.5014   22750642.4974
        49.0004         44.0004
  -2543525.92647  -1930683.12346  24448750.4764   24448760.5594   24448750.4654
        42.0004         38.0004
  -7747233.14747  -5983890.50946  23720706.3814   23720711.8094   23720706.9534
        45.0004         40.0004
 -17014970.13048 -13193854.59348  21143615.2934   21143621.9394   21143616.1634
        53.0004         48.0004
 -18483108.61448 -14342596.92348  21627214.2784   21627218.8004   21627213.5984
        52.0004         48.0004
 -23964392.63849 -18630876.90648  20353004.7334   20353009.4564   20353004.5304
        56.0004         51.0004
  -6799525.10447  -5279460.44746  23701206.3414   23701214.8774   23701205.5684
        45.0004         40.0004
 -16752841.89248 -12996090.22448  21668805.1134   21668814.5144   21668805.6414
        52.0004         48.0004
 11 10  1  0 10 30.0000000  0  8G21G26G02G30G05G29G12G25
 -11431264.79948  -8852784.01247  22739040.3894   22739046.1464   22739040.9314
        49.0004         44.0004
  -2632513.58847  -2000023.96146  24431816.7784   24431827.4214   24431816.1584
        42.0004         37.0004
  -7663655.31847  -5918764.99046  23736611.0604   23736617.9404   23736611.1564
        45.0004         40.0004
 -16988207.47648 -13173000.58748  21148708.2754   21148714.8394   21148708.9244
        53.0004         48.0004
 -18428737.18248 -14300229.58548  21637560.8544   21637566.2084   21637560.2884
        52.0004         48.0004
 -23986300.98549 -18647948.32948  20348835.7234   20348840.2784   20348835.3534
        56.0004         51.0004
  -6689020.27447  -5193352.98546  23722234.1894   23722242.9164   23722233.3444
        45.0004         40.0004
 -16672647.17548 -12933600.89047  21684065.2354   21684074.3994   21684065.6174
        52.0004         47.0004
 11 10  1  0 11  0.0000000  0  8G21G26G02G30G05G29G12G25
 -11492065.89148  -8900161.42047  22727470.2854   22727476.2704   22727469.8774
        49.0004         44.0004
  -2721308.08346  -2069214.27646  24414919.6594   24414929.0484   24414919.3794
        41.0004         37.0004
  -7580025.60647  -5853599.05146  23752525.7794   23752531.4494   23752526.7844
        45.0004         40.0004
 -16960823.00848 -13151662.05248  21153919.4644   21153926.2014   21153919.8654
        53.0004         48.0004
 -18373868.22048 -14257474.55748  21648002.6524   21648007.3144   21648001.7354
        52.0004         48.0004
 -24007872.10449 -18664756.97648  20344730.4634   20344735.5164   20344730.2474
        56.0004         51.0004
  -6578402.42447  -5107157.47646  23743283.7024   23743292.6444   23743283.6444
        45.0004         40.0004
 -16592049.96848 -12870797.92948  21699403.0084   21699411.9444   21699403.2684
        52.0004         48.0004
 11 10  1  0 11 30.0000000  0  9G21G26G02G30G05G18G29G12G25
 -11552704.00748  -8947411.83747  22715931.4014   22715938.3594   22715931.6574
        48.0004         44.0004
  -2809909.20646  -2138253.92146  24398058.9374   24398070.2084   24398059.2504
        41.0004         37.0004
  -7496348.16147  -5788395.89046  23768449.0994   23768454.7634   23768448.5734
        45.0004         40.0004
 -16932821.88448 -13129843.00448  21159247.8294   21159254.4554   21159248.0754
        53.0004         48.0004
 -18318507.81348 -14214336.59148  21658536.5434   21658541.6744   21658535.7144
        52.0004         48.0004
   -564134.12048   -379184.32146  24290611.0904   24290621.8374   24290611.3414
        49.0004         36.0004
 -24029108.59449 -18681304.88348  20340689.7954   20340694.2664   20340689.2674
        56.0004         51.0004
  -6467677.99747  -5020878.90746  23764354.5044   23764363.7704   23764354.3784
        45.0004         40.0004
 -16511056.66048 -12807686.31947  21714815.3294   21714824.7644   21714815.5944
        52.0004         47.0004
 11 10  1  0 12  0.0000000  0  9G21G26G02G30G05G18G29G12G25
 -11613177.59048  -8994534.04047  22704423.6034   22704429.0934   22704424.1464
        49.0004         44.0004
  -2898311.97646  -2207139.00646  24381235.4874   24381246.5564   24381236.3724
        41.0004         37.0004
  -7412622.46247  -5723155.13546  23784381.4584   23784386.8424   23784381.2154
        45.0004         40.0004
 -16904203.88948 -13107543.27948  21164693.4854   21164700.4014   21164694.2364
        53.0004         48.0004
 -18262656.73148 -14170816.27348  21669164.7304   21669170.6904   21669163.6714
        52.0004         48.0004
   -667589.72547   -459798.69346  24270924.4454   24270935.3054   24270924.5614
        44.0004         36.0004
 -24050007.80249 -18697589.96748  20336712.4444   20336717.2054   20336712.2374
        56.0004         51.0004
  -6356848.28147  -4934518.28646  23785444.0184   23785454.0234   23785444.2814
        45.0004         40.0004
 -16429668.36348 -12744266.91747  21730303.4174   21730312.1794   21730303.4094
        52.0004         47.0004
 11 10  1  0 12 30.0000000  0  9G21G26G02G30G05G18G29G12G25
 -11673486.84548  -9041528.18747  22692946.3734   22692952.6414   22692946.4724
        49.0004         44.0004
  -2986512.74247  -2275866.69746  24364450.9684   24364460.8004   24364451.5654
        42.0004         37.0004
  -7328849.11447  -5657877.26646  23800322.6534   23800328.6294   23800322.4984
        45.0004         40.0004
 -16874970.08548 -13084763.70048  21170257.0334   21170262.9484   21170256.9824
        53.0004         48.0004
 -18206316.89048 -14126915.10648  21679885.8794   21679891.2044   21679885.8024
        52.0004         48.0004
   -770957.27547   -540344.43546  24251254.7004   24251262.7634   24251253.8064
        42.0004         37.0004
 -24070568.30249 -18713611.12548  20332799.9454   20332804.7004   20332799.4134
        56.0004         51.0004
  -6245915.69947  -4848077.52346  23806554.6454   23806564.1954   23806553.9044
        45.0004         40.0004
 -16347887.55948 -12680541.67647  21745865.8474   21745874.2904   21745866.2794
        52.0004         47.0004
 11 10  1  0 13  0.0000000  0  9G21G26G02G30G05G18G29G12G25
 -11733627.02648  -9088390.61147  22681502.9044   22681509.2244   22681502.8484
        49.0004         44.0004
  -3074502.95747  -2344430.32346  24347706.0774   24347719.4174   24347706.0044
        42.0004         37.0004
  -7245024.16547  -5592559.17746  23816274.2744   23816280.6194   23816274.8744
        45.0004         40.0004
 -16845117.34248 -13061501.83148  21175937.6284   21175944.2804   21175938.1584
        52.0004         48.0004
 -18149485.66348 -14082631.03947  21690700.1724   21690706.2424   21690699.9624
        52.0004         47.0004
   -874230.57447   -620816.74846  24231603.6234   24231613.5004   24231601.3884
        42.0004         37.0004
 -24090784.28449 -18729363.83148  20328953.1784   20328957.8554   20328952.7854
        56.0004         51.0004
  -6134878.48147  -4761555.24146  23827684.6144   23827693.8044   23827684.5214
        45.0004         40.0004
 -16265712.29148 -12616509.05847  21761503.4704   21761511.8314   21761503.7834
        52.0004         47.0004
 11 10  1  0 13 30.0000000  0  9G21G26G02G30G05G18G29G12G25
 -11793601.18448  -9135123.65347  22670089.9754   22670096.2124   22670089.9804
        49.0004         44.0004
  -3162281.94847  -2412829.36446  24331003.4444   24331013.4494   24331005.4324
        42.0004         38.0004
  -7161150.82647  -5527203.37546  23832234.7444   23832240.5424   23832234.7074
        44.0004         40.0004
 -16814649.64048 -13037760.77648  21181735.0694   21181741.8954   21181735.4874
        52.0004         48.0004
 -18092168.02348 -14037967.95147  21701608.0334   21701612.7014   21701607.5614
        52.0004         47.0004
   -977410.06047   -701215.99546  24211965.9854   24211976.2884   24211967.6184
        42.0004         37.0004
 -24110656.73549 -18744848.84948  20325171.3074   20325176.2844   20325171.0154
        56.0004         51.0004
  -6023741.79347  -4674955.44446  23848833.8064   23848843.4644   23848832.8514
        45.0004         40.0004
 -16183147.80948 -12552173.15547  21777214.8584   21777224.1574   21777215.0284
        52.0004         47.0004
 11 10  1  0 14  0.0000000  0 10G21G26G02G30G05G18G29G15G12G25
 -11853410.93148  -9181728.59647  22658708.5444   22658713.9774   22658708.7034
        49.0004         44.0004
  -3249847.86447  -2481062.37746  24314340.4594   24314350.0294   24314340.9834
        43.0004         38.0004
  -7077231.85847  -5461812.03146  23848204.0624   23848209.3724   23848204.5654
        44.0004         40.0004
 -16783570.30148 -13013543.11448  21187649.4674   21187656.1014   21187650.0864
        52.0004         48.0004
 -18034368.26548 -13992929.18047  21712607.1114   21712612.0444   21712606.1384
        52.0004         47.0004
  -1080495.74547   -781542.14746  24192349.2404   24192361.2494   24192350.6894
        42.0004         37.0004
 -24130186.76949 -18760067.04948  20321454.9674   20321459.5694   20321454.4804
        56.0004         51.0004
   -392011.42248   -249663.87146  24790218.1204   24790229.8264   24790217.6004
        51.0004         37.0004
  -5912510.33947  -4588281.79146  23870000.4774   23870009.0284   23870000.0184
        45.0004         40.0004
 -16100198.73348 -12487537.57147  21792999.5444   21793008.8234   21792999.3344
        52.0004         47.0004
 11 10  1  0 14 30.0000000  0 10G21G26G02G30G05G18G29G15G12G25
 -11913055.53148  -9228204.84147  22647357.3084   22647363.4724   22647358.5704
        49.0004         44.0004
  -3337196.46047  -2549126.08046  24297719.7214   24297729.6214   24297718.4894
        43.0004         38.0004
  -6993267.21747  -5396385.08846  23864181.8274   23864188.2184   23864181.6404
        44.0004         40.0004
 -16751879.99848 -12988849.37548  21193679.9774   21193686.3844   21193680.0244
        52.0004         48.0004
 -17976087.69248 -13947515.74947  21723697.2754   21723702.3304   21723696.0224
        52.0004         47.0004
  -1183484.58647   -861792.86346  24172749.8104   24172761.3664   24172751.6804
        42.0004         37.0004
 -24149372.40549 -18775016.88548  20317804.1084   20317808.6664   20317803.8394
        56.0004         52.0004
   -481463.07347   -319366.13146  24773195.2814   24773207.6544   24773194.9604
        46.0004         36.0004
  -5801186.00847  -4501535.77846  23891184.7454   23891193.8854   23891184.3994
        45.0004         40.0004
 -16016867.00648 -12422603.81347  21808857.0384   21808866.6024   21808856.9524
        52.0004         47.0004
 11 10  1  0 15  0.0000000  0 10G21G26G02G30G05G18G29G15G12G25
 -11972535.15548  -9274552.54847  22636039.8064   22636044.9274   22636040.5574
        49.0004         44.0004
  -3424323.89947  -2617017.43546  24281137.6904   24281147.7704   24281137.6964
        43.0004         38.0004
  -6909257.29947  -5330922.85546  23880168.0834   23880174.4894   23880167.6914
        44.0004         40.0004
 -16719580.01948 -12963680.56748  21199826.4864   21199832.7954   21199827.0294
        52.0004         48.0004
 -17917328.19448 -13901729.12347  21734878.8734   21734884.0174   21734878.3264
        52.0004         47.0004
  -1286374.40747   -941966.45746  24153170.6404   24153180.9264   24153172.6714
        42.0004         37.0004
 -24168211.67949 -18789696.82848  20314219.1494   20314223.8324   20314218.8214
        56.0004         52.0004
   -570937.54647   -389086.21046  24756167.8264   24756181.0634   24756167.6404
        43.0004         37.0004
  -5689770.89647  -4414719.03446  23912386.5804   23912396.4224   23912385.2914
        45.0004         40.0004
 -15933155.06748 -12357373.78947  21824787.0484   21824796.0684   21824787.0134
        52.0004         47.0004
 11 10  1  0 15 30.0000000  0 10G21G26G02G30G05G18G29G15G12G25
 -12031847.27148  -9320769.72847  22624753.3284   22624759.7604   22624753.7304
        49.0004         45.0004
  -3511224.02447  -2684731.65846  24264601.4744   24264610.9084   24264601.7894
        42.0004         38.0004
  -6825200.62947  -5265424.19746  23896164.5074   23896170.4964   23896163.7004
        44.0004         39.0004
 -16686669.52248 -12938036.02848  21206089.1834   21206095.3274   21206089.3324
        52.0004         48.0004
 -17858089.97748 -13855569.48147  21746150.8894   21746156.1124   21746150.6294
        52.0004         47.0004
  -1389161.12147  -1022059.71046  24133612.6924   24133622.0494   24133612.6444
        42.0004         38.0004
 -24186701.55149 -18804104.51148  20310700.5034   20310705.3254   20310700.0904
        56.0004         52.0004
   -660429.91647   -458820.23946  24739137.6364   24739151.3884   24739138.0424
        42.0004         37.0004
  -5578265.40247  -4327831.85946  23933604.9424   23933614.6534   23933603.4444
        44.0004         40.0004
 -15849063.47748 -12291847.91847  21840788.7724   21840798.0774   21840789.0484
        52.0004         47.0004
 11 10  1  0 16  0.0000000  0 10G21G26G02G30G05G18G29G15G12G25
 -12090997.80848  -9366861.00047  22613497.0274   22613502.5394   22613497.2194
        49.0004         45.0004
  -3597899.28547  -2752270.66446  24248108.1164   24248118.8294   24248109.0784
        42.0004         38.0004
  -6741103.76747  -5199894.24146  23912167.1554   23912173.3124   23912166.1124
        44.0004         40.0004
 -16653155.99948 -12911921.59948  21212466.2444   21212473.0814   21212467.1644
        52.0004         48.0004
 -17798380.57448 -13809042.66947  21757513.5554   21757519.0154   21757513.3814
        52.0004         47.0004
  -1491848.31247  -1102075.42146  24114070.4674   24114082.6024   24114071.2064
        42.0004         38.0004
 -24204846.63049 -18818243.52248  20307247.6524   20307252.3204   20307247.1924
        56.0004         52.0004
   -749943.01747   -528570.42846  24722105.8944   24722117.0814   24722105.4484
        42.0004         37.0004
  -5466678.63947  -4240881.34946  23954839.9314   23954849.6134   23954840.7554
        44.0004         40.0004
 -15764600.68048 -12226032.81447  21856861.9014   21856870.6024   21856862.3304
        52.0004         47.0004
 11 10  1  0 16 30.0000000  0 10G21G26G02G30G05G18G29G15G12G25
 -12149981.60948  -9412822.35247  22602272.5884   22602278.3064   22602272.9214
        49.0004         45.0004
  -3684340.77847  -2819627.51046  24231659.6734   24231668.0604   24231658.6994
        43.0004         38.0004
  -6656962.02347  -5134329.28246  23928179.0444   23928185.2034   23928179.0604
        44.0004         40.0004
 -16619035.77648 -12885334.42248  21218959.7164   21218965.9444   21218959.6024
        52.0004         48.0004
 -17738197.72848 -13762146.94647  21768966.1894   21768971.3124   21768965.3044
        52.0004         47.0004
  -1594428.80047  -1182007.99446  24094549.4744   24094560.9584   24094550.8174
        42.0004         37.0004
 -24222640.38349 -18832108.76848  20303861.2924   20303866.2914   20303861.0944
        56.0004         52.0004
   -839468.66347   -598330.39246  24705068.2194   24705079.8724   24705067.3494
        42.0004         37.0004
  -5355007.74347  -4153865.28846  23976089.7984   23976099.7084   23976089.2164
        44.0004         40.0004
 -15679764.30848 -12159926.60247  21873005.6494   21873014.9454   21873005.8934
        52.0004         47.0004
 11 10  1  0 17  0.0000000  0 10G21G26G02G30G05G18G29G15G12G25
 -12208799.27848  -9458654.24147  22591079.6724   22591085.3854   22591080.2114
        49.0004         45.0004
  -3770545.39747  -2886799.76846  24215255.2044   24215263.7694   24215255.3984
        43.0004         38.0004
  -6572776.88547  -5068730.52546  23944198.6584   23944204.7904   23944198.3074
        44.0004         40.0004
 -16584310.92048 -12858276.10248  21225567.2154   21225573.5684   21225568.2104
        52.0004         48.0004
 -17677544.04548 -13714884.34247  21780508.7934   21780513.6724   21780508.0774
        52.0004         47.0004
  -1696901.26447  -1261856.36446  24075049.9104   24075060.0124   24075050.2734
        42.0004         38.0004
 -24240082.13149 -18845699.73048  20300542.5734   20300547.1484   20300541.9204
        56.0004         52.0004
   -929004.46647   -668098.25046  24688030.5584   24688041.7664   24688029.1194
        42.0004         38.0004
  -5243255.99647  -4066786.22346  23997355.9504   23997366.0194   23997354.9814
        44.0004         40.0004
 -15594557.54748 -12093531.77847  21889219.9044   21889228.8064   21889220.0824
        51.0004         47.0004
 11 10  1  0 17 30.0000000  0 10G21G26G02G30G05G18G29G15G12G25
 -12267453.10448  -9504358.47447  22579918.6384   22579924.2814   22579918.3934
        49.0004         45.0004
  -3856511.86847  -2953786.43346  24198897.0974   24198905.4384   24198896.2894
        43.0004         38.0004
  -6488551.10547  -5003100.10246  23960226.7594   23960233.3634   23960227.7784
        44.0004         39.0004
 -16548985.17648 -12830749.54848  21232289.5304   21232295.8354   21232290.0194
        52.0004         48.0004
 -17616423.80048 -13667258.17347  21792138.7894   21792143.6304   21792138.1354
        52.0004         47.0004
  -1799265.69847  -1341620.57746  24055570.3854   24055579.9854   24055571.2774
        42.0004         38.0004
 -24257172.60549 -18859016.96748  20297290.3574   20297294.9134   20297290.0724
        56.0004         52.0004
  -1018549.82847   -737873.58046  24670991.0374   24671003.1484   24670990.5294
        43.0004         38.0004
  -5131427.89347  -3979647.67146  24018636.1474   24018646.1094   24018637.3614
        44.0004         40.0004
 -15508985.28948 -12026852.15247  21905503.8244   21905512.8554   21905504.3324
        51.0004         47.0004
 11 10  1  0 18  0.0000000  0 10G21G26G02G30G05G18G29G15G12G25
 -12325941.83848  -9549934.06247  22568788.4454   22568794.3914   22568789.1134
        49.0004         45.0004
  -3942234.90747  -3020583.41446  24182582.4234   24182591.8574   24182581.5184
        42.0004         38.0004
  -6404283.80547  -4937437.33046  23976262.3874   23976268.0974   23976261.1664
        44.0004         39.0004
 -16513058.81448 -12802754.98148  21239126.3524   21239132.6804   21239126.5204
        52.0004         48.0004
 -17554838.27248 -13619269.46447  21803858.3984   21803863.6524   21803857.6754
        52.0004         47.0004
  -1901518.55747  -1421297.83946  24036112.1234   24036122.1444   24036112.9364
        43.0004         38.0004
 -24273909.50049 -18872058.69048  20294105.3074   20294109.9594   20294105.0984
        56.0004         52.0004
  -1108100.53147   -807653.05546  24653949.6534   24653959.8974   24653948.7734
        43.0004         38.0004
  -5019525.11347  -3892450.91346  24039931.2104   24039941.3964   24039931.1644
        44.0004         40.0004
 -15423048.97148 -11959888.84147  21921856.6164   21921866.2404   21921857.0774
        51.0004         47.0004
 11 10  1  0 18 30.0000000  0 10G21G26G02G30G05G18G29G15G12G25
 -12384264.63448  -9595380.33547  22557689.6414   22557695.7884   22557690.2054
        49.0004         45.0004
  -4027710.22447  -3087187.38846  24166318.2934   24166326.2544   24166317.6814
        43.0004         38.0004
  -6319975.00647  -4871742.19746  23992306.9094   23992311.3414   23992307.3384
        44.0004         40.0004
 -16476532.74448 -12774293.11048  21246076.5874   21246083.3214   21246077.2974
        52.0004         48.0004
 -17492788.98248 -13570919.36147  21815665.3404   21815671.0794   21815665.1664
        52.0004         47.0004
  -2003657.56547  -1500886.37946  24016676.2324   24016685.5294   24016676.6874
        43.0004         38.0004
 -24290290.97749 -18884823.46348  20290987.9494   20290992.8814   20290987.7674
        56.0004         52.0004
  -1197652.96247   -877433.85146  24636908.5914   24636919.0334   24636906.1984
        43.0004         39.0004
  -4907549.07747  -3805197.08346  24061238.9764   24061249.2724   24061238.7994
        44.0004         40.0004
 -15336750.66848 -11892643.46247  21938279.4514   21938288.4514   21938278.9834
        51.0004         47.0004
 11 10  1  0 19  0.0000000  0 10G21G26G02G30G05G18G29G15G12G25
 -12442425.25948  -9640700.25847  22546621.5674   22546628.1304   22546622.4824
        49.0004         45.0004
  -4112938.17047  -3153598.60446  24150098.7144   24150109.1054   24150099.2414
        43.0004         39.0004
  -6235629.53747  -4806018.52146  24008357.3424   24008361.3924   24008357.5284
        44.0004         39.0004
 -16439412.42348 -12745368.18548  21253140.4694   21253147.1744   21253140.8934
        52.0004         48.0004
 -17430281.60848 -13522212.31947  21827560.6174   21827566.0474   21827560.3934
        52.0004         47.0004
  -2105683.90547  -1580387.12046  23997259.9824   23997269.3624   23997260.2744
        43.0004         38.0004
 -24306319.28849 -18897313.03748  20287937.9414   20287942.6294   20287937.7044
        56.0004         52.0004
  -1287207.66047   -947216.42346  24619865.3474   24619876.1604   24619865.4974
        44.0004         39.0004
  -4795506.91047  -3717891.73246  24082561.3424   24082570.5724   24082560.4104
        44.0004         40.0004
 -15250096.84848 -11825121.06947  21954769.2634   21954777.9124   21954769.1054
        51.0004         47.0004
 11 10  1  0 19 30.0000000  0 10G21G26G02G30G05G18G29G15G12G25
 -12500419.82948  -9685890.77847  22535585.8544   22535591.6384   22535586.1894
        49.0004         45.0004
  -4197910.76047  -3219810.82446  24133928.4744   24133938.2074   24133929.4614
        43.0004         39.0004
  -6151243.51547  -4740263.20846  24024413.1594   24024420.5934   24024414.4314
        44.0004         39.0004
 -16401695.47948 -12715978.35848  21260317.5924   21260324.5474   21260318.1864
        52.0004         48.0004
 -17367314.87648 -13473147.32647  21839542.7704   21839547.7874   21839542.4214
        52.0004         47.0004
  -2207591.64247  -1659795.42946  23977867.8824   23977877.1454   23977868.1214
        43.0004         38.0004
 -24321989.35249 -18909523.45748  20284956.1494   20284960.8184   20284955.8744
        56.0004         52.0004
  -1376757.73047  -1016995.39646  24602824.4214   24602836.2514   24602824.6024
        44.0004         39.0004
  -4683396.71947  -3630533.36346  24103894.3844   24103904.1954   24103895.7024
        44.0004         40.0004
 -15163086.21648 -11757320.62947  21971327.0914   21971335.9794   21971327.1774
        51.0004         47.0004
 11 10  1  0 20  0.0000000  0 10G21G26G02G30G05G18G29G15G12G25
 -12558245.74848  -9730949.87447  22524582.3894   22524588.1174   22524582.5644
        49.0004         45.0004
  -4282621.48747  -3285819.03246  24117808.7674   24117818.0424   24117808.8984
        44.0004         39.0004
  -6066814.68747  -4674474.58846  24040479.4554   24040486.3924   24040479.1664
        44.0004         39.0004
 -16363380.64848 -12686122.65248  21267608.9334   21267615.6104   21267609.4614
        52.0004         48.0004
 -17303887.97448 -13423723.77547  21851612.7114   21851617.3674   21851611.9584
        52.0004         47.0004
  -2309376.23047  -1739107.77346  23958498.3054   23958508.6414   23958499.6754
        42.0004         38.0004
 -24337296.87149 -18921451.38148  20282043.0614   20282047.6294   20282042.8214
        56.0004         52.0004
  -1466297.12547  -1086766.05646  24585785.6534   24585795.9484   24585785.2204
        44.0004         40.0004
  -4571218.19247  -3543121.75646  24125243.0494   24125252.1514   24125242.7924
        44.0004         40.0004
 -15075718.61948 -11689242.04347  21987952.4044   21987961.2684   21987951.9874
        51.0004         47.0004
