     2.11           OBSERVATION DATA    G (GPS)             RINEX VERSION / TYPE
teqc  2016Apr1                          20160930 07:51:17UTCPGM / RUN BY / DATE
Linux 2.4.20-8|Pentium IV|gcc|Linux|486/DX+                 COMMENT
teqc  2016Apr1                          20160816 03:22:21UTCCOMMENT
teqc  2010Mar17     gpsops              20111002 00:08:15UTCCOMMENT
Linux 2.4.21-27.ELsmp|Opteron|gcc -static|Linux x86_64|=+   COMMENT
     2.10           OBSERVATION DATA    GPS                 COMMENT
soc2rnx ver 1.20    gpsops               2-Oct-2011 00:08:14COMMENT
S1, if present, is the SNR for the C/A data stream on L1.   COMMENT
 SNR is mapped to RINEX snr flag value [1,4-9]              COMMENT
    SNR:   >316  >100  >31.6  >10  >3.2    >0 bad=0         COMMENT
L1 & L2:      9     8     7     6     5     4     1         COMMENT
                                                            COMMENT
This data is provided as a public service by                COMMENT
Regional GPS Data Acquisition and Analysis Center (RDAAC)   COMMENT
Geophysical Service RAS (GS RAS).                           COMMENT
The data acquisition software is provided by NASA/JPL.      COMMENT
No warranty is expressed or implied regarding suitability   COMMENT
for use.  For further information, contact:                 COMMENT
Grigory M. Steblov, GS RAS (steblov@gps.gsras.ru)           COMMENT
Dave Stowers, NASA/JPL (dstowers@jpl.nasa.gov)              COMMENT
                                                            COMMENT
Forced Modulo Decimation to 30 seconds                      COMMENT
YAKT                                                        MARKER NAME
12353M002                                                   MARKER NUMBER
SSY                 RDAAC-JPL-IRIS                          OBSERVER / AGENCY
LP01567             ASHTECH Z-XII3      CC00 1D02           REC # / TYPE / VERS
CRN1999100160       ASH701933B_M    SCIS                    ANT # / TYPE
 -1914998.8360  2308241.5200  5610225.5780                  APPROX POSITION XYZ
        0.0810        0.0000        0.0000                  ANTENNA: DELTA H/E/N
     1     1                                                WAVELENGTH FACT L1/2
     7    L1    L2    P1    P2    C1    S1    S2            # / TYPES OF OBSERV
    30.0000                                                 INTERVAL
teqc windowed: start @ 2011 Oct  1 00:10:00.000             COMMENT
teqc windowed:  end  @ 2011 Oct  1 00:20:00.000             COMMENT
  2011    10     1     0    10    0.0000000     GPS         TIME OF FIRST OBS
                                                            END OF HEADER
 11 10  1  0 10  0.0000000  0 11G29G03G13G30G23G16G21G31G05G06G10
 121914262.70848  94998106.37548  23199526.1854   23199532.9434   23199525.4434
       223.000         177.000
 119056933.48948  92771612.54048  22655798.2184   22655805.6564   22655798.4524
       222.000         170.000
 114122668.55048  88926731.70048  21716841.0574   21716845.0184   21716840.4474
       238.000         192.000
 124573952.30948  97070583.49548  23705657.3774   23705662.8784   23705657.8304
       216.000         155.000
 114236132.76748  89015156.88348  21738422.3754   21738424.3744   21738422.4394
       239.000         193.000
 108926201.53748  84877552.73048  20727971.3204   20727975.1334   20727971.4434
       243.000         212.000
 126685368.81848  98715856.76848  24107434.9994   24107439.9034   24107435.6034
       219.000         158.000
 121746803.94948  94867623.76248  23167658.1394   23167662.4784   23167657.2574
       227.000         178.000
 140908129.89248  92006304.71448  24911012.3954   24911018.4244   24911011.1234
       203.000         140.000
 116226237.03748  90565875.16548  22117135.7844   22117141.6554   22117135.9144
       233.000         188.000
 127448955.00748  99310850.19648  24252749.0624   24252754.7134   24252750.1374
       203.000         136.000
 11 10  1  0 10 30.0000000  0 11G29G03G13G30G23G16G21G31G05G06G10
 122003836.88248  95067904.36848  23216572.6604   23216577.9204   23216571.8864
       225.000         177.000
 118942713.03248  92682609.67748  22634062.8444   22634070.1214   22634062.6234
       225.000         172.000
 114104284.40848  88912406.37748  21713342.7264   21713346.5704   21713342.4804
       239.000         192.000
 124686298.45648  97158125.82048  23727035.9094   23727043.0074   23727036.1914
       216.000         153.000
 114275546.62848  89045868.94048  21745922.6554   21745924.8484   21745922.6374
       240.000         194.000
 108880356.53148  84841829.35148  20719247.2054   20719251.2024   20719246.9154
       242.000         212.000
 126614512.63448  98660644.18048  24093950.9734   24093956.1954   24093950.8894
       222.000         159.000
 121847229.88248  94945877.62448  23186768.6204   23186773.5224   23186768.0434
       227.000         178.000
 140857308.91348  91966704.07048  24901341.7144   24901346.7514   24901340.8174
       206.000         141.000
 116139287.55248  90498122.37148  22100589.6634   22100595.8504   22100589.7104
       233.000         186.000
 127488315.14748  99341520.34248  24260237.2784   24260244.6324   24260239.6614
       202.000         135.000
 11 10  1  0 11  0.0000000  0 11G29G03G13G30G23G16G21G31G05G06G10
 122093743.16748  95137961.18548  23233682.5764   23233686.2034   23233682.1804
       228.000         178.000
 118828745.70448  92593804.06048  22612375.4574   22612382.6954   22612376.1294
       223.000         171.000
 114086565.64148  88898599.53548  21709971.1104   21709974.5924   21709971.3634
       238.000         192.000
 124798781.93948  97245775.16548  23748441.3544   23748447.5704   23748442.1494
       217.000         156.000
 114315565.22748  89077052.22748  21753538.0654   21753540.2964   21753537.9104
       240.000         195.000
 108834972.04848  84806464.82548  20710610.8134   20710614.8094   20710610.4654
       243.000         212.000
 126543975.71748  98605680.40348  24080527.9224   24080533.4674   24080527.9114
       218.000         159.000
 121947872.11548  95024300.06348  23205920.3954   23205924.9684   23205920.3474
       228.000         177.000
 140806989.39448  91927494.16248  24891764.9784   24891771.4734   24891766.0764
       207.000         142.000
 116052713.65948  90430662.24248  22084115.2244   22084120.8654   22084114.9104
       234.000         188.000
 127528234.12848  99372625.95648  24267834.5124   24267841.8754   24267835.3204
       200.000         135.000
 11 10  1  0 11 30.0000000  0 11G29G03G13G30G23G16G21G31G05G06G10
 122183978.95648  95208274.72448  23250852.6004   23250857.3474   23250853.4604
       222.000         174.000
 118715033.73648  92505197.41748  22590736.5444   22590744.2004   22590736.5224
       223.000         173.000
 114069512.94248  88885311.69748  21706725.9674   21706729.7544   21706725.5864
       237.000         192.000
 124911400.82048  97333530.00748  23769872.2884   23769879.5554   23769872.8574
       215.000         156.000
 114356187.14748  89108705.63448  21761268.5104   21761270.4514   21761268.7864
       240.000         195.000
 108790048.89048  84771459.76348  20702062.4014   20702066.1144   20702062.6184
       244.000         212.000
 126473760.71448  98550967.42148  24067166.9284   24067172.0924   24067166.6814
       220.000         158.000
 122048728.99048  95102889.73048  23225112.3994   23225117.2374   23225112.1414
       226.000         177.000
 140757172.80748  91888676.22148  24882285.8614   24882291.4024   24882286.2534
       206.000         142.000
 115966517.00048  90363496.05548  22067712.6334   22067718.2114   22067712.7014
       234.000         188.000
 127568709.72248  99404165.30148  24275537.3264   24275544.3354   24275536.8444
       203.000         136.000
 11 10  1  0 12  0.0000000  0 11G29G03G13G30G23G16G21G31G05G06G10
 122274541.76948  95278843.04448  23268085.7894   23268091.7774   23268085.4384
       221.000         175.000
 118601580.30148  92416792.24848  22569146.8044   22569154.3134   22569146.3384
       225.000         173.000
 114053127.01248  88872543.42248  21703607.6984   21703611.5684   21703606.9884
       237.000         192.000
 125024153.47148  97421389.07748  23791327.8434   23791334.6644   23791328.4664
       215.000         154.000
 114397411.00548  89140828.08148  21769112.8934   21769115.0344   21769113.0714
       239.000         194.000
 108745588.04048  84736814.94448  20693601.6644   20693605.4994   20693601.9164
       243.000         212.000
 126403870.07548  98496507.21348  24053867.4404   24053871.9364   24053867.6314
       221.000         158.000
 122149798.89948  95181645.42048  23244345.8484   23244350.2794   23244344.7154
       226.000         178.000
 140707861.10948  91850251.66348  24872902.3304   24872907.6034   24872901.9414
       207.000         143.000
 115880700.03148  90296625.73548  22051382.0754   22051387.8104   22051381.9464
       234.000         188.000
 127609740.45948  99436137.35648  24283344.7904   24283351.5384   24283346.5214
       204.000         136.000
 11 10  1  0 12 30.0000000  0 11G29G03G13G30G23G16G21G31G05G06G10
 122365429.07148  95349664.24248  23285381.8694   23285387.2364   23285381.1364
       227.000         178.000
 118488387.71148  92328590.31948  22547607.3644   22547614.4024   22547607.2694
       224.000         172.000
 114037408.74648  88860295.40948  21700616.7774   21700620.6374   21700616.1804
       237.000         192.000
 125137038.22748  97509351.12148  23812808.9954   23812816.3434   23812809.2724
       211.000         152.000
 114439235.11448  89173418.25448  21777071.6554   21777073.7494   21777071.1794
       240.000         195.000
 108701590.50248  84702531.15448  20685229.2944   20685233.1494   20685229.5304
       244.000         212.000
 126334305.85348  98442301.34248  24040629.3904   24040633.6454   24040629.8604
       221.000         159.000
 122251080.26448  95260565.86548  23263619.1854   23263623.8794   23263618.6234
       226.000         178.000
 140659056.10948  91812221.85348  24863614.0264   24863620.6644   24863613.6144
       204.000         142.000
 115795264.61548  90230052.75148  22035124.0824   22035130.1404   22035124.0234
       233.000         188.000
 127651324.37548  99468540.40148  24291257.5314   24291265.1404   24291259.3074
       202.000         135.000
 11 10  1  0 13  0.0000000  0 11G29G03G13G30G23G16G21G31G05G06G10
 122456638.26648  95420736.28448  23302738.7224   23302743.4884   23302738.7374
       223.000         175.000
 118375458.72548  92240593.78748  22526117.6144   22526124.4274   22526117.4204
       226.000         174.000
 114022358.54848  88848567.97248  21697752.7954   21697756.5884   21697752.5114
       237.000         192.000
 125250053.22348  97597414.60148  23834314.8764   23834322.8334   23834314.6454
       215.000         154.000
 114481658.17748  89206475.14548  21785144.6664   21785146.8904   21785144.7254
       240.000         194.000
 108658056.86348  84668608.83948  20676945.3254   20676948.8394   20676945.8474
       244.000         213.000
 126265070.39348  98388351.64548  24027454.7334   24027459.0394   24027454.6664
       223.000         161.000
 122352571.19448  95339649.58948  23282931.9594   23282937.1024   23282931.5754
       226.000         177.000
 140610760.18348  91774588.77148  24854423.5304   24854429.4654   24854423.0584
       203.000         143.000
 115710212.87448  90163778.69448  22018939.6214   22018944.9994   22018939.2274
       234.000         188.000
 127693459.82948  99501373.16148  24299275.4574   24299283.4894   24299277.4004
       202.000         136.000
 11 10  1  0 13 30.0000000  0 11G29G03G13G30G23G16G21G31G05G06G10
 122548167.24248  95492057.49448  23320155.3854   23320160.6444   23320154.8744
       220.000         170.000
 118262795.56148  92152804.40048  22504678.5614   22504685.5134   22504678.4684
       224.000         176.000
 114007977.26548  88837361.76048  21695015.8604   21695020.2124   21695015.5914
       237.000         191.000
 125363196.63948  97685578.17448  23855846.2224   23855853.0744   23855846.9964
       215.000         154.000
 114524678.34648  89239997.32848  21793331.3164   21793333.0994   21793331.5204
       239.000         194.000
 108614987.94948  84635048.65048  20668749.2774   20668753.0984   20668749.8264
       243.000         212.000
 126196165.59648  98334659.63848  24014341.9924   24014347.6664   24014342.3434
       218.000         161.000
 122454270.04048  95418895.33748  23302285.0234   23302289.7944   23302284.3674
       226.000         178.000
 140562974.79048  91737353.51548  24845330.5734   24845336.6714   24845328.9424
       207.000         142.000
 115625546.64048  90097805.04048  22002827.9734   22002833.6324   22002827.9324
       233.000         188.000
 127736144.95948  99534634.23448  24307398.3784   24307405.2844   24307399.9734
       203.000         135.000
 11 10  1  0 14  0.0000000  0 11G29G03G13G30G23G16G21G31G05G06G10
 122640012.27348  95563624.94948  23337632.4734   23337638.8424   23337631.9504
       223.000         174.000
 118150400.10548  92065223.62348  22483290.2194   22483297.4874   22483289.3844
       226.000         175.000
 113994264.80348  88826676.70548  21692406.6444   21692410.4284   21692405.7894
       238.000         192.000
 125476465.95948  97773839.84748  23877400.3864   23877408.3524   23877400.9024
       213.000         152.000
 114568293.50348  89273983.12448  21801630.7394   21801632.9694   21801630.1914
       239.000         194.000
 108572383.41248  84601850.31148  20660641.8474   20660645.7494   20660642.1254
       243.000         212.000
 126127593.17948  98281226.65348  24001292.6094   24001298.5244   24001292.0754
       220.000         160.000
 122556174.49948  95498301.31448  23321677.4304   23321681.5444   23321677.0054
       227.000         178.000
 140515700.70248  91700516.66348  24836334.2944   24836339.7154   24836334.1744
       205.000         144.000
 115541267.33048  90032132.89148  21986789.9424   21986795.9334   21986789.6884
       234.000         189.000
 127779377.15248  99568321.60848  24315627.5794   24315632.9754   24315628.2224
       202.000         136.000
 11 10  1  0 14 30.0000000  0 12G29G07G03G13G30G23G16G21G31G05G06G10
 122732171.09048  95635436.94848  23355171.2414   23355176.1894   23355171.1494
       227.000         178.000
 142580291.97758  93309308.75358  25229196.9985   25229200.9255   25229195.6855
       204.000         137.000
 118038275.29448  91977853.71848  22461953.7094   22461960.6574   22461953.4754
       227.000         175.000
 113981222.03648  88816513.50048  21689925.1714   21689928.3734   21689924.7464
       239.000         192.000
 125589859.83648  97862198.61748  23898979.1604   23898985.5764   23898978.9484
       217.000         151.000
 114612502.37848  89308431.56248  21810043.5924   21810045.9244   21810043.6994
       240.000         194.000
 108530244.77848  84569015.01048  20652623.1694   20652626.9934   20652623.4994
       243.000         212.000
 126059355.93648  98228054.82148  23988308.1944   23988313.0184   23988307.8754
       223.000         162.000
 122658283.01948  95577866.28548  23341107.9144   23341112.4734   23341108.3294
       227.000         176.000
 140468940.44748  91664080.13048  24827436.6784   24827442.3434   24827435.8044
       206.000         143.000
 115457377.26048  89966764.04148  21970826.5164   21970832.3484   21970826.4554
       234.000         190.000
 127823155.19248  99602434.31748  24323957.4934   24323963.5744   24323957.7584
       204.000         137.000
 11 10  1  0 15  0.0000000  0 12G29G07G03G13G30G23G16G21G31G05G06G10
 122824641.36448  95707491.63048  23372767.9724   23372772.8464   23372768.2464
       225.000         176.000
 142467016.96148  93221042.43648  25207641.5984   25207645.1844   25207640.7594
       206.000         136.000
 117926423.12748  91890696.27548  22440668.6014   22440675.2914   22440668.6984
       228.000         175.000
 113968849.13748  88806872.26248  21687570.4384   21687574.2214   21687570.4574
       238.000         192.000
 125703376.10148  97950652.70848  23920579.8724   23920587.1434   23920580.3074
       214.000         153.000
 114657302.73348  89343340.88548  21818568.6684   21818571.2434   21818568.9314
       239.000         194.000
 108488572.36048  84536542.99448  20644693.1564   20644696.9654   20644692.9284
       242.000         213.000
 125991455.35848  98175145.30748  23975387.9764   23975392.3074   23975388.0714
       226.000         163.000
 122760593.60448  95657588.72848  23360576.7624   23360581.2744   23360576.8854
       225.000         175.000
 140422695.64948  91628045.37148  24818635.8694   24818640.9404   24818635.5764
       206.000         145.000
 115373878.14648  89901699.83448  21954936.9314   21954942.7104   21954936.8644
       235.000         190.000
 127867476.54048  99636970.39648  24332391.9724   24332398.0994   24332392.0194
       199.000         135.000
 11 10  1  0 15 30.0000000  0 12G29G07G03G13G30G23G16G21G31G05G06G10
 122917421.28148  95779787.57948  23390422.7914   23390428.0814   23390422.6414
       220.000         171.000
 142353794.84648  93132817.33148  25186096.0104   25186099.1004   25186096.0414
       206.000         139.000
 117814847.33748  91803754.19148  22419436.6014   22419443.3344   22419436.4674
       228.000         177.000
 113957147.24448  88797753.89048  21685343.8044   21685347.3504   21685343.3154
       238.000         192.000
 125817014.18248  98039201.71548  23942205.0584   23942213.2034   23942205.3364
       216.000         154.000
 114702694.01248  89378710.66948  21827206.4064   21827208.7664   21827206.4614
       238.000         193.000
 108447368.15448  84504435.81548  20636852.2734   20636856.1224   20636851.7224
       243.000         212.000
 125923895.06048  98122500.93548  23962530.9204   23962534.6754   23962531.1444
       222.000         159.000
 122863105.40848  95737467.92948  23380084.1824   23380089.0394   23380083.4124
       225.000         177.000
 140376968.81248  91592414.22248  24809934.7914   24809940.5754   24809934.2754
       208.000         144.000
 115290772.94748  89836942.56748  21939122.5184   21939128.2774   21939122.2694
       236.000         189.000
 127912340.15548  99671929.00448  24340928.9544   24340934.1614   24340927.6084
       201.000         136.000
 11 10  1  0 16  0.0000000  0 12G29G07G03G13G30G23G16G21G31G05G06G10
 123010508.41848  95852322.92448  23408136.0994   23408141.6724   23408135.0804
       223.000         172.000
 142240628.00148  93044635.34048  25164560.2494   25164564.3034   25164560.5364
       206.000         140.000
 117703550.80048  91717029.68448  22398257.4954   22398264.0484   22398256.8644
       229.000         177.000
 113946117.72448  88789159.44348  21683244.9534   21683248.4694   21683244.6584
       239.000         192.000
 125930772.35848  98127844.32348  23963853.0384   23963860.1694   23963853.8824
       212.000         151.000
 114748674.77248  89414539.79248  21835956.1754   21835958.6634   21835956.4334
       239.000         193.000
 108406632.85648  84472694.02448  20629100.6544   20629104.4764   20629100.5754
       244.000         213.000
 125856677.39048  98070123.57348  23949739.7454   23949744.7724   23949739.8644
       223.000         162.000
 122965817.24048  95817502.99948  23399629.5174   23399634.9274   23399628.2954
       226.000         177.000
 140331762.30848  91557188.46048  24801331.9214   24801337.6934   24801330.9694
       204.000         145.000
 115208063.96248  89772494.04248  21923383.4384   21923388.7424   21923383.4674
       235.000         190.000
 127957744.40148  99707308.91448  24349566.5054   24349576.8454   24349569.8924
       199.000         135.000
 11 10  1  0 16 30.0000000  0 12G29G07G03G13G30G23G16G21G31G05G06G10
 123103899.77748  95925095.33948  23425908.8544   23425913.4254   23425908.1224
       225.000         174.000
 142127517.55248  92956497.27248  25143037.1334   25143040.2404   25143036.1084
       203.000         138.000
 117592535.42248  91630524.29848  22377131.9564   22377138.3484   22377132.1504
       227.000         176.000
 113935760.39848  88781088.78148  21681273.7594   21681277.4944   21681273.7124
       238.000         193.000
 126044648.37748  98216578.72848  23985522.2264   23985529.6694   23985521.9454
       212.000         149.000
 114795242.81048  89450826.54148  21844817.8284   21844820.5034   21844817.8534
       239.000         193.000
 108366366.38148  84441317.55448  20621438.1254   20621441.9564   20621438.4154
       244.000         213.000
 125789803.99148  98018014.51848  23937013.3664   23937019.3304   23937013.9234
       222.000         161.000
 123068726.56148  95897691.97048  23419212.8494   23419217.8494   23419211.5024
       224.000         175.000
 140287076.73848  91522368.58548  24792828.5534   24792834.2554   24792827.3924
       206.000         143.000
 115125752.35248  89708355.16148  21907720.4184   21907725.6794   21907720.5054
       237.000         193.000
 128003687.35448  99743108.66148  24358310.8964   24358318.7644   24358311.6484
       199.000         137.000
 11 10  1  0 17  0.0000000  0 12G29G07G03G13G30G23G16G21G31G05G06G10
 123197593.12548  95998103.05848  23443737.6214   23443743.1914   23443737.3724
       221.000         172.000
 142014465.42548  92868404.64948  25121524.0914   25121526.8554   25121523.4734
       205.000         141.000
 117481804.11148  91544240.22648  22356060.3474   22356066.8264   22356060.4604
       228.000         178.000
 113926076.04848  88773542.52848  21679431.2004   21679434.8424   21679431.0244
       238.000         193.000
 126158640.73448  98305403.82348  24007214.2594   24007221.6094   24007214.5784
       212.000         147.000
 114842396.52548  89487569.66248  21853790.8564   21853793.4154   21853790.9534
       239.000         194.000
 108326570.33148  84410307.64548  20613865.1964   20613868.9504   20613865.5974
       244.000         213.000
 125723277.35948  97966175.63748  23924354.0584   23924358.9744   23924354.4954
       223.000         162.000
 123171832.10248  95978033.85648  23438833.0214   23438837.6024   23438832.1094
       225.000         173.000
 140242914.43248  91487956.52948  24784424.7564   24784430.2754   24784425.6434
       207.000         145.000
 115043840.46848  89644527.76148  21892133.0024   21892138.7304   21892132.8334
       235.000         192.000
 128050166.49948  99779326.12448  24367155.3014   24367163.7244   24367156.4734
       200.000         135.000
 11 10  1  0 17 30.0000000  0 12G29G07G03G13G30G23G16G21G31G05G06G10
 123291586.43748  96071344.48448  23461623.7074   23461629.9974   23461623.0824
       222.000         173.000
 141901474.08548  92780359.39148  25100021.4664   25100026.6654   25100021.4074
       203.000         140.000
 117371359.56548  91458179.63348  22335043.1754   22335050.1094   22335043.0064
       230.000         179.000
 113917065.18748  88766521.05848  21677716.2584   21677720.1894   21677715.7404
       237.000         192.000
 126272748.01948  98394318.48048  24028929.2234   24028935.2564   24028929.2994
       215.000         151.000
 114890134.43348  89524767.99348  21862875.3124   21862877.8824   21862875.2974
       238.000         194.000
 108287245.00648  84379664.52948  20606382.0364   20606385.7034   20606382.3804
       244.000         213.000
 125657099.82048  97914608.76948  23911761.3064   23911765.9294   23911761.7164
       225.000         163.000
 123275132.33348  96058527.42648  23458490.9514   23458495.1034   23458490.5644
       226.000         175.000
 140199277.07248  91453953.43248  24776120.6924   24776125.3284   24776120.6964
       205.000         143.000
 114962330.50648  89581013.54248  21876621.9174   21876627.9074   21876621.9134
       234.000         192.000
 128097180.87048  99815960.64748  24376103.7344   24376109.7714   24376103.5304
       202.000         135.000
 11 10  1  0 18  0.0000000  0 12G29G07G03G13G30G23G16G21G31G05G06G10
 123385875.64348  96144816.50348  23479567.0174   23479572.7084   23479566.5674
       223.000         174.000
 141788544.28748  92692362.08848  25078532.0664   25078536.0464   25078531.0224
       207.000         140.000
 117261202.98648  91372343.41748  22314081.2024   22314087.8394   22314081.0084
       228.000         179.000
 113908726.57948  88760023.43448  21676129.5554   21676133.3354   21676129.0424
       238.000         192.000
 126386967.24448  98483320.32248  24050663.7644   24050671.6254   24050665.0374
       211.000         149.000
 114938453.62748  89562419.27848  21872070.0754   21872072.6814   21872069.7054
       238.000         193.000
 108248390.01348  84349387.91448  20598987.9514   20598991.9384   20598988.1794
       243.000         214.000
 125591272.32548  97863314.65548  23899234.8844   23899239.4474   23899235.3654
       225.000         165.000
 123378624.10448  96139170.27648  23478185.0834   23478189.0744   23478184.8164
       227.000         176.000
 140156165.16548  91420359.73848  24767917.2974   24767922.0064   24767917.0654
       204.000         144.000
 114881223.22648  89517813.11748  21861187.5304   21861193.3234   21861187.1484
       236.000         192.000
 128144726.74048  99853009.41848  24385150.1204   24385156.5914   24385151.6704
       196.000         136.000
 11 10  1  0 18 30.0000000  0 12G29G07G03G13G30G23G16G21G31G05G06G10
 123480459.40448  96218518.05848  23497565.9314   23497571.6414   23497564.7894
       222.000         173.000
 141675678.90348  92604414.97648  25057054.9554   25057059.3204   25057054.2884
       205.000         142.000
 117151338.13248  91286734.52248  22293174.6454   22293181.0864   22293174.5664
       230.000         179.000
 113901062.55548  88754051.45348  21674670.9394   21674674.7794   21674671.2054
       237.000         192.000
 126501297.96348  98572409.05348  24072420.1634   24072428.2514   24072419.7014
       214.000         152.000
 114987353.46948  89600523.00748  21881375.4394   21881377.8264   21881375.3964
       238.000         191.000
 108210007.46148  84319479.42848  20591684.2224   20591687.9494   20591684.2274
       244.000         214.000
 125525798.46448  97812296.11048  23886775.1894   23886780.4104   23886775.5494
       223.000         163.000
 123482306.94048  96219961.96648  23497914.7584   23497919.9404   23497914.7794
       223.000         172.000
 140113581.68548  91387177.87948  24759812.7084   24759818.7044   24759812.4264
       205.000         143.000
 114800521.93748  89454929.02448  21845830.7294   21845836.3304   21845830.6934
       236.000         192.000
 128192803.66748  99890471.92848  24394299.7564   24394306.7324   24394299.0974
       199.000         138.000
 11 10  1  0 19  0.0000000  0 12G29G07G03G13G30G23G16G21G31G05G06G10
 123575335.22648  96292447.20648  23515620.2334   23515625.2494   23515619.4544
       222.000         171.000
 141562879.32448  92516519.19948  25035588.8414   25035594.1584   25035588.9164
       207.000         141.000
 117041767.34748  91201354.74848  22272324.1204   22272330.0484   22272323.7774
       229.000         179.000
 113894072.94848  88748604.99748  21673340.7124   21673344.7924   21673340.5154
       236.000         192.000
 126615738.15948  98661583.07948  24094198.0194   24094204.9384   24094198.3614
       211.000         149.000
 115036831.89648  89639077.58348  21890791.1984   21890793.0804   21890791.3844
       239.000         192.000
 108172097.75448  84289939.39448  20584470.1684   20584473.9414   20584470.2254
       243.000         214.000
 125460680.16548  97761554.62948  23874383.4284   23874388.0014   23874383.3414
       225.000         162.000
 123586179.19748  96300901.25848  23517680.6574   23517685.9584   23517680.0324
       224.000         173.000
 140071528.31248  91354409.06148  24751810.0524   24751816.1084   24751809.8414
       203.000         144.000
 114720228.13748  89392362.46548  21830551.2524   21830557.1654   21830550.9824
       235.000         194.000
 128241408.92148  99928346.05548  24403549.2924   24403554.9924   24403550.2624
       199.000         138.000
 11 10  1  0 19 30.0000000  0 12G29G07G03G13G30G23G16G21G31G05G06G10
 123670499.36048  96366600.96848  23533729.1444   23533734.6284   23533729.0094
       222.000         171.000
 141450147.17648  92428675.92448  25014137.5294   25014141.4414   25014137.6144
       207.000         141.000
 116932492.47448  91116205.56048  22251529.5894   22251536.0254   22251529.3294
       231.000         178.000
 113887756.84448  88743683.33948  21672138.9944   21672142.9724   21672138.4344
       237.000         192.000
 126730285.06048  98750840.28748  24115995.9824   24116002.0694   24115996.1794
       215.000         148.000
 115086886.17348  89678080.88148  21900316.1914   21900318.1174   21900316.4334
       238.000         191.000
 108134660.67948  84260767.64648  20577346.1404   20577350.0314   20577346.0854
       244.000         214.000
 125395918.45448  97711090.98248  23862059.4144   23862063.8494   23862059.7474
       222.000         161.000
 123690238.00648  96381985.94348  23537483.1044   23537488.2274   23537483.3004
       223.000         173.000
 140030005.10948  91322053.34448  24743908.8194   24743914.6174   24743907.8204
       205.000         144.000
 114640342.76448  89330114.16148  21815349.5264   21815355.5104   21815349.4554
       237.000         194.000
 128290539.93248  99966629.92848  24412896.8954   24412903.1164   24412897.7964
       197.000         136.000
 11 10  1  0 20  0.0000000  0 12G29G07G03G13G30G23G16G21G31G05G06G10
 123765949.91948  96440977.93148  23551893.3534   23551898.6504   23551893.6344
       223.000         172.000
 141337484.25148  92340886.61248  24992698.3844   24992703.3714   24992698.7734
       208.000         143.000
 116823515.93748  91031288.84148  22230791.7564   22230798.3324   22230792.2624
       230.000         181.000
 113882114.92748  88739287.02648  21671065.4794   21671069.2224   21671064.9694
       238.000         192.000
 126844937.55148  98840179.77548  24137813.2814   24137820.7304   24137813.3224
       209.000         149.000
 115137514.58748  89717531.54748  21909950.2864   21909952.4774   21909950.0744
       239.000         191.000
 108097696.77148  84231964.59148  20570312.3364   20570316.0444   20570312.6214
       244.000         214.000
 125331515.71948  97660907.07148  23849804.1914   23849809.0294   23849804.1724
       225.000         166.000
 123794482.05348  96463214.94748  23557319.8614   23557324.6694   23557319.4674
       222.000         172.000
 139989014.46148  91290112.61048  24736109.4954   24736113.8974   24736108.0804
       207.000         144.000
 114560868.06248  89268185.86548  21800226.1124   21800231.4954   21800226.1454
       236.000         194.000
 128340194.32548 100005321.59948  24422346.7514   24422352.3354   24422345.8774
       197.000         134.000
