     2.11           OBSERVATION DATA    G (GPS)             RINEX VERSION / TYPE
teqc  2016Apr1                          20160930 07:51:17UTCPGM / RUN BY / DATE
Linux 2.4.20-8|Pentium IV|gcc|Linux|486/DX+                 COMMENT
teqc  2016Apr1                          20160816 03:22:02UTCCOMMENT
teqc  2010Mar17     gpsops              20111002 00:16:51UTCCOMMENT
Linux 2.4.21-27.ELsmp|Opteron|gcc -static|Linux x86_64|=+   COMMENT
     2.10           OBSERVATION DATA    GPS                 COMMENT
soc2rnx ver 1.20    gpsops               2-Oct-2011 00:16:51COMMENT
S1, if present, is the SNR for the C/A data stream on L1.   COMMENT
 SNR is mapped to RINEX snr flag value [1,4-9]              COMMENT
    SNR:   >316  >100  >31.6  >10  >3.2    >0 bad=0         COMMENT
L1 & L2:      9     8     7     6     5     4     1         COMMENT
                                                            COMMENT
This data is provided as a public service by NASA/JPL.      COMMENT
No warranty is expressed or implied regarding suitability   COMMENT
for use.  For further information, contact:                 COMMENT
Dave Stowers, NASA/JPL m/s 238-600                          COMMENT
4800 Oak Grove Drive, Pasadena CA 91109 USA                 COMMENT
                                                            COMMENT
Forced Modulo Decimation to 30 seconds                      COMMENT
XIAN                                                        MARKER NAME
21614M001                                                   MARKER NUMBER
GGN                 Shaanxi Observatory                     OBSERVER / AGENCY
UC2200511018        ASHTECH UZ-12       CQ00                REC # / TYPE / VERS
CR6200503029        ASH701945C_M    NONE                    ANT # / TYPE
 -1735213.1010  4976840.3680  3580538.4580                  APPROX POSITION XYZ
        0.4050        0.0000        0.0000                  ANTENNA: DELTA H/E/N
     1     1                                                WAVELENGTH FACT L1/2
     7    L1    L2    P1    P2    C1    S1    S2            # / TYPES OF OBSERV
    30.0000                                                 INTERVAL
teqc windowed: start @ 2011 Oct  1 00:10:00.000             COMMENT
teqc windowed:  end  @ 2011 Oct  1 00:20:00.000             COMMENT
  2011    10     1     0    10    0.0000000     GPS         TIME OF FIRST OBS
                                                            END OF HEADER
 11 10  1  0 10  0.0000000  0  7G31G23G03G06G13G19G16
 121384269.04047  94585124.43147  23098672.1224   23098677.9244   23098671.3494
        46.000          42.000
 108510957.51447  84553981.93747  20648955.7844   20648958.1664   20648955.7964
        55.000          48.000
 106956552.78747  83342741.26447  20353175.9834   20353181.6904   20353176.2324
        55.000          49.000
 108320964.83847  84405923.15547  20612810.5434   20612816.4624   20612810.2544
        54.000          49.000
 115488610.61647  89991097.02347  21976774.8584   21976779.4184   21976774.6364
        52.000          45.000
 120040196.66347  93537796.16347  22842906.4404   22842911.3244   22842907.2324
        48.000          43.000
 107461540.66147  83736241.10247  20449269.7054   20449274.0954   20449269.9944
        54.000          50.000
 11 10  1  0 10 30.0000000  0  7G31G23G03G06G13G19G16
 121445861.30247  94633118.33147  23110393.0244   23110398.5354   23110392.6604
        47.000          42.000
 108483825.63847  84532840.18347  20643792.8104   20643795.2434   20643792.8144
        55.000          48.000
 106893731.05747  83293789.26647  20341221.4294   20341227.2134   20341221.4664
        55.000          49.000
 108296585.40947  84386926.19747  20608171.5074   20608177.1194   20608171.3974
        54.000          49.000
 115412733.68947  89931972.14247  21962335.6254   21962340.2774   21962335.2914
        51.000          44.000
 119932205.03747  93453646.88847  22822356.2504   22822360.8504   22822357.4554
        49.000          43.000
 107480588.05947  83751083.20747  20452894.4884   20452898.8234   20452894.9044
        54.000          50.000
 11 10  1  0 11  0.0000000  0  7G31G23G03G06G13G19G16
 121507634.73247  94681253.38047  23122148.7244   23122154.0274   23122149.2534
        48.000          43.000
 108457284.92547  84512159.08147  20638742.0624   20638744.6374   20638742.1104
        55.000          48.000
 106831436.58347  83245248.12447  20329367.0734   20329372.8844   20329367.1814
        55.000          49.000
 108272779.14847  84368375.86247  20603641.4954   20603646.7494   20603641.5714
        54.000          49.000
 115337276.74247  89873174.51247  21947976.4504   21947981.3584   21947975.8624
        51.000          44.000
 119824412.13047  93369652.46547  22801844.1734   22801848.5494   22801844.8354
        49.000          43.000
 107499958.79147  83766177.26247  20456580.8054   20456584.9044   20456581.3074
        54.000          50.000
 11 10  1  0 11 30.0000000  0  7G31G23G03G06G13G19G16
 121569592.68147  94729532.20247  23133939.6494   23133944.1564   23133939.3284
        48.000          43.000
 108431339.94647  84491942.19047  20633804.6874   20633807.3214   20633804.7824
        55.000          48.000
 106769674.26247  83197121.64047  20317614.1144   20317619.8344   20317613.9924
        55.000          49.000
 108249549.48247  84350274.82847  20599220.8724   20599226.2384   20599220.9744
        54.000          49.000
 115262245.62147  89814708.67947  21933698.8274   21933703.4364   21933698.7714
        51.000          44.000
 119716823.98847  93285817.58647  22781370.7334   22781375.0864   22781371.3154
        50.000          43.000
 107519654.41847  83781524.48247  20460328.3994   20460332.8054   20460328.5104
        53.000          49.000
 11 10  1  0 12  0.0000000  0  7G31G23G03G06G13G19G16
 121631733.13747  94777953.24547  23145764.6284   23145768.7254   23145764.4034
        48.000          43.000
 108405989.71047  84472188.73947  20628981.1004   20628983.1824   20628981.0464
        55.000          48.000
 106708444.30547  83149409.98747  20305962.4424   20305968.2084   20305962.5474
        54.000          49.000
 108226895.08847  84332622.04947  20594909.7524   20594915.3054   20594909.7864
        54.000          49.000
 115187640.55847  89756574.86647  21919501.7564   21919506.5784   21919501.3654
        51.000          44.000
 119609441.17247  93202142.70547  22760936.2274   22760940.7354   22760937.2334
        49.000          43.000
 107539671.16247  83797121.92647  20464137.0494   20464141.9814   20464137.1174
        53.000          49.000
 11 10  1  0 12 30.0000000  0  7G31G23G03G06G13G19G16
 121694059.38847  94826519.05347  23157625.0004   23157628.9004   23157624.5864
        47.000          42.000
 108381238.37447  84452901.97147  20624271.1154   20624273.3244   20624270.9334
        55.000          48.000
 106647751.51147  83102116.90247  20294412.9634   20294418.5424   20294413.0594
        55.000          49.000
 108204819.42747  84315420.23447  20590709.0104   20590714.4724   20590708.9684
        54.000          49.000
 115113467.52647  89698777.69547  21905387.4324   21905391.7324   21905387.2374
        51.000          44.000
 119502269.89947  93118632.65647  22740542.2414   22740546.9704   22740542.5494
        49.000          43.000
 107560010.70047  83812970.89747  20468007.4444   20468012.5434   20468007.3554
        53.000          49.000
 11 10  1  0 13  0.0000000  0  7G31G23G03G06G13G19G16
 121756568.75147  94875227.56047  23169519.9064   23169524.4974   23169519.5174
        47.000          42.000
 108357084.77947  84434080.96547  20619674.7244   20619677.1664   20619674.7494
        55.000          48.000
 106587595.35647  83055241.98447  20282965.5344   20282971.4454   20282965.8324
        54.000          49.000
 108183320.52247  84298667.84947  20586617.8674   20586623.2804   20586617.9024
        54.000          48.000
 115039726.31247  89641316.98747  21891354.7374   21891359.1534   21891354.7674
        50.000          44.000
 119395310.42647  93035287.67647  22720188.5544   22720193.0664   22720189.4524
        49.000          43.000
 107580668.61247  83829067.96247  20471938.9234   20471943.4284   20471939.0714
        54.000          49.000
 11 10  1  0 13 30.0000000  0  7G31G23G03G06G13G19G16
 121819263.58547  94924080.58647  23181450.5944   23181454.9134   23181449.9674
        47.000          42.000
 108333531.99547  84415728.12947  20615192.8994   20615195.3774   20615193.0594
        56.000          48.000
 106527979.58547  83008788.14547  20271620.7564   20271626.9834   20271620.8354
        54.000          49.000
 108162400.86447  84282366.81847  20582637.1004   20582642.3404   20582637.4204
        54.000          49.000
 114966421.85447  89584196.61147  21877404.9474   21877409.8164   21877404.7244
        50.000          44.000
 119288567.87447  92952111.69047  22699876.2504   22699880.4744   22699877.0894
        49.000          43.000
 107601645.44147  83845413.52147  20475931.1594   20475935.1094   20475931.3394
        54.000          49.000
 11 10  1  0 14  0.0000000  0  7G31G23G03G06G13G19G16
 121882141.82447  94973076.50847  23193415.8444   23193420.1584   23193415.6254
        47.000          42.000
 108310579.00047  84397842.66047  20610825.3094   20610827.4774   20610825.3894
        56.000          48.000
 106468903.80147  82962755.07047  20260379.3844   20260385.2164   20260379.5744
        54.000          49.000
 108142058.75447  84266515.82147  20578766.1964   20578771.5144   20578765.9864
        54.000          49.000
 114893554.46547  89527416.82547  21863539.0394   21863543.5864   21863538.7414
        50.000          44.000
 119182042.80247  92869105.17347  22679605.1244   22679609.3054   22679606.0534
        49.000          42.000
 107622936.81547  83862004.18147  20479982.7864   20479986.6024   20479983.1314
        54.000          49.000
 11 10  1  0 14 30.0000000  0  7G31G23G03G06G13G19G16
 121945206.25747  95022217.53247  23205416.6414   23205421.1434   23205416.2324
        47.000          42.000
 108288229.89447  84380427.76547  20606572.2064   20606574.4624   20606572.2244
        55.000          48.000
 106410372.79947  82917146.50747  20249241.2814   20249247.1874   20249241.4474
        54.000          49.000
 108122297.51947  84251117.45747  20575005.7104   20575010.9594   20575005.6284
        54.000          48.000
 114821129.65247  89470981.89647  21849757.6584   21849761.5234   21849757.6964
        51.000          43.000
 119075740.82447  92786272.49347  22659376.0674   22659380.6024   22659376.7134
        48.000          42.000
 107644544.47247  83878841.29947  20484094.3774   20484098.4974   20484094.5844
        53.000          49.000
 11 10  1  0 15  0.0000000  0  7G31G23G03G06G13G19G16
 122008454.20647  95071501.56447  23217452.4414   23217457.1084   23217452.0794
        47.000          42.000
 108266482.61547  84363481.82347  20602433.8484   20602436.2924   20602433.8024
        55.000          48.000
 106352385.35447  82871961.48647  20238206.6704   20238212.4974   20238206.4754
        54.000          49.000
 108103114.79747  84236169.87747  20571355.4094   20571360.5414   20571355.4014
        54.000          48.000
 114749147.04647  89414891.56547  21836059.2874   21836063.6884   21836058.9024
        50.000          43.000
 118969662.59547  92703614.15647  22639190.2524   22639194.6394   22639190.6764
        49.000          43.000
 107666463.76447  83895921.25247  20488265.2534   20488269.8764   20488265.3884
        53.000          49.000
 11 10  1  0 15 30.0000000  0  7G31G23G03G06G13G19G16
 122071889.09947  95120931.27147  23229523.6274   23229528.9804   23229523.0304
        46.000          42.000
 108245341.85847  84347008.49047  20598410.8834   20598413.4934   20598410.8024
        55.000          48.000
 106294946.92747  82827204.27447  20227276.6074   20227282.2644   20227276.7394
        54.000          49.000
 108084514.46447  84221676.10847  20567815.6394   20567821.0154   20567815.6784
        54.000          48.000
 114677612.38847  89359150.26647  21822446.1434   21822450.9884   21822445.8384
        50.000          43.000
 118863814.26747  92621134.96647  22619048.0854   22619052.3884   22619048.8854
        49.000          43.000
 107688696.84147  83913245.72247  20492496.0034   20492500.6694   20492496.3024
        53.000          49.000
 11 10  1  0 16  0.0000000  0  7G31G23G03G06G13G19G16
 122135508.55947  95170504.75747  23241629.3984   23241635.7314   23241628.8984
        46.000          42.000
 108224805.82547  84331006.36847  20594503.0904   20594505.5654   20594503.1514
        55.000          48.000
 106238056.60647  82782874.15947  20216450.5414   20216456.4524   20216450.6354
        54.000          49.000
 108066494.16447  84207634.31747  20564386.4664   20564391.9654   20564386.5324
        54.000          48.000
 114606526.05947  89303758.30547  21808919.5064   21808923.6904   21808919.4844
        51.000          44.000
 118758195.73147  92538834.84247  22598949.6034   22598954.1854   22598950.4674
        49.000          43.000
 107711238.96647  83930810.99547  20496786.0614   20496790.2254   20496786.4414
        54.000          49.000
 11 10  1  0 16 30.0000000  0  7G31G23G03G06G13G19G16
 122199313.01047  95220222.37747  23253770.3524   23253777.0844   23253769.9414
        45.000          41.000
 108204876.16747  84315476.74747  20590710.6724   20590712.9374   20590710.6754
        55.000          48.000
 106181716.63747  82738972.89747  20205729.2154   20205735.2824   20205729.3954
        54.000          49.000
 108049054.56947  84194045.02647  20561067.8754   20561073.5814   20561068.1544
        54.000          48.000
 114535891.08647  89248718.07247  21795478.0784   21795482.6014   21795477.9764
        51.000          44.000
 118652810.77847  92456716.72047  22578895.4384   22578900.2964   22578896.3874
        49.000          43.000
 107734088.82747  83948616.06347  20501134.3044   20501138.2664   20501134.7804
        53.000          49.000
 11 10  1  0 17  0.0000000  0  8G31G23G03G06G13G07G19G16
 122263302.70947  95270084.39647  23265947.9014   23265953.5114   23265947.5564
        46.000          42.000
 108185553.91547  84300420.43047  20587033.9334   20587036.0444   20587034.1854
        55.000          48.000
 106125929.03347  82695502.03947  20195113.4674   20195119.2674   20195113.7704
        55.000          49.000
 108032196.32647  84180908.73247  20557859.8544   20557865.5184   20557859.9484
        54.000          48.000
 114465710.23147  89194031.68947  21782123.3544   21782127.6514   21782123.3094
        52.000          45.000
 143648028.08757  94141299.88657  25432389.2735   25432394.6815   25432389.2935
        39.000          36.000
 118547662.35147  92374782.89447  22558885.7594   22558890.7274   22558886.1704
        49.000          43.000
 107757245.55447  83966660.25547  20505540.4444   20505544.6634   20505540.5764
        53.000          49.000
 11 10  1  0 17 30.0000000  0  8G31G23G03G06G13G07G19G16
 122327478.62847  95320091.51147  23278160.9274   23278166.1964   23278160.6444
        47.000          42.000
 108166840.84547  84285838.79947  20583472.7374   20583475.1864   20583472.9514
        54.000          48.000
 106070696.21547  82652463.48147  20184603.2194   20184608.7344   20184603.4944
        55.000          49.000
 108015920.50747  84168226.27047  20554762.6924   20554767.8974   20554762.7934
        54.000          48.000
 114395986.69447  89139701.65847  21768855.7234   21768859.5204   21768855.4904
        52.000          45.000
 143560607.84447  94073180.10947  25415753.8394   25415758.6534   25415752.6464
        39.000          35.000
 118442754.01647  92293036.14747  22538922.4904   22538927.0414   22538923.1814
        49.000          43.000
 107780707.61247  83984942.36547  20510005.0844   20510009.4724   20510005.3414
        53.000          49.000
 11 10  1  0 18  0.0000000  0  8G31G23G03G06G13G07G19G16
 122391843.76047  95370246.06947  23290409.0674   23290414.7704   23290408.5724
        48.000          42.000
 108148741.16747  84271735.13547  20580028.2344   20580030.8964   20580028.1964
        54.000          48.000
 106016022.92647  82609860.91747  20174199.2084   20174204.6634   20174199.6524
        55.000          49.000
 108000230.60647  84156000.36847  20551777.1114   20551782.4134   20551777.1304
        54.000          49.000
 114326725.77547  89085732.11147  21755675.2584   21755680.2184   21755674.8804
        52.000          45.000
 143473101.87947  94004993.48047  25399102.0754   25399106.3824   25399100.1974
        39.000          34.000
 118338092.13447  92211481.44247  22519006.3214   22519010.6044   22519007.1904
        49.000          43.000
 107804476.68247  84003463.69547  20514528.3254   20514532.6294   20514528.3814
        54.000          49.000
 11 10  1  0 18 30.0000000  0  8G31G23G03G06G13G07G19G16
 122456390.13647  95420541.86147  23302692.6884   23302697.9524   23302692.4074
        48.000          43.000
 108131247.71347  84258103.84347  20576699.6114   20576701.8804   20576699.6654
        54.000          48.000
 105961902.83547  82567689.42647  20163900.2604   20163906.0044   20163900.5544
        55.000          49.000
 107985119.04047  84144225.11047  20548901.5484   20548906.9494   20548901.6114
        54.000          49.000
 114257922.74247  89032119.36647  21742582.8444   21742587.2404   21742582.5694
        53.000          45.000
 143385502.49747  93936734.19447  25382432.5034   25382435.7084   25382431.7054
        39.000          35.000
 118233671.36447  92130114.62147  22499135.6954   22499140.6964   22499136.3284
        49.000          44.000
 107828543.31347  84022216.89047  20519108.1114   20519112.3444   20519108.2334
        53.000          49.000
 11 10  1  0 19  0.0000000  0  8G31G23G03G06G13G07G19G16
 122521124.84047  95470984.40447  23315011.7824   23315016.3304   23315011.5334
        48.000          43.000
 108114368.06547  84244950.84547  20573487.6194   20573490.0864   20573487.9054
        53.000          48.000
 105908344.35147  82525955.55147  20153708.3664   20153714.2604   20153708.5994
        55.000          49.000
 107970592.53647  84132905.74947  20546137.3014   20546142.6444   20546137.4764
        54.000          49.000
 114189586.52347  88978870.37047  21729579.2884   21729582.4804   21729579.0284
        53.000          45.000
 143297816.50147  93868407.35247  25365745.7004   25365749.3244   25365744.8204
        40.000          36.000
 118129501.35647  92048943.19947  22479312.3534   22479317.8144   22479313.5494
        48.000          43.000
 107852912.53747  84041205.87447  20523745.6094   20523749.8824   20523745.8014
        54.000          49.000
 11 10  1  0 19 30.0000000  0  8G31G23G03G06G13G07G19G16
 122586044.82547  95521571.33747  23327365.0014   23327370.2704   23327364.4164
        47.000          43.000
 108098100.12447  84232274.49447  20570391.8164   20570394.2864   20570391.9124
        53.000          48.000
 105855346.39447  82484658.44147  20143623.2334   20143629.0344   20143623.2854
        54.000          49.000
 107956648.30147  84122040.10447  20543483.7074   20543489.0984   20543483.6124
        54.000          49.000
 114121716.36347  88925984.53447  21716664.0074   21716667.4724   21716664.0094
        52.000          45.000
 143210041.99047  93800011.52547  25349042.6684   25349047.1284   25349041.7174
        39.000          35.000
 118025582.26847  91967967.31247  22459537.3394   22459542.7294   22459537.5234
        48.000          43.000
 107877579.76647  84060427.06347  20528439.7234   20528444.0454   20528439.9564
        54.000          49.000
 11 10  1  0 20  0.0000000  0  8G31G23G03G06G13G07G19G16
 122651153.19647  95572305.03247  23339754.7304   23339760.5704   23339754.2434
        48.000          43.000
 108082447.57247  84220077.68147  20567413.3484   20567415.5024   20567413.5274
        54.000          48.000
 105802913.09647  82443801.33547  20133645.3004   20133651.1514   20133645.4004
        55.000          49.000
 107943289.49947  84111630.64847  20540941.5204   20540947.0634   20540941.3534
        54.000          49.000
 114054317.84147  88873466.20247  21703838.2724   21703842.3954   21703837.8434
        52.000          45.000
 143122181.91747  93731549.01547  25332323.0774   25332326.1784   25332322.3534
        38.000          35.000
 117921919.49947  91887191.13247  22439810.9624   22439816.3414   22439811.4644
        49.000          44.000
 107902545.91947  84079881.18247  20533190.5794   20533194.7434   20533190.7664
        54.000          49.000
