     2.11           OBSERVATION DATA    G (GPS)             RINEX VERSION / TYPE
teqc  2016Apr1                          20160930 07:51:15UTCPGM / RUN BY / DATE
Linux 2.4.20-8|Pentium IV|gcc|Linux|486/DX+                 COMMENT
teqc  2016Apr1                          20160816 03:10:12UTCCOMMENT
teqc  2010Oct21     administrateur ccgps20111004 07:02:25UTCCOMMENT
Solaris 5.9|UltraSparc IIe|cc -xarch=v9 SC5.8|=+-|*Sparc    COMMENT
teqc  2010Oct21     administrateur ccgps20111001 01:08:12UTCCOMMENT
teqc  2009Oct19     CNES                20111001 00:05:03UTCCOMMENT
MSXP|IAx86-PII|bcc32 5.0|MSWin95->XP|486/DX+                COMMENT
teqc  2009Oct19                         20111001 00:05:02UTCCOMMENT
BIT 2 OF LLI FLAGS DATA COLLECTED UNDER A/S CONDITION       COMMENT
Version: Version:                                           COMMENT
Project: A001820____CNE_____________                        COMMENT
 SNR is mapped to RINEX snr flag value [0-9]                COMMENT
  L1 & L2: min(max(int(snr_dBHz/6), 0), 9)                  COMMENT
pseudorange smoothing corrections not applied               COMMENT
Forced Modulo Decimation to 30 seconds                      COMMENT
HARB                                                        MARKER NAME
30302M009                                                   MARKER NUMBER
CARDALIAGUET        CNES                                    OBSERVER / AGENCY
17001               ASHTECH UZ-12       CN00-1A01           REC # / TYPE / VERS
0220136820          TRM29659.00     NONE                    ANT # / TYPE
  5084676.8300  2670332.1000 -2768485.9200                  APPROX POSITION XYZ
        3.0520        0.0000        0.0000                  ANTENNA: DELTA H/E/N
     1     1                                                WAVELENGTH FACT L1/2
     7    L1    L2    C1    P1    P2    D1    D2            # / TYPES OF OBSERV
    30.0000                                                 INTERVAL
teqc windowed: start @ 2011 Oct  1 00:10:00.000             COMMENT
teqc windowed:  end  @ 2011 Oct  1 00:20:00.000             COMMENT
  2011    10     1     0    10    0.0000000     GPS         TIME OF FIRST OBS
                                                            END OF HEADER
 11 10  1  0 10  0.0000000  0  9G04G17G11G20G07G28G01G08G32
  -8409511.37648  -6501189.96447  23464554.6504   23464555.2214   23464558.6334
      2477.8474
  -9604780.49548  -7479116.22247  22363640.5364   22363640.2954   22363641.0314
      1440.2274
  11408610.65948   8886104.94947  23312126.4124   23312125.2704   23312126.5154
     -2386.0744
 -10266627.96149  -7990977.30948  21733661.0204   21733660.9064   21733663.1174
       665.5324
  15049385.92748  11722651.18547  24079112.0964   24079111.9654   24079113.8874
     -3140.5954
 -12104117.74949  -9424773.79048  20402397.8924   20402397.6834   20402398.4694
      1081.8814
   8140390.70949   6343247.49148  21955801.6474   21955801.2834   21955805.7634
     -2508.6834
   7986334.87548   6218112.58546  22805488.4264   22805486.4534   22805566.2534
     -2622.5944
  -7202677.10248  -5600893.24447  22905862.7724   22905861.8334   22905864.5784
       -38.2734
 11 10  1  0 10 30.0000000  0  9G04G17G11G20G07G28G01G08G32
  -8483709.84148  -6559006.90747  23450436.2734   23450436.7734   23450439.1724
      2469.0114
  -9647949.47748  -7512754.36047  22355425.0544   22355425.7064   22355426.6324
      1438.1344
  11480215.80348   8941901.16747  23325751.2264   23325749.9444   23325751.7014
     -2386.9354
 -10286334.78249  -8006333.26148  21729912.1494   21729911.5814   21729913.0304
       648.6634
  15143598.89848  11796063.85246  24097040.1294   24097040.3804   24097042.9644
     -3140.0794
 -12136323.31349  -9449869.03948  20396269.5964   20396269.2414   20396270.1164
      1065.6094
   8215758.34248   6401975.51448  21970143.1374   21970143.4684   21970148.1934
     -2515.2954
   8065132.78748   6279513.53046  22820483.1054   22820482.6194   22820562.2014
     -2630.0944
  -7201257.73248  -5599787.23147  22906131.9344   22906132.0384   22906134.1684
       -55.9354
 11 10  1  0 11  0.0000000  0  9G04G17G11G20G07G28G01G08G32
  -8557647.84548  -6616620.89847  23436365.9264   23436366.2554   23436368.9274
      2460.3734
  -9691059.01948  -7546346.18747  22347222.1094   22347221.9914   22347222.9644
      1436.0214
  11551842.20948   8997713.94947  23339380.8164   23339380.5934   23339382.2664
     -2387.8234
 -10305541.52649  -8021299.55248  21726257.1824   21726256.4214   21726257.9014
       631.8614
  15237777.44848  11869449.69046  24114961.3404   24114962.2194   24114962.4524
     -3138.7094
 -12168046.12449  -9474588.11248  20390233.0624   20390232.6514   20390233.6674
      1049.3994
   8291315.66048   6460851.34447  21984521.8014   21984521.4254   21984526.3774
     -2521.6754
   8144149.97848   6341085.35846  22835519.5144   22835519.2464   22835596.0744
     -2637.6094
  -7199314.09748  -5598272.71147  22906501.8724   22906501.8734   22906503.8844
       -73.4634
 11 10  1  0 11 30.0000000  0  9G04G17G11G20G07G28G01G08G32
  -8631325.13148  -6674031.75347  23422346.7394   23422345.7434   23422347.7954
      2451.6394
  -9734109.50448  -7579892.00747  22339029.7954   22339029.6474   22339031.0924
      1434.1374
  11623488.43648   9053542.16547  23353014.7184   23353015.7354   23353015.7284
     -2388.5554
 -10324247.17049  -8035875.36848  21722697.5444   21722696.3904   21722698.2974
       615.2944
  15331918.10148  11942806.02046  24132875.7574   24132876.4974   24132880.3614
     -3137.3774
 -12199284.61049  -9498929.78648  20384288.5514   20384287.8524   20384289.1594
      1033.2364
   8367060.78748   6519873.51947  21998935.4064   21998934.9304   21998939.9794
     -2527.7494
   8223382.77248   6402825.14746  22850597.5074   22850597.3744   22850674.8484
     -2644.4974
  -7196845.94248  -5596349.45347  22906971.9534   22906971.5234   22906974.2544
       -90.8904
 11 10  1  0 12  0.0000000  0  9G04G17G11G20G07G28G01G08G32
  -8704740.91548  -6731238.84447  23408374.9654   23408376.0554   23408379.0974
      2442.7854
  -9777101.02648  -7613391.87047  22330847.8024   22330848.8034   22330849.7074
      1432.1574
  11695153.65648   9109385.18247  23366653.0294   23366651.1894   23366653.3044
     -2389.1224
 -10342450.17049  -8050059.51248  21719233.5694   21719232.6174   21719234.5844
       598.4344
  15426018.74748  12016131.17746  24150783.1194   24150783.2244   24150784.9764
     -3135.9054
 -12230036.64649  -9522892.41448  20378436.3414   20378436.0194   20378437.1274
      1017.0314
   8442990.92348   6579039.85947  22013384.0354   22013383.8684   22013388.8044
     -2534.0154
   8302828.46548   6464730.85746  22865715.9364   22865714.6984   22865791.3234
     -2651.7284
  -7193852.26948  -5594016.72247  22907542.5124   22907541.8764   22907544.0994
      -108.4364
 11 10  1  0 12 30.0000000  0  9G04G17G11G20G07G28G01G08G32
  -8777893.93048  -6788241.14447  23394455.2764   23394455.1444   23394457.7034
      2433.9614
  -9820033.44248  -7646845.68547  22322678.3394   22322678.8974   22322679.5734
      1430.1414
  11766836.81948   9165242.20347  23380294.0504   23380293.7914   23380294.5334
     -2389.9404
 -10360149.21049  -8063850.95748  21715865.0764   21715864.6104   21715866.7694
       581.5714
  15520076.96647  12089423.27646  24168681.3164   24168680.7314   24168683.3234
     -3134.5624
 -12260300.63949  -9546474.74548  20372677.4144   20372677.1024   20372677.8304
      1000.5964
   8519105.52648   6638349.93647  22027867.9704   22027868.4154   22027873.1114
     -2540.3734
   8382484.53248   6526800.51146  22880873.8184   22880874.0024   22880950.1224
     -2658.7754
  -7190332.27448  -5591273.85647  22908211.3924   22908210.8654   22908213.9594
      -126.2484
 11 10  1  0 13  0.0000000  0  9G04G17G11G20G07G28G01G08G32
  -8850784.00448  -6845038.58247  23380585.1864   23380585.1784   23380587.4484
      2424.7534
  -9862907.11648  -7680253.73047  22314520.4154   22314520.1784   22314521.6684
      1427.8324
  11838536.73048   9221112.26347  23393937.5564   23393937.9024   23393939.1824
     -2390.6054
 -10377343.39849  -8077249.00948  21712592.9914   21712593.0534   21712595.3404
       564.3754
  15614089.74547  12162679.94146  24186572.6194   24186571.9914   24186573.6944
     -3133.3324
 -12290074.74049  -9569675.33948  20367011.3914   20367011.0094   20367012.1374
       984.0494
   8595400.37648   6697800.46047  22042387.0524   22042386.6974   22042391.2744
     -2546.4344
   8462347.67348   6589031.52646  22896070.6864   22896070.2504   22896148.0234
     -2665.9274
  -7186285.63448  -5588120.62147  22908981.4934   22908981.3464   22908984.9584
      -143.8304
 11 10  1  0 13 30.0000000  0  9G04G17G11G20G07G28G01G08G32
  -8923410.14348  -6901630.35147  23366764.3494   23366763.2224   23366765.5974
      2416.3804
  -9905722.17048  -7713616.08447  22306373.4214   22306373.6044   22306373.8934
      1426.2454
  11910252.30148   9276994.53047  23407584.2304   23407585.0584   23407585.6154
     -2390.6534
 -10394031.69749  -8090252.86048  21709417.9024   21709417.2754   21709419.2774
       547.8724
  15708054.14447  12235898.91546  24204453.2194   24204452.9994   24204452.2564
     -3131.2904
 -12319357.13749  -9592492.79148  20361439.0204   20361438.9334   20361439.8944
       967.8634
   8671872.97448   6757389.50547  22056939.5004   22056938.8914   22056943.6234
     -2552.0654
   8542414.80648   6651421.47046  22911307.7214   22911308.3494   22911382.6804
     -2672.2554
  -7181711.69448  -5584556.50447  22909851.4264   22909851.6084   22909853.3064
      -161.2454
 11 10  1  0 14  0.0000000  0  9G04G17G11G20G07G28G01G08G32
  -8995771.61748  -6958015.87946  23352994.4564   23352993.0414   23352995.8704
      2407.4854
  -9948478.68648  -7746932.82847  22298235.9024   22298236.1494   22298237.6964
      1424.4324
  11981982.86348   9332888.47347  23421234.6474   23421233.6624   23421235.0074
     -2391.3424
 -10410212.13949  -8102860.98348  21706338.6404   21706338.3154   21706340.5254
       530.9144
  15801968.08747  12309078.56046  24222323.0264   24222322.9814   24222326.4784
     -3129.6744
 -12348145.54749  -9614925.31848  20355961.2564   20355960.7494   20355961.5494
       951.4004
   8748522.04048   6817116.03647  22071525.1304   22071524.5044   22071529.3444
     -2557.9174
   8622683.39448   6713968.41846  22926582.1964   22926581.0074   22926659.9504
     -2678.9094
  -7176609.64248  -5580580.87147  22910822.1974   22910822.2974   22910824.9774
      -178.7334
 11 10  1  0 14 30.0000000  0  9G04G17G11G20G07G28G01G08G32
  -9067868.44248  -7014195.20047  23339273.5534   23339274.6894   23339277.3454
      2399.2804
  -9991177.46648  -7780204.58247  22290110.8634   22290110.7864   22290112.4684
      1422.8444
  12053726.01448   9388792.23247  23434887.5414   23434886.4564   23434888.8734
     -2391.0884
 -10425884.80149  -8115073.43848  21703356.3704   21703355.4074   21703357.3394
       514.3644
  15895827.77847  12382215.91446  24240184.6554   24240185.1354   24240187.1344
     -3127.2934
 -12376439.16249  -9636972.28748  20350576.9824   20350576.5804   20350577.6424
       935.3514
   8825344.63148   6876977.79647  22086143.9624   22086144.1504   22086147.9594
     -2562.9354
   8703149.21148   6776669.02846  22941893.9834   22941892.8124   22941969.0214
     -2684.9294
  -7170979.84948  -5576194.01647  22911894.4984   22911893.4624   22911895.7924
      -195.8444
 11 10  1  0 15  0.0000000  0  9G04G17G11G20G07G28G01G08G32
  -9139698.89548  -7070166.94746  23325604.5404   23325603.5304   23325609.1414
      2389.8024
 -10033817.26448  -7813430.38347  22281995.9634   22281996.5244   22281997.4584
      1420.2174
  12125482.16948   9444706.12547  23448541.6844   23448541.6864   23448542.6934
     -2392.3974
 -10441047.17749  -8126888.26548  21700470.6034   21700470.3744   21700472.2154
       496.7794
  15989631.85547  12455309.92746  24258034.2154   24258034.4364   24258037.2464
     -3125.9154
 -12404234.92949  -9658631.32548  20345287.7094   20345287.1694   20345287.9934
       918.0734
   8902339.25248   6936973.60447  22100796.0464   22100795.6304   22100799.5604
     -2569.4584
   8783810.66548   6839522.10246  22957243.2284   22957240.2644   22957322.6884
     -2692.0224
  -7164820.39248  -5571394.43147  22913066.4614   22913065.5814   22913067.6704
      -214.2854
 11 10  1  0 15 30.0000000  0  9G04G17G11G20G07G28G01G08G32
  -9211262.74348  -7125930.94047  23311986.8924   23311987.5244   23311991.3774
      2381.0234
 -10076398.91648  -7846610.87247  22273893.8394   22273893.5054   22273895.3744
      1418.5614
  12197249.55448   9500628.75947  23462198.2144   23462199.4064   23462199.3894
     -2392.2134
 -10455698.81249  -8138305.10648  21697683.0794   21697682.4374   21697684.2384
       480.0764
  16083376.81647  12528357.90947  24275873.6554   24275875.0984   24275877.9474
     -3123.6204
 -12431531.97049  -9679901.74548  20340093.3044   20340092.7954   20340093.4754
       901.7014
   8979503.10248   6997101.28147  22115479.0354   22115478.8854   22115483.9994
     -2574.8744
   8864664.31448   6902524.91746  22972628.7364   22972627.9504   22972706.8474
     -2698.1184
  -7158131.48448  -5566182.28647  22914339.6134   22914338.5084   22914342.1554
      -231.6474
 11 10  1  0 16  0.0000000  0  9G04G17G11G20G07G28G01G08G32
  -9282559.67348  -7181486.95947  23298419.1274   23298419.8394   23298421.5564
      2372.1804
 -10118922.74248  -7879746.29647  22265801.2044   22265801.4214   22265803.4284
      1416.5724
  12269026.83248   9556559.08347  23475858.1774   23475858.5564   23475858.5454
     -2392.7264
 -10469838.94749  -8149323.38148  21694991.9304   21694991.6464   21694992.9254
       462.8534
  16177060.05747  12601357.76946  24293701.6294   24293701.1444   24293703.7784
     -3121.3574
 -12458328.72149  -9700782.33148  20334993.8584   20334993.6294   20334994.4554
       884.8514
   9056833.70348   7057358.88447  22130195.0594   22130194.8184   22130199.3384
     -2580.2954
   8945706.65248   6965674.78746  22988050.8224   22988053.0044   22988128.4974
     -2704.3204
  -7150912.97148  -5560557.46247  22915712.9644   22915712.3674   22915714.7554
      -249.4304
 11 10  1  0 16 30.0000000  0  9G04G17G11G20G07G28G01G08G32
  -9353588.56548  -7236834.12047  23284903.0914   23284902.6494   23284907.3234
      2363.4534
 -10161388.46848  -7912836.45847  22257721.4384   22257721.4864   22257721.8814
      1415.0164
  12340813.27148   9612496.57146  23489517.9064   23489517.1104   23489517.9124
     -2392.6614
 -10483466.03849  -8159941.87748  21692398.9254   21692398.5174   21692400.3654
       446.0554
  16270679.15647  12674307.67046  24311516.7704   24311516.6384   24311519.0454
     -3118.9064
 -12484622.82149  -9721271.24248  20329990.1624   20329989.8074   20329990.7674
       868.4984
   9134329.64348   7117745.33547  22144941.8774   22144941.2644   22144946.4074
     -2585.4414
   9026935.26648   7028969.76146  23003508.0544   23003507.4494   23003587.6594
     -2710.1314
  -7143164.01548  -5554519.30147  22917187.1774   22917186.2094   22917189.9974
      -266.6804
 11 10  1  0 17  0.0000000  0  9G04G17G11G20G07G28G01G08G32
  -9424348.99848  -7291972.08547  23271437.8284   23271438.6414   23271441.3964
      2354.0204
 -10203796.53948  -7945881.68247  22249651.1874   22249650.9794   22249652.1844
      1412.7924
  12412607.77048   9668440.34847  23503179.5394   23503179.6584   23503181.4784
     -2393.3294
 -10496579.18049  -8170159.90248  21689903.7314   21689903.1994   21689904.6864
       428.4134
  16364231.14447  12747205.25846  24329319.0864   24329318.6624   24329320.3374
     -3117.2704
 -12510412.77249  -9741367.30648  20325082.6514   20325082.2574   20325083.3834
       851.2334
   9211987.61648   7178258.03647  22159719.0214   22159719.4144   22159723.3234
     -2591.4594
   9108346.78848   7092407.29146  23018999.2144   23018996.9004   23019075.2624
     -2716.8354
  -7134884.30948  -5548067.58847  22918762.9854   22918761.9954   22918764.9764
      -284.8854
 11 10  1  0 17 30.0000000  0  9G04G17G11G20G07G28G01G08G32
  -9494840.30848  -7346900.35147  23258024.8624   23258024.7464   23258026.4884
      2345.2974
 -10246146.72948  -7978881.81047  22241591.9284   22241591.8064   22241593.5344
      1410.8554
  12484409.32648   9724389.61647  23516843.0204   23516842.1934   23516844.9254
     -2393.2564
 -10509177.68749  -8179976.90648  21687506.4234   21687505.8674   21687507.4264
       411.4924
  16457713.68047  12820048.77546  24347108.2294   24347106.2034   24347110.2574
     -3114.7924
 -12535697.02849  -9761069.32348  20320271.2594   20320270.6684   20320271.9874
       834.5424
   9289805.56648   7238895.40547  22174527.8474   22174527.4564   22174532.2954
     -2596.4694
   9189938.26348   7155985.06446  23034526.7444   23034527.5064   23034604.0434
     -2722.5114
  -7126073.56048  -5541202.05947  22920439.6574   22920439.5974   22920441.5714
      -302.2824
 11 10  1  0 18  0.0000000  0  9G04G17G11G20G07G28G01G08G32
  -9565062.08548  -7401618.59247  23244661.4164   23244661.2424   23244663.9754
      2335.8174
 -10288439.42348  -8011837.14147  22233543.2844   22233543.7024   22233545.4644
      1408.2934
  12556216.71348   9780343.42047  23530507.0674   23530507.4574   23530509.3984
     -2394.0724
 -10521260.60849  -8189392.15448  21685206.4804   21685206.4744   21685208.1544
       393.7234
  16551123.99447  12892835.96746  24364882.3384   24364882.4724   24364885.2024
     -3112.8174
 -12560474.01849  -9780376.06348  20315556.1034   20315555.8014   20315556.9264
       816.9774
   9367781.48348   7299655.85447  22189366.3984   22189365.6174   22189370.6894
     -2602.2794
   9271706.70248   7219700.70946  23050086.5704   23050083.5814   23050161.4724
     -2728.9094
  -7116731.42448  -5533922.45347  22922216.8214   22922216.2204   22922218.8284
      -320.8004
 11 10  1  0 18 30.0000000  0  9G04G17G11G20G07G28G01G08G32
  -9635013.23748  -7456125.94647  23231350.0154   23231351.4344   23231352.5324
      2327.0884
 -10330674.28748  -8044747.40647  22225507.3624   22225507.2024   22225508.5244
      1406.6724
  12628029.07548   9836301.09947  23544172.5504   23544172.6294   23544173.7584
     -2393.9124
 -10532826.48049  -8198404.51348  21683005.9714   21683005.4284   21683007.5074
       376.8174
  16644459.56947  12965564.97346  24382643.3264   24382643.5634   24382647.6794
     -3109.7004
 -12584741.80849  -9799286.03248  20310938.1154   20310938.0314   20310938.6644
       800.2554
   9445913.07548   7360537.61247  22204233.9984   22204233.8854   22204238.2324
     -2606.9574
   9353649.03248   7283551.87246  23065679.4204   23065680.1394   23065759.6144
     -2734.2614
  -7106857.20148  -5526228.25047  22924095.7914   22924095.8444   22924098.4594
      -338.1664
 11 10  1  0 19  0.0000000  0  9G04G17G11G20G07G28G01G08G32
  -9704693.34948  -7510422.11047  23218089.5894   23218088.4594   23218092.0744
      2318.2184
 -10372851.20548  -8077612.51847  22217480.8944   22217481.0604   22217482.6074
      1404.9944
  12699845.68148   9892262.09946  23557839.3304   23557840.1644   23557839.9814
     -2393.7874
 -10543874.15249  -8207013.07848  21680903.8994   21680902.8394   21680904.9394
       359.6934
  16737717.73847  13038233.59046  24400390.6964   24400391.3634   24400391.7904
     -3106.9284
 -12608498.49149  -9817797.73348  20306417.4874   20306416.9664   20306418.1594
       783.4814
   9524198.26648   7421539.06647  22219131.7094   22219131.2434   22219135.6274
     -2611.9234
   9435762.64648   7347536.49546  23081305.3204   23081304.4474   23081383.9464
     -2739.7564
  -7096450.41848  -5518119.04947  22926076.4554   22926075.7204   22926078.3004
      -355.7284
 11 10  1  0 19 30.0000000  0  9G04G17G11G20G07G28G01G08G32
  -9774102.19348  -7564506.89147  23204881.9064   23204882.5214   23204884.7874
      2309.7324
 -10414970.80448  -8110432.96847  22209464.7364   22209465.9244   22209467.1244
      1403.5524
  12771664.91748   9948225.12746  23571506.1574   23571506.6024   23571506.7324
     -2393.5354
 -10554403.37049  -8215217.65448  21678899.7474   21678899.5434   21678900.8964
       342.8454
  16830895.86947  13110839.88346  24418122.9004   24418123.1844   24418125.5164
     -3103.7494
 -12631743.27549  -9835910.55148  20301993.9324   20301993.7814   20301994.5064
       766.7834
   9602634.66248   7482658.33847  22234056.9734   22234056.6254   22234061.9384
     -2616.5524
   9518043.77248   7411651.65046  23096962.8384   23096961.9204   23097037.5504
     -2744.9974
  -7085511.46948  -5509595.17647  22928158.5284   22928157.6154   22928160.4874
      -373.0874
 11 10  1  0 20  0.0000000  0  9G04G17G11G20G07G28G01G08G32
  -9843238.90748  -7618379.63247  23191726.6084   23191726.3594   23191727.8014
      2299.5104
 -10457032.86648  -8143208.57847  22201461.8224   22201462.5174   22201463.0844
      1400.5304
  12843486.16148  10004189.72547  23585173.1664   23585172.3284   23585175.6604
     -2394.5744
 -10564413.05549  -8223017.40448  21676995.0054   21676994.8544   21676996.2814
       324.4854
  16923991.34148  13183381.75746  24435839.7504   24435839.8234   24435840.9814
     -3102.1994
 -12654473.76149  -9853622.62148  20297668.6444   20297668.2194   20297669.3764
       748.5644
   9681219.82548   7543893.52647  22249010.7574   22249010.9734   22249015.8414
     -2622.3714
   9600489.85448   7475895.31546  23112652.0694   23112650.2414   23112729.2454
     -2751.3124
  -7074039.61248  -5500656.05147  22930340.8374   22930340.2034   22930343.9314
      -391.6864
