     2.11           OBSERVATION DATA    M (MIXED)           RINEX VERSION / TYPE
teqc  2016Apr1                          20160930 07:51:16UTCPGM / RUN BY / DATE
Linux 2.4.20-8|Pentium IV|gcc|Linux|486/DX+                 COMMENT
teqc  2016Apr1                          20160816 03:30:59UTCCOMMENT
teqc  2010Oct21                         20111002 00:02:53UTCCOMMENT
Solaris 5.9|UltraSparc IIe|cc SC5.8|=+-|*Sparc              COMMENT
teqc  2010Oct21                         20111001 01:03:10UTCCOMMENT
teqc  2010Oct21                         20111001 00:17:16UTCCOMMENT
teqc  2011Jul26                         20111001 00:16:03UTCCOMMENT
Linux 2.4.20-8|Pentium IV|gcc -static|Linux|486/DX+         COMMENT
BIT 2 OF LLI FLAGS DATA COLLECTED UNDER A/S CONDITION       COMMENT
 SNR is mapped to RINEX snr flag value [0-9]                COMMENT
  L1 & L2: min(max(int(snr_dBHz/6), 0), 9)                  COMMENT
pseudorange smoothing corrections not applied               COMMENT
Forced Modulo Decimation to 30 seconds                      COMMENT
Forced Modulo Decimation to 30 seconds                      COMMENT
teqc.bin edited: all SBAS satellites excluded               COMMENT
MAS1                                                        MARKER NAME
31303M002                                                   MARKER NUMBER
AUTOMATIC           ESA/ESOC                                OBSERVER / AGENCY
340-1776            JPS LEGACY          3.4                 REC # / TYPE / VERS
CR620045039         ASH701945E_M    NONE                    ANT # / TYPE
  5439192.2651 -1522055.6288  2953454.7059                  APPROX POSITION XYZ
        0.0330        0.0000        0.0000                  ANTENNA: DELTA H/E/N
     1     1                                                WAVELENGTH FACT L1/2
     7    L1    L2    C1    P2    P1    S1    S2            # / TYPES OF OBSERV
    30.0000                                                 INTERVAL
teqc windowed: start @ 2011 Oct  1 00:10:00.000             COMMENT
teqc windowed:  end  @ 2011 Oct  1 00:20:00.000             COMMENT
  2011    10     1     0    10    0.0000000     GPS         TIME OF FIRST OBS
    15                                                      LEAP SECONDS
                                                            END OF HEADER
 11 10  1  0 10  0.0000000  0 17G08R12G04G10R13R18G02R17R02R24G17G26
                                G13R11R01G05G07
 111231033.646 8  86673558.66547  21166557.840    21166565.175    21166557.058
        51.000          46.0004
 107446920.537 9  83569886.456 8  20114279.994    20114286.268    20114279.798
        55.000          51.000
 108360844.932 8  84437050.22147  20620368.009    20620374.763    20620367.622
        53.000          46.0004
 108771998.034 8  84757505.85647  20698562.276    20698567.344    20698560.915
        53.000          44.0004
 119424161.860 7  92885491.372 7  22364301.120    22364305.605    22364300.795
        42.000          42.000
 122933301.352 7  95614814.511 7  23029547.000    23029551.558    23029547.362
        42.000          43.000
 107954826.129 8  84120667.05347  20543114.682    20543117.602    20543113.779
        52.000          45.0004
 115125448.765 7  89542044.904 6  21513944.020    21513946.181    21513942.978
        47.000          39.000
 111073923.388 8  86390903.121 8  20815166.576    20815168.166    20815165.812
        52.000          49.000
 122966616.106 7  95640715.753 6  22995386.789    22995393.034    22995385.201
        45.000          40.000
 131641255.989 6 102577502.71843  25050468.142    25050478.571    25050468.160
        37.000          20.0004
 120037372.298 7  93535607.64744  22842353.595    22842363.776    22842352.593
        43.000          29.0004
 123330508.153 7  96101790.09444  23468975.100    23468979.983    23468975.151
        43.000          26.0004
 116104237.452 7  90303357.806 6  21727308.476    21727311.448    21727307.988
        46.000          40.000
 115334864.124 8  89704959.129 6  21575720.842    21575722.418    21575720.350
        49.000          40.000
 119813567.992 7  93361236.85245  22799760.078    22799764.227    22799759.761
        45.000          34.0004
 111308605.178 8  86734328.67647  21181384.329    21181389.691    21181383.946
        50.000          44.0004
 11 10  1  0 10 30.0000000  0 17G08R12G04G10R13R18G02R17R02R24G17G26
                                G13R11R01G05G07
 111188134.797 7  86640130.87446  21158394.507    21158401.930    21158393.754
        47.000          37.0004
 107396939.660 9  83531012.696 8  20104923.424    20104929.690    20104923.281
        55.000          51.000
 108416676.322 8  84480555.11347  20630992.564    20630999.285    20630992.087
        51.000          44.0004
 108774777.676 8  84759671.80347  20699091.218    20699096.408    20699089.934
        53.000          44.0004
 119296119.000 6  92785901.606 5  22340321.738    22340328.797    22340322.550
        37.000          31.000
 122892503.601 7  95583082.928 7  23021906.277    23021909.329    23021905.512
        45.000          42.000
 107909640.042 8  84085457.14047  20534515.999    20534519.018    20534515.139
        53.000          44.0004
 115179864.315 7  89584367.976 6  21524113.329    21524115.367    21524111.693
        47.000          39.000
 111045185.592 8  86368551.511 8  20809780.794    20809782.788    20809780.038
        52.000          49.000
 123082002.944 7  95730461.976 6  23016962.546    23016968.660    23016961.984
        45.000          40.000
 131722596.296 5 102640884.81842  25065943.971    25065957.809    25065944.686
        30.000          17.0004
 119955539.455 7  93471841.86144  22826781.056    22826791.736    22826780.370
        45.000          29.0004
 123420234.614 7  96171706.79444  23486049.444    23486054.297    23486049.567
        42.000          26.0004
 116178690.691 7  90361265.887 6  21741241.019    21741244.241    21741241.391
        46.000          40.000
 115366872.701 8  89729854.651 6  21581708.363    21581710.705    21581707.560
        49.000          40.000
 119748069.629 7  93310199.18945  22787295.474    22787300.006    22787295.603
        46.000          34.0004
 111326150.309 8  86748000.27547  21184723.073    21184728.412    21184722.706
        51.000          44.0004
 11 10  1  0 11  0.0000000  0 17G08R12G04G10R13R18G02R17R02R24G17G26
                                G13R11R01G05G07
 111145727.708 7  86607086.21246  21150324.718    21150332.324    21150323.986
        45.000          40.0004
 107347671.386 8  83492693.209 7  20095699.834    20095706.212    20095699.645
        52.000          46.000
 108472967.009 9  84524417.85647  20641704.083    20641711.196    20641703.849
        54.000          47.0004
 108777753.372 8  84761990.52047  20699657.657    20699662.804    20699656.347
        51.000          44.0004
 119168227.230 7  92686430.382 7  22316372.064    22316377.210    22316371.884
        43.000          42.000
 122852374.990 7  95551871.770 7  23014388.154    23014391.308    23014387.886
        44.000          42.000
 107864984.780 8  84050660.87047  20526018.417    20526021.197    20526017.506
        52.000          45.0004
 115234864.884 7  89627146.070 6  21534391.058    21534393.623    21534390.086
        47.000          39.000
 111016488.646 8  86346231.664 8  20804403.046    20804404.786    20804402.389
        52.000          49.000
 123197380.482 7  95820201.072 6  23038536.795    23038544.219    23038537.392
        44.000          39.000
 131803701.349 6 102704083.43343  25081379.119    25081392.777    25081379.797
        36.000          20.0004
 119873990.483 7  93408297.28845  22811262.790    22811272.983    22811262.168
        43.000          30.0004
 123509947.292 7  96241612.75344  23503122.278    23503126.465    23503121.426
        44.000          26.0004
 116253789.666 7  90419676.227 6  21755295.402    21755298.424    21755294.990
        47.000          40.000
 115398989.699 8  89754834.482 6  21587717.461    21587718.622    21587716.567
        49.000          40.000
 119682580.321 7  93259168.57245  22774833.780    22774837.617    22774833.563
        45.000          34.0004
 111344263.144 8  86762114.24147  21188169.768    21188174.945    21188169.320
        51.000          44.0004
 11 10  1  0 11 30.0000000  0 17G08R12G04G10R13R18G02R17R02R24G17G26
                                G13R11R01G05G07
 111103814.251 7  86574426.48946  21142349.125    21142356.049    21142348.140
        47.000          39.0004
 107299118.083 8  83454929.730 7  20086610.819    20086617.027    20086610.600
        53.000          47.000
 108529715.138 8  84568636.90947  20652503.285    20652510.344    20652502.973
        52.000          46.0004
 108780925.419 8  84764462.23547  20700261.437    20700266.319    20700259.962
        53.000          44.0004
 119040490.277 7  92587078.583 5  22292452.964    22292460.061    22292452.197
        42.000          33.000
 122812916.768 7  95521182.050 7  23006996.152    23006999.695    23006995.684
        44.000          43.000
 107820862.558 8  84016279.90347  20517622.234    20517625.091    20517621.401
        51.000          45.0004
 115290447.117 7  89670376.567 6  21544778.226    21544780.622    21544776.919
        47.000          39.000
 110987833.164 8  86323944.073 8  20799033.270    20799034.522    20799032.605
        52.000          49.000
 123312744.247 7  95909929.269 6  23060111.028    23060117.239    23060110.485
        44.000          40.000
 131884569.562 6 102767097.54843  25096769.355    25096779.733    25096769.203
        37.000          20.0004
 119792726.377 7  93344974.75845  22795799.075    22795809.209    22795797.968
        44.000          30.0004
 123599644.680 6  96311506.79744  23520190.120    23520195.143    23520189.737
        41.000          26.0004
 116329531.034 7  90478586.179 6  21769469.394    21769472.409    21769469.090
        47.000          40.000
 115431216.302 8  89779899.573 6  21593746.085    21593747.106    21593744.906
        49.000          40.000
 119617100.491 7  93208145.35545  22762373.018    22762377.657    22762372.737
        45.000          35.0004
 111362942.720 8  86776669.82047  21191724.308    21191729.609    21191723.961
        51.000          44.0004
 11 10  1  0 12  0.0000000  0 17G08R12G04G10R13R18G02R17R02R24G17G26
                                G13R11R01G05G07
 111062395.374 7  86542152.04645  21134467.249    21134474.567    21134466.419
        42.000          31.0004
 107251283.048 9  83417725.063 8  20077655.632    20077661.358    20077655.401
        54.000          49.000
 108586919.807 8  84613211.93347  20663389.018    20663396.055    20663388.709
        52.000          45.0004
 108784294.835 8  84767087.74247  20700902.187    20700907.457    20700900.862
        51.000          44.0004
 118912913.807 6  92487851.501 5  22268561.244    22268568.246    22268562.051
        39.000          31.000
 122774129.556 7  95491014.226 7  22999730.482    22999733.595    22999729.818
        45.000          43.000
 107777275.328 9  83982315.87347  20509327.638    20509330.668    20509326.917
        54.000          47.0004
 115346607.142 7  89714056.451 6  21555273.153    21555275.412    21555271.626
        47.000          39.000
 110959220.177 8  86301689.524 8  20793671.410    20793672.673    20793670.664
        52.000          49.000
 123428089.879 7  95999642.971 6  23081681.985    23081686.015    23081680.646
        45.000          39.000
 131965199.119 5 102829925.77543  25112110.105    25112121.760    25112111.495
        34.000          18.0004
 119711747.750 7  93281874.73145  22780388.867    22780399.280    22780388.043
        44.000          31.0004
 123689325.146 6  96381387.66244  23537255.407    23537260.799    23537255.612
        40.000          26.0004
 116405911.580 7  90537993.284 6  21783762.771    21783765.165    21783762.437
        46.000          39.000
 115463553.946 8  89805051.013 6  21599794.642    21599796.930    21599794.463
        50.000          40.000
 119551630.715 7  93157129.96346  22749914.703    22749919.286    22749914.473
        46.000          36.0004
 111382188.826 8  86791666.85347  21195386.586    21195391.903    21195386.392
        51.000          44.0004
 11 10  1  0 12 30.0000000  0 17G08R12G04G10R13R18G02R17R02R24G17G26
                                G13R11R01G05G07
 111021472.664 7  86510263.99146  21126679.896    21126687.514    21126679.280
        47.000          38.0004
 107204169.050 9  83381081.400 8  20068835.247    20068841.167    20068835.127
        55.000          52.000
 108644579.342 9  84658141.44847  20674361.129    20674368.259    20674360.780
        54.000          46.0004
 108787862.152 8  84769867.45547  20701581.161    20701586.362    20701579.816
        52.000          44.0004
 118785499.199 6  92388751.897 5  22244702.869    22244706.997    22244702.418
        40.000          34.000
 122736014.811 7  95461369.425 7  22992589.611    22992593.857    22992589.623
        44.000          44.000
 107734224.728 8  83948769.94847  20501135.363    20501138.494    20501134.692
        53.000          44.0004
 115403340.997 8  89758182.649 6  21565875.976    21565877.695    21565874.418
        48.000          39.000
 110930650.022 8  86279468.295 8  20788316.971    20788318.606    20788316.222
        53.000          49.000
 123543412.982 7  96089338.712 6  23103246.618    23103253.085    23103246.058
        44.000          41.000
 132045587.936 6 102892566.56142  25127409.637    25127420.797    25127408.558
        36.000          15.0004
 119631055.259 7  93218997.77445  22765032.361    22765043.920    22765032.507
        43.000          30.0004
 123778987.353 7  96451254.28844  23554318.990    23554322.795    23554318.115
        43.000          26.0004
 116482928.280 7  90597895.171 6  21798175.461    21798178.542    21798175.197
        46.000          40.000
 115496003.373 8  89830289.408 6  21605864.125    21605867.256    21605864.005
        48.000          40.000
 119486171.667 7  93106122.94146  22737458.026    22737462.612    22737458.043
        46.000          36.0004
 111402000.863 8  86807104.86547  21199156.724    21199161.967    21199156.398
        52.000          44.0004
 11 10  1  0 13  0.0000000  0 17G08R12G04G10R13R18G02R17R02R24G17G26
                                G13R11R01G05G07
 110981048.824 8  86478764.76946  21118987.889    21118995.173    21118986.931
        49.000          41.0004
 107157778.256 8  83345000.063 8  20060150.414    20060156.317    20060150.319
        53.000          51.000
 108702692.091 8  84703424.17847  20685419.762    20685426.717    20685419.305
        53.000          45.0004
 108791628.632 8  84772802.36447  20702298.054    20702303.113    20702296.699
        53.000          44.0004
 118658255.683 6  92289784.098 5  22220876.027    22220880.271    22220875.208
        40.000          31.000
 122698574.043 7  95432248.825 7  22985576.386    22985579.725    22985575.553
        44.000          44.000
 107691712.999 8  83915643.96547  20493045.755    20493048.678    20493044.852
        51.000          44.0004
 115460645.503 7  89802752.684 6  21576583.921    21576586.688    21576582.682
        46.000          39.000
 110902123.509 8  86257281.017 8  20782971.337    20782972.793    20782970.294
        53.000          49.000
 123658711.421 7  96179015.852 6  23124807.001    23124813.617    23124807.118
        43.000          39.000
 132125734.400 5 102955018.61242  25142660.937    25142672.274    25142658.841
        32.000          14.0004
 119550649.971 7  93156344.72445  22749731.537    22749742.258    22749731.020
        42.000          30.0004
 123868629.698 7  96521105.43644  23571376.407    23571381.331    23571376.391
        43.000          26.0004
 116560577.720 7  90658289.181 6  21812706.498    21812708.916    21812706.190
        47.000          39.000
 115528566.174 8  89855615.977 6  21611957.025    21611959.218    21611956.505
        49.000          40.000
 119420724.333 7  93055125.03746  22725003.939    22725008.656    22725003.776
        46.000          36.0004
 111422378.234 8  86822983.40147  21203034.248    21203039.655    21203034.055
        50.000          44.0004
 11 10  1  0 13 30.0000000  0 18G08R12G28G04G10R13R18G02R17R02R24G17
                                G26G13R11R01G05G07
 110941124.825 8  86447655.08047  21111390.504    21111397.842    21111389.718
        48.000          42.0004
 107112112.807 9  83309482.680 8  20051601.895    20051607.518    20051601.572
        54.000          49.000
 132679168.820 5                  25247999.095
        34.000
 108761256.410 8  84749058.75347  20696563.914    20696571.184    20696563.572
        52.000          46.0004
 108795594.693 8  84775892.78447  20703052.538    20703057.805    20703051.361
        53.000          44.0004
 118531188.576 5  92190954.033 5  22197080.847    22197087.207    22197080.516
        34.000          31.000
 122661807.194 7  95403652.366 7  22978688.205    22978691.553    22978687.453
        43.000          44.000
 107649741.711 8  83882939.01447  20485058.952    20485061.775    20485058.104
        52.000          44.0004
 115518516.246 7  89847763.142 6  21587399.738    21587401.346    21587397.572
        47.000          39.000
 110873641.289 8  86235128.184 8  20777633.813    20777635.155    20777633.181
        53.000          49.000
 123773978.537 7  96268668.043 6  23146362.961    23146370.539    23146361.696
        43.000          40.000
 132205651.151 5 103017292.16341  25157866.118    25157876.169    25157864.791
        35.000          11.0004
 119470532.049 7  93093915.67845  22734485.843    22734496.147    22734485.151
        45.000          30.0004
 123958250.684 7  96590939.95844  23588431.527    23588435.756    23588430.801
        43.000          26.0004
 116638856.674 7  90719172.813 6  21827355.988    21827357.705    21827355.199
        47.000          39.000
 115561243.241 8  89881031.435 6  21618069.696    21618071.853    21618069.212
        49.000          40.000
 119355288.993 7  93004136.48346  22712552.017    22712556.563    22712551.797
        46.000          36.0004
 111443319.826 8  86839301.58747  21207019.253    21207024.558    21207018.944
        51.000          44.0004
 11 10  1  0 14  0.0000000  0 18G08R12G28G04G10R13R18G02R17R02R24G17
                                G26G13R11R01G05G07
 110901702.645 8  86416936.44147  21103888.721    21103896.187    21103888.002
        50.000          42.0004
 107067175.707 9  83274531.632 8  20043189.149    20043195.258    20043189.189
        55.000          50.000
 132628794.080 5                  25238416.685
        32.000
 108820270.518 8  84795043.80147  20707793.732    20707801.098    20707793.636
        51.000          43.0004
 108799761.374 8  84779139.53047  20703845.606    20703850.736    20703844.344
        53.000          44.0004
 118404297.642 8  92092260.467 6  22173318.103    22173324.761    22173318.064
        49.000          40.000
 122625715.922 7  95375581.364 7  22971926.592    22971930.963    22971926.873
        43.000          44.000
 107608313.100 8  83850657.00847  20477175.239    20477178.166    20477174.583
        52.000          45.0004
 115576951.323 7  89893212.489 6  21598319.064    21598321.482    21598317.632
        47.000          39.000
 110845204.519 8  86213010.695 8  20772304.732    20772306.373    20772304.132
        53.000          50.000
 123889212.309 7  96358294.512 6  23167913.523    23167918.262    23167912.488
        44.000          40.000
 132285305.778 6 103079360.95342  25173022.918    25173031.250    25173023.056
        36.000          13.0004
 119390701.695 7  93031710.43545  22719294.295    22719304.936    22719293.892
        44.000          30.0004
 124047849.198 7  96660756.96144  23605481.605    23605485.770    23605481.191
        43.000          26.0004
 116717761.634 7  90780543.347 6  21842121.798    21842124.096    21842121.388
        47.000          39.000
 115594036.099 8  89906536.933 6  21624203.270    21624207.209    21624203.305
        49.000          41.000
 119289866.349 7  92953157.81646  22700102.179    22700106.921    22700102.278
        46.000          36.0004
 111464825.355 8  86856059.20747  21211111.660    21211116.797    21211111.356
        50.000          44.0004
 11 10  1  0 14 30.0000000  0 18G08R12G28G04G10R13R18G02R17R02R24G17
                                G26G13R11R01G05G07
 110862783.532 8  86386609.74647  21096482.825    21096490.100    21096482.069
        50.000          45.0004
 107022969.419 7  83240148.863 7  20034913.850    20034919.785    20034913.825
        45.000          44.000
 132578192.034 5                  25228785.454
        30.000
 108879733.194 8  84841378.38647  20719109.337    20719116.393    20719108.960
        52.000          45.0004
 108804129.678 8  84782543.38947  20704676.816    20704681.993    20704675.579
        52.000          44.0004
 118277588.230 7  91993708.404 6  22149590.518    22149598.411    22149589.907
        45.000          41.000
 122590301.108 7  95348036.494 7  22965294.138    22965296.938    22965293.082
        44.000          44.000
 107567428.614 8  83818798.84247  20469395.208    20469398.517    20469394.606
        49.000          43.0004
 115635944.866 7  89939096.213 6  21609343.443    21609345.633    21609342.300
        47.000          39.000
 110816813.902 8  86190929.101 8  20766984.237    20766985.485    20766983.397
        53.000          49.000
 124004408.657 6  96447892.227 6  23189452.532    23189459.498    23189452.471
        40.000          39.000
 132364711.934 5 103141236.34042  25188129.418    25188144.611    25188134.594
        33.000          14.0004
 119311160.119 7  92969730.21945  22704157.448    22704168.270    22704157.177
        42.000          30.0004
 124137423.663 7  96730555.22344  23622526.215    23622531.264    23622525.998
        42.000          26.0004
 116797289.700 7  90842398.521 6  21857003.785    21857006.602    21857003.730
        47.000          39.000
 115626946.013 8  89932133.483 6  21630360.292    21630363.171    21630359.923
        49.000          40.000
 119224457.308 7  92902189.74446  22687655.546    22687660.319    22687655.354
        46.000          36.0004
 111486893.996 8  86873255.61247  21215311.152    21215316.307    21215310.844
        51.000          44.0004
                            4  1
other post-header comments skipped                          COMMENT
 11 10  1  0 15  0.0000000  0 18G08R12G28G04G10R13R18G02R17R02R24G17
                                G26G13R11R01G05G07
 110824369.596 8  86356676.92747  21089172.634    21089180.143    21089171.988
        50.000          43.0004
 106979496.931 8  83206336.851 7  20026775.616    20026781.982    20026775.571
        52.000          45.000
 132527364.388 5                  25219114.796
        33.000
 108939642.783 8  84888061.34947  20730509.738    20730516.660    20730509.258
        52.000          45.0004
 108808700.147 8  84786104.77647  20705546.481    20705551.742    20705545.164
        51.000          44.0004
 118151065.687 7  91895301.699 5  22125898.152    22125906.133    22125897.755
        43.000          34.000
 122555564.009 7  95321018.744 7  22958785.980    22958789.464    22958785.118
        44.000          44.000
 107527090.559 8  83787366.53047  20461719.311    20461722.497    20461718.531
        48.000          43.0004
 115695494.462 7  89985412.421 6  21620472.702    21620474.725    21620470.840
        47.000          39.000
 110788469.945 8  86168883.795 8  20761672.282    20761674.183    20761671.787
        53.000          50.000
 124119562.968 7  96537457.459 6  23210988.405    23210994.684    23210988.160
        44.000          41.000
 132443866.913 5 103202915.77142  25203195.385    25203206.818    25203195.751
        32.000          13.0004
 119231908.046 7  92907975.68045  22689076.527    22689087.181    22689075.805
        42.000          31.0004
 124226972.618 7  96800333.62344  23639567.952    23639572.202    23639566.660
        42.000          26.0004
 116877437.428 7  90904735.645 6  21872003.535    21872004.606    21872002.452
        47.000          38.000
 115659973.927 8  89957821.810 6  21636540.106    21636541.815    21636539.445
        49.000          40.000
 119159062.654 7  92851232.88646  22675211.508    22675216.016    22675211.355
        46.000          36.0004
 111509524.949 8  86890890.18147  21219617.798    21219622.642    21219617.436
        51.000          44.0004
 11 10  1  0 15 30.0000000  0 18G08R12G28G04G10R13R18G02R17R02R24G17
                                G26G13R11R01G05G07
 110786462.070 8  86327138.68147  21081959.110    21081966.632    21081958.289
        51.000          43.0004
 106936760.628 8  83173097.436 6  20018775.549    20018781.273    20018775.337
        52.000          41.000
 132476312.819 5                  25209399.426
        33.000
 108999997.287 8  84935090.88247  20741994.654    20742001.693    20741994.253
        52.000          43.0004
 108813473.299 8  84789824.09947  20706455.098    20706460.188    20706453.734
        52.000          44.0004
 118024732.688 5  91797042.474 5  22102241.115    22102246.678    22102240.890
        32.000          33.000
 122521504.608 7  95294528.099 7  22952405.192    22952408.616    22952404.574
        44.000          43.000
 107487300.640 8  83756361.36647  20454147.500    20454150.548    20454146.745
        52.000          44.0004
 115755596.565 7  90032158.340 6  21631703.361    21631705.941    21631701.858
        46.000          39.000
 110760173.850 8  86146875.725 8  20756370.264    20756371.662    20756369.458
        52.000          49.000
 124234673.104 7  96626989.345 6  23232511.739    23232517.428    23232511.868
        44.000          39.000
 132522770.339 6 103264399.65943  25218208.603    25218218.122    25218208.920
        36.000          18.0004
 119152946.233 7  92846447.43845  22674049.900    22674060.402    22674049.979
        43.000          31.0004
 124316494.153 6  96870090.63944  23656602.138    23656607.571    23656601.680
        41.000          25.0004
 116958201.305 7  90967552.017 6  21887116.681    21887118.919    21887115.937
        45.000          39.000
 115693120.985 8  89983602.804 6  21642740.085    21642742.562    21642739.658
        49.000          40.000
 119093682.866 7  92800287.60346  22662769.712    22662774.523    22662769.772
        45.000          36.0004
 111532717.212 8  86908962.13847  21224030.918    21224036.122    21224030.627
        50.000          44.0004
 11 10  1  0 16  0.0000000  0 18G08R12G28G04G10R13R18G02R17R02R24G17
                                G26G13R11R01G05G07
 110749062.140 8  86297995.82747  21074842.220    21074849.588    21074841.391
        51.000          43.0004
 106894762.387 7  83140432.034 8  20010913.536    20010919.589    20010913.414
        47.000          50.000
 132425039.334 4                  25199643.208
        28.000
 109060795.329 8  84982466.06147  20753563.835    20753571.028    20753563.594
        52.000          45.0004
 108818450.206 8  84793702.19247  20707402.066    20707407.160    20707400.894
        51.000          44.0004
 117898597.579 6  91698937.443 5  22078619.977    22078626.705    22078619.766
        39.000          33.000
 122488123.800 7  95268565.257 7  22946152.315    22946156.230    22946151.753
        45.000          44.000
 107448060.505 8  83725784.58947  20446680.317    20446683.518    20446679.657
        51.000          45.0004
 115816245.941 7  90079329.933 6  21643037.058    21643039.893    21643035.516
        46.000          39.000
 110731926.282 8  86124905.391 8  20751076.696    20751078.120    20751075.808
        53.000          50.000
 124349733.638 6  96716483.067 6  23254027.878    23254033.166    23254028.471
        40.000          41.000
 132601419.332 5 103325684.97441  25233174.342    25233184.498    25233174.600
        34.000           9.0004
 119074275.001 7  92785145.57845  22659079.193    22659088.846    22659078.690
        44.000          31.0004
 124405987.565 7  96939825.75444  23673632.777    23673637.553    23673632.720
        42.000          25.0004
 117039578.036 7  91030845.022 6  21902343.905    21902347.685    21902343.632
        45.000          39.000
 115726388.645 8  90009477.598 6  21648963.683    21648966.054    21648963.256
        49.000          40.000
 119028319.273 7  92749354.94946  22650331.424    22650335.964    22650331.357
        46.000          36.0004
 111556470.293 8  86927471.09647  21228551.291    21228556.036    21228550.689
        51.000          44.0004
 11 10  1  0 16 30.0000000  0 18G08R12G28G04G10R13R18G02R17R02R24G17
                                G26G13R11R01G05G07
 110712171.809 8  86269250.05546  21067822.023    21067829.805    21067821.475
        48.000          39.0004
 106853505.754 9  83108343.506 8  20003190.531    20003196.030    20003190.330
        55.000          50.000
 132373546.597 5                  25189843.688
        30.000
 109122035.219 8  85030185.48447  20765217.666    20765224.638    20765217.264
        52.000          46.0004
 108823631.942 8  84797739.88747  20708387.955    20708393.243    20708386.564
        51.000          44.0004
 117772663.982 6  91600988.926 5  22055038.179    22055047.478    22055037.581
        36.000          30.000
 122455423.110 7  95243131.391 7  22940026.430    22940030.055    22940025.763
        45.000          44.000
 107409372.191 8  83695637.83647  20439318.167    20439321.286    20439317.427
        52.000          45.0004
 115877440.338 7  90126925.398 6  21654472.787    21654475.972    21654471.663
        46.000          39.000
 110703728.004 8  86102973.391 8  20745791.776    20745793.324    20745791.371
        52.000          49.000
 124464738.603 7  96805933.002 6  23275533.849    23275537.915    23275533.135
        44.000          36.000
 132679812.155 5 103386770.76342  25248095.811    25248102.804    25248092.266
        30.000          14.0004
 118995895.006 7  92724070.62845  22644164.142    22644173.956    22644163.461
        45.000          31.0004
 124495451.399 6  97009537.81444  23690657.366    23690661.365    23690656.674
        41.000          25.0004
 117121564.163 7  91094612.009 6  21917686.594    21917689.668    21917686.947
        45.000          38.000
 115759777.902 8  90035446.975 6  21655209.907    21655212.127    21655209.115
        49.000          40.000
 118962971.867 7  92698434.90146  22637896.671    22637900.712    22637896.452
        46.000          36.0004
 111580783.304 8  86946416.36147  21233177.429    21233182.680    21233177.249
        52.000          44.0004
 11 10  1  0 17  0.0000000  0 18G08R12G28G04G10R13R18G02R17R02R24G17
                                G26G13R11R01G05G07
 110675792.389 8  86240902.43847  21060899.776    21060906.920    21060898.758
        48.000          42.0004
 106812992.424 8  83076833.148 7  19995606.261    19995611.948    19995605.954
        53.000          46.000
 132321836.093 6 103107926.20742  25180003.836    25180011.369    25180003.934
        38.000          12.0004
 109183714.911 8  85078247.42647  20776955.071    20776961.971    20776954.642
        51.000          43.0004
 108829019.215 8  84801937.75947  20709413.207    20709418.399    20709411.986
        51.000          44.0004
 117646935.649 6  91503199.692 6  22031493.677    22031502.925    22031493.247
        38.000          37.000
 122423403.202 7  95218227.008 7  22934026.551    22934030.559    22934026.744
        45.000          43.000
 107371236.764 8  83665921.73747  20432061.357    20432064.485    20432060.709
        51.000          46.0004
 115939174.661 7  90174940.806 6  21666009.244    21666012.120    21666008.461
        47.000          39.000
 110675579.939 8  86081080.445 8  20740516.944    20740518.590    20740516.068
        52.000          49.000
 124579683.898 7  96895335.919 6  23297027.903    23297031.545    23297028.063
        44.000          36.000
 132757946.579 5 103447655.39942  25262961.693    25262972.204    25262961.116
        33.000          14.0004
 118917806.983 7  92663223.22145  22629304.324    22629313.541    22629303.612
        46.000          31.0004
 124584884.328 6  97079225.78944  23707674.807    23707679.976    23707674.979
        40.000          25.0004
 117204156.196 7  91158850.271 6  21933142.259    21933146.371    21933142.482
        45.000          39.000
 115793290.191 8  90061512.030 6  21661478.723    21661481.696    21661478.431
        48.000          40.000
 118897641.685 7  92647528.28046  22625464.431    22625469.213    22625464.396
        47.000          36.0004
 111605655.108 8  86965797.05047  21237910.388    21237915.614    21237910.171
        49.000          44.0004
 11 10  1  0 17 30.0000000  0 18G08R12G28G04G10R13R18G02R17R02R24G17
                                G26G13R11R01G05G07
 110639925.404 8  86212954.13647  21054074.069    21054081.555    21054073.434
        50.000          44.0004
 106773224.707 8  83045902.712 7  19988161.312    19988167.385    19988161.238
        51.000          46.000
 132269908.970 5 103067463.22742  25170124.437    25170132.857    25170122.345
        33.000          13.0004
 109245833.251 8  85126651.23247  20788775.746    20788782.801    20788775.345
        51.000          43.0004
 108834612.710 8  84806296.30947  20710478.002    20710482.872    20710476.348
        52.000          44.0004
 117521416.387 6  91405573.221 5  22007987.244    22007997.646    22007987.583
        37.000          31.000
 122392064.349 7  95193852.353 7  22928156.874    22928159.869    22928156.078
        45.000          43.000
 107333656.418 8  83636638.22247  20424910.123    20424913.424    20424909.325
        49.000          43.0004
 116001446.153 7  90223373.995 6  21677647.047    21677650.221    21677645.470
        46.000          39.000
 110647483.040 8  86059227.297 8  20735251.353    20735253.200    20735250.946
        53.000          50.000
 124694566.817 6  96984690.436 5  23318511.731    23318515.106    23318510.788
        40.000          34.000
 132835821.446 5 103508337.75942  25277778.385    25277788.783    25277778.913
        33.000          13.0004
 118840011.169 7  92602603.44745  22614498.887    22614509.137    22614498.744
        44.000          31.0004
 124674284.763 6  97148888.43444  23724688.232    23724692.163    23724687.969
        41.000          25.0004
 117287350.656 7  91223557.059 6  21948712.702    21948714.732    21948712.165
        46.000          39.000
 115826926.744 8  90087673.744 6  21667771.561    21667774.153    21667771.046
        49.000          40.000
 118832329.560 7  92596635.72446  22613036.157    22613040.683    22613035.813
        47.000          36.0004
 111631085.170 8  86985612.74447  21242749.822    21242754.603    21242749.411
        51.000          44.0004
 11 10  1  0 18  0.0000000  0 18G08R12G28G04G10R13R18G02R17R02R24G17
                                G26G13R11R01G05G07
 110604572.669 8  86185406.61947  21047346.734    21047354.239    21047346.001
        53.000          44.0004
 106734204.831 9  83015553.788 8  19980856.846    19980862.928    19980856.713
        54.000          50.000
 132217768.499 5 103026834.13542  25160200.353    25160210.187    25160200.172
        35.000          13.0004
 109308388.365 8  85175395.36147  20800679.499    20800686.726    20800679.231
        49.000          46.0004
 108840413.352 8  84810816.28247  20711581.363    20711586.751    20711580.047
        52.000          44.0004
 117396110.377 6  91308113.496 6  21984522.193    21984528.584    21984521.769
        39.000          38.000
 122361407.117 7  95170007.851 7  22922414.026    22922416.854    22922413.221
        44.000          43.000
 107296633.142 8  83607788.79347  20417865.220    20417868.251    20417864.581
        52.000          44.0004
 116064250.269 7  90272221.460 6  21689383.384    21689386.058    21689382.053
        46.000          38.000
 110619438.000 8  86037414.479 8  20729995.964    20729997.626    20729995.375
        52.000          49.000
 124809382.460 7  97073992.315 6  23339981.523    23339984.901    23339981.369
        43.000          40.000
 132913434.335 5 103568815.97342  25292549.234    25292559.244    25292549.980
        35.000          16.0004
 118762508.456 7  92542212.05845  22599751.191    22599760.538    22599750.882
        43.000          31.0004
 124763651.053 6  97218524.48444  23741692.813    23741698.557    23741693.582
        41.000          25.0004
 117371144.282 7  91288729.891 6  21964392.588    21964395.481    21964392.126
        45.000          39.000
 115860688.698 8  90113932.995 6  21674087.518    21674089.733    21674087.001
        49.000          40.000
 118767035.994 7  92545757.62846  22600610.749    22600615.586    22600610.841
        46.000          36.0004
 111657072.676 8  87005862.80947  21247694.883    21247699.819    21247694.406
        51.000          44.0004
 11 10  1  0 18 30.0000000  0 18G08R12G28G04G10R13R18G02R17R02R24G17
                                G26G13R11R01G05G07
 110569734.948 8  86158260.43847  21040717.246    21040724.572    21040716.514
        53.000          44.0004
 106695935.106 8  82985788.394 8  19973692.657    19973698.863    19973692.455
        51.000          49.000
 132165415.738 6 102986039.50042  25150239.466    25150248.419    25150237.844
        38.000          13.0004
 109371378.108 8  85224477.93247  20812666.401    20812673.765    20812666.020
        52.000          46.0004
 108846422.051 8  84815498.37047  20712724.914    20712730.178    20712723.772
        53.000          44.0004
 117271020.785 7  91210821.094 4  21961097.003    21961102.753    21961096.973
        43.000          28.000
 122331432.790 7  95146694.460 7  22916798.216    22916801.990    22916797.468
        43.000          43.000
 107260168.360 8  83579374.56647  20410926.146    20410929.108    20410925.325
        52.000          45.0004
 116127584.011 7  90321480.810 6  21701218.493    21701221.776    21701217.656
        46.000          38.000
 110591445.629 8  86015642.637 8  20724750.503    20724752.069    20724749.881
        53.000          50.000
 124924127.248 6  97163238.923 6  23361438.332    23361442.310    23361438.550
        40.000          36.000
 132990783.637 6 103629088.65843  25307267.102    25307275.706    25307267.087
        37.000          18.0004
 118685299.180 7  92482049.24345  22585058.137    22585068.166    22585057.663
        43.000          31.0004
 124852982.390 7  97288133.30244  23758693.409    23758697.915    23758693.387
        42.000          24.0004
 117455533.413 7  91354365.879 6  21980184.947    21980187.540    21980184.839
        46.000          39.000
 115894577.114 8  90140290.593 6  21680426.239    21680429.454    21680426.062
        48.000          40.000
 118701761.743 7  92494894.58245  22588189.501    22588194.158    22588189.364
        46.000          35.0004
 111683616.336 8  87026546.23947  21252745.847    21252750.811    21252745.425
        52.000          44.0004
 11 10  1  0 19  0.0000000  0 18G08R12G28G04G10R13R18G02R17R02R24G17
                                G26G13R11R01G05G07
 110535414.041 8  86131516.96647  21034186.375    21034193.514    21034185.427
        53.000          44.0004
 106658417.953 9  82956608.390 8  19966669.320    19966675.613    19966669.437
        55.000          51.000
 132112853.198 6 102945081.45442  25140236.415    25140246.341    25140235.729
        37.000          14.0004
 109434801.065 8  85273898.05647  20824735.666    20824743.047    20824735.316
        51.000          45.0004
 108852639.399 8  84820343.04347  20713908.120    20713913.210    20713906.826
        50.000          43.0004
 117146152.981 5  91113702.301 6  21937713.046    21937720.701    21937712.753
        33.000          38.000
 122302141.362 7  95123912.216 7  22911310.467    22911314.436    22911310.333
        43.000          42.000
 107224263.516 8  83551396.66847  20404093.738    20404096.831    20404093.060
        52.000          45.0004
 116191442.184 7  90371148.064 6  21713152.551    21713155.862    21713151.209
        46.000          38.000
 110563507.169 8  85993912.721 8  20719514.182    20719516.403    20719513.902
        52.000          50.000
 125038797.612 6  97252427.635 6  23382881.538    23382885.896    23382882.129
        39.000          40.000
 133067866.992 5 103689153.99042  25321938.221    25321940.924    25321935.525
        35.000          13.0004
 118608384.140 7  92422115.75845  22570421.697    22570431.493    22570421.092
        43.000          31.0004
 124942277.371 6  97357713.78244  23775684.979    23775689.831    23775684.385
        40.000          24.0004
 117540514.503 7  91420462.290 6  21996087.571    21996090.806    21996087.675
        46.000          38.000
 115928593.512 8  90166747.739 6  21686791.277    21686792.915    21686789.906
        49.000          40.000
 118636508.090 7  92444047.58546  22575772.520    22575776.784    22575772.082
        45.000          36.0004
 111710715.094 8  87047662.22047  21257902.372    21257907.516    21257902.120
        50.000          44.0004
 11 10  1  0 19 30.0000000  0 18G08R12G28G04G10R13R18G02R17R02R24G17
                                G26G13R11R01G05G07
 110501611.208 8  86105177.18747  21027753.961    21027760.887    21027752.897
        51.000          44.0004
 106621655.505 9  82928015.417 8  19959787.426    19959793.287    19959787.209
        55.000          51.000
 132060082.973 6 102903961.66943  25130196.014    25130205.291    25130195.328
        39.000          18.0004
 109498655.728 8  85323654.55547  20836886.971    20836894.528    20836886.650
        49.000          43.0004
 108859066.462 8  84825351.13647  20715131.306    20715136.271    20715129.804
        52.000          44.0004
 117021510.782 5  91016758.095 5  21914372.165    21914379.348    21914371.787
        35.000          31.000
 122273533.523 7  95101661.664 7  22905951.720    22905955.870    22905951.530
        43.000          42.000
 107188920.748 8  83523856.77747  20397368.191    20397371.537    20397367.521
        52.000          46.0004
 116255821.639 7  90421220.741 6  21725183.740    21725186.314    21725182.452
        46.000          38.000
 110535623.583 8  85972225.479 8  20714288.952    20714290.869    20714288.386
        52.000          50.000
 125153388.076 7  97341553.501 6  23404312.522    23404314.670    23404311.434
        44.000          40.000
 133144683.738 5 103748975.86042  25336553.409    25336560.639    25336553.430
        32.000          14.0004
 118531763.972 7  92362412.04845  22555841.402    22555850.519    22555841.006
        44.000          32.0004
 125031534.476 6  97427264.77144  23792669.825    23792675.427    23792669.871
        41.000          24.0004
 117626084.338 7  91487016.597 6  22012101.638    22012104.302    22012101.075
        46.000          39.000
 115962739.099 8  90193305.364 6  21693178.574    21693180.983    21693177.963
        49.000          40.000
 118571275.390 8  92393216.90846  22563359.503    22563363.359    22563359.135
        48.000          36.0004
 111738368.724 8  87069210.56447  21263164.708    21263169.715    21263164.438
        50.000          44.0004
 11 10  1  0 20  0.0000000  0 18G08R12G28G04G10R13R18G02R17R02R24G17
                                G26G13R11R01G05G07
 110468327.559 8  86079241.96347  21021419.551    21021427.209    21021419.131
        52.000          44.0004
 106585649.877 9  82900011.126 8  19953046.736    19953052.772    19953046.648
        56.000          51.000
 132007106.867 6 102862681.51042  25120113.957    25120124.269    25120113.241
        38.000          17.0004
 109562939.886 8  85373745.73346  20849120.489    20849127.810    20849119.954
        50.000          41.0004
 108865703.653 8  84830522.96247  20716394.164    20716399.282    20716392.823
        53.000          44.0004
 116897100.844 6  90919995.558 5  21891073.789    21891080.484    21891073.436
        38.000          32.000
 122245610.302 7  95079943.625 6  22900721.878    22900724.798    22900720.984
        43.000          41.000
 107154141.343 8  83496755.87547  20390750.127    20390753.418    20390749.292
        52.000          45.0004
 116320717.649 7  90471695.171 6  21737310.959    21737313.732    21737309.624
        46.000          38.000
 110507795.488 8  85950581.403 8  20709074.270    20709075.804    20709073.801
        53.000          50.000
 125267893.748 6  97430612.220 7  23425725.901    23425730.746    23425725.427
        41.000          42.000
 133221232.114 5                  25351120.389
        32.000
 118455438.949 7  92302938.27245  22541316.581    22541326.012    22541316.255
        43.000          31.0004
 125120752.124 6  97496785.00644  23809648.418    23809652.914    23809647.832
        41.000          24.0004
 117712238.842 7  91554025.670 6  22028224.167    22028226.439    22028223.781
        46.000          38.000
 115997014.982 8  90219964.330 6  21699589.770    21699592.293    21699589.606
        48.000          40.000
 118506064.435 7  92342403.18246  22550949.595    22550954.240    22550949.536
        46.000          37.0004
 111766575.459 8  87091189.90047  21268532.386    21268537.183    21268531.989
        52.000          44.0004
