     2.11           OBSERVATION DATA    M (MIXED)           RINEX VERSION / TYPE
teqc  2016Apr1                          20160930 07:51:15UTCPGM / RUN BY / DATE
Linux 2.4.20-8|Pentium IV|gcc|Linux|486/DX+                 COMMENT
teqc  2016Apr1                          20160816 03:24:51UTCCOMMENT
teqc  2009Mar23                         20111001 01:05:21UTCCOMMENT
Linux 2.4.20-8|Pentium IV|gcc -static|Linux|486/DX+         COMMENT
BIT 2 OF LLI FLAGS DATA COLLECTED UNDER A/S CONDITION       COMMENT
RINEXED from Topcon TPS-binary: ken.macleod@nrcan.gc.ca     COMMENT
Forced Modulo Decimation to 30 seconds                      COMMENT
 SNR is mapped to RINEX snr flag value [0-9]                COMMENT
  L1 & L2: min(max(int(snr_dBHz/6), 0), 9)                  COMMENT
pseudorange smoothing corrections not applied               COMMENT
CHUR CACS-GSD 924001 CHURCHILL MB CANADA                    MARKER NAME
40128M002                                                   MARKER NUMBER
OPERATOR            NRCan/GEODETIC SURVEY OF CANADA         OBSERVER / AGENCY
618-00844           TPS NET-G3A         3.5 Mar,16,2011 p1  REC # / TYPE / VERS
CR620045037         ASH701945E_M    NONE                    ANT # / TYPE
  -236438.7000 -3307616.7000  5430049.1000                  APPROX POSITION XYZ
        0.1000        0.0000        0.0000                  ANTENNA: DELTA H/E/N
     1     1                                                WAVELENGTH FACT L1/2
     8    L1    L2    C1    C2    P1    P2    S1    S2      # / TYPES OF OBSERV
    30.0000                                                 INTERVAL
teqc windowed: start @ 2011 Oct  1 00:10:00.000             COMMENT
teqc windowed:  end  @ 2011 Oct  1 00:20:00.000             COMMENT
  2011    10     1     0    10    0.0000000     GPS         TIME OF FIRST OBS
    15                                                      LEAP SECONDS
                                                            END OF HEADER
 11 10  1  0 10  0.0000000  0 16R10G26G21R09G25G10R19G13R11R17R18G30
                                R02G05G29G02
 120323578.504 7  93585014.176 6  22572391.359    22572394.691    22572390.463
  22572393.908          43.000          37.000
 126727976.98647  98749076.26943  24115529.077                    24115528.405
  24115529.521          42.000          22.000
 129492698.72847 100903408.24543  24641636.731                    24641634.459
  24641635.335          42.000          20.000
 128928913.227 6 100278043.925 6  24144241.061    24144245.553    24144240.695
  24144247.824          37.000          39.000
 126342919.96246  98449034.99946  24042254.069    24042257.965    24042253.990
  24042256.480          41.000          40.000
 122194292.41947  95216356.33944  23252784.808                    23252782.869
  23252783.701          43.000          29.000
 112411482.428 8  87431162.061 7  21014126.961    21014125.944    21014125.449
  21014124.894          48.000          46.000
 128661408.49946 100255656.95542  24483441.711                    24483440.756
  24483440.053          39.000          12.000
 124152031.840 6  96562695.283 5  23233355.687    23233357.389    23233351.547
  23233356.994          38.000          35.000
 118494368.391 6  92162301.613 6  22143494.411    22143494.326    22143492.192
  22143493.230          41.000          38.000
 102837632.986 8  79984849.658 8  19264935.227    19264933.959    19264933.153
  19264934.746          52.000          51.000
 120735430.67447  94079568.37045  22975178.131                    22975176.982
  22975178.193          44.000          30.000
 108175377.718 8  84136418.261 8  20271997.704    20271997.101    20271995.975
  20271996.999          51.000          50.000
 107918691.41448  84092509.32048  20536220.275    20536217.592    20536219.806
  20536217.017          53.000          53.000
 108517526.19048  84559131.88948  20650182.058    20650179.358    20650181.488
  20650179.055          51.000          51.000
 114430154.86848  89166386.62946  21775313.245                    21775312.188
  21775309.414          49.000          39.000
 11 10  1  0 10 30.0000000  0 16R10G26G21R09G25G10R19G13R11R17R18G30
                                R02G05G29G02
 120358081.003 7  93611849.465 6  22578863.560    22578868.748    22578862.981
  22578867.493          43.000          37.000
 126605290.74146  98653476.67244  24092182.322                    24092182.193
  24092183.448          41.000          24.000
 129397150.53547 100828955.18243  24623453.683                    24623452.158
  24623452.830          42.000          22.000
 129040897.161 6 100365142.497 6  24165211.298    24165216.607    24165209.834
  24165218.585          37.000          38.000
 126446127.26447  98529456.20546  24061895.115    24061896.836    24061892.945
  24061896.349          44.000          41.000
 122297827.90947  95297033.14344  23272487.200                    23272486.155
  23272485.856          44.000          29.000
 112313409.550 8  87354883.077 7  20995793.392    20995792.450    20995790.843
  20995791.301          48.000          46.000
 128743425.56646 100319566.42541  24499049.048                    24499049.103
  24499047.452          40.000          10.000
 124080277.602 6  96506886.468 5  23219926.657    23219929.541    23219924.073
  23219926.669          37.000          35.000
 118612496.331 6  92254178.858 6  22165569.677    22165569.272    22165567.676
  22165568.990          41.000          39.000
 102858120.845 8  80000784.812 8  19268773.549    19268771.961    19268771.275
  19268772.561          52.000          51.000
 120806982.41647  94135322.90945  22988793.564                    22988792.241
  22988793.663          44.000          30.000
 108245816.896 8  84191203.681 8  20285198.456    20285197.434    20285196.475
  20285197.890          52.000          51.000
 107920795.12548  84094148.26648  20536620.898    20536617.972    20536620.352
  20536617.535          53.000          53.000
 108501746.35248  84546836.06648  20647179.202    20647176.382    20647178.404
  20647176.111          53.000          52.000
 114508271.96548  89227257.01546  21790178.478                    21790177.644
  21790174.712          49.000          39.000
 11 10  1  0 11  0.0000000  0 16R10G26G21R09G25G10R19G13R11R17R18G30
                                R02G05G29G02
 120393386.193 7  93639308.982 6  22585487.618    22585491.948    22585488.409
  22585490.640          43.000          37.000
 126482757.70546  98557996.46643  24068865.594                    24068863.054
  24068866.277          41.000          23.000
 129301660.68246 100754547.59343  24605282.282                    24605280.862
  24605281.055          41.000          22.000
 129153199.515 5 100452488.659 6  24186243.731    24186246.570    24186239.587
  24186250.534          35.000          39.000
 126549525.34147  98610026.11546  24081570.698    24081573.784    24081568.728
  24081573.424          44.000          41.000
 122401605.37847  95377898.36444  23292235.667                    23292234.163
  23292234.541          44.000          29.000
 112215729.510 8  87278909.364 7  20977533.535    20977532.387    20977531.421
  20977531.596          48.000          47.000
 128825868.79946 100383808.00041  24514738.539                    24514737.042
  24514735.611          39.000          10.000
 124009184.373 6  96451591.821 5  23206622.765    23206625.308    23206620.875
  23206625.433          37.000          34.000
 118730916.250 6  92346283.282 6  22187699.138    22187699.509    22187696.783
  22187698.258          41.000          39.000
 102879298.473 8  80017256.636 8  19272740.510    19272739.060    19272738.320
  19272739.591          53.000          52.000
 120879017.19247  94191453.77145  23002501.657                    23002500.836
  23002501.359          43.000          30.000
 108316858.213 8  84246458.243 8  20298511.868    20298510.355    20298509.790
  20298510.764          51.000          50.000
 107923469.96948  84096232.20648  20537130.118    20537127.464    20537129.490
  20537126.909          52.000          53.000
 108486524.15548  84534974.66048  20644282.418    20644279.799    20644281.708
  20644279.418          52.000          52.000
 114586694.71248  89288365.85146  21805102.176                    21805101.090
  21805097.671          49.000          39.000
 11 10  1  0 11 30.0000000  0 15R10G26G21G25G10R19G13R11R17R18G30R02
                                G05G29G02
 120429492.719 7  93667391.757 6  22592261.308    22592264.918    22592261.459
  22592264.460          43.000          37.000
 126360382.04046  98462638.85743  24045578.073                    24045576.951
  24045578.029          41.000          23.000
 129206230.75946 100680186.74943  24587122.678                    24587120.998
  24587122.418          40.000          22.000
 126653111.37247  98690742.46847  24101282.296    24101286.050    24101281.175
  24101284.815          43.000          42.000
 122505622.68047  95458950.61244  23312029.578                    23312027.938
  23312028.879          44.000          28.000
 112118446.292 8  87203244.310 7  20959347.965    20959347.008    20959345.547
  20959346.482          48.000          46.000
 128908735.75246 100448379.68542  24530506.927                    24530505.920
  24530504.894          40.000          12.000
 123938755.637 6  96396814.047 5  23193443.343    23193444.390    23193439.712
  23193443.611          36.000          34.000
 118849625.825 6  92438612.861 6  22209882.825    22209883.316    22209880.685
  22209882.515          41.000          39.000
 102901164.657 8  80034263.351 8  19276836.623    19276835.335    19276834.927
  19276836.692          52.000          52.000
 120951532.48047  94247959.10945  23016301.318                    23016299.852
  23016300.933          46.000          30.000
 108388497.788 8  84302178.480 8  20311936.537    20311935.040    20311934.048
  20311935.137          52.000          50.000
 107926715.44648  84098760.76148  20537748.195    20537745.498    20537747.568
  20537744.953          51.000          53.000
 108471861.16948  84523549.18048  20641491.940    20641489.069    20641491.294
  20641488.843          52.000          51.000
 114665421.29048  89349711.13646  21820083.350                    21820082.159
  21820078.607          49.000          39.000
 11 10  1  0 12  0.0000000  0 15R10G26G21G25G10R19G13R11R17R18G30R02
                                G05G29G02
 120466398.325 7  93696095.912 6  22599183.899    22599189.171    22599183.764
  22599187.220          44.000          37.000
 126238167.03746  98367406.63343  24022321.162                    24022319.754
  24022321.033          41.000          23.000
 129110861.47746 100605873.14443  24568973.704                    24568972.772
  24568973.767          40.000          23.000
 126756882.17447  98771602.86147  24121029.064    24121032.841    24121028.083
  24121032.244          43.000          42.000
 122609876.75247  95540187.32244  23331868.849                    23331866.770
  23331867.591          43.000          28.000
 112021561.910 8  87127889.130 7  20941236.790    20941235.791    20941234.950
  20941235.559          48.000          47.000
 128992023.09846 100513278.89942  24546355.903                    24546354.672
  24546354.779          40.000          12.000
 123868994.226 6  96342555.235 5  23180387.796    23180391.283    23180385.020
  23180390.810          37.000          34.000
 118968622.327 6  92531165.569 6  22232119.870    22232120.219    22232117.844
  22232119.667          40.000          38.000
 102923720.486 8  80051806.810 8  19281062.167    19281060.743    19281060.016
  19281061.412          52.000          51.000
 121024525.12847  94304836.44345  23030191.362                    23030190.002
  23030190.454          44.000          30.000
 108460730.942 8  84358359.976 8  20325472.851    20325471.385    20325470.418
  20325471.463          52.000          50.000
 107930530.64548  84101733.23348  20538474.535    20538471.959    20538473.926
  20538471.476          53.000          53.000
 108457757.32548  84512559.26348  20638808.142    20638805.250    20638807.536
  20638804.828          53.000          52.000
 114744450.25448  89411291.88946  21835122.123                    21835121.001
  21835117.656          51.000          39.000
 11 10  1  0 12 30.0000000  0 15R10G26G21G25G10R19G13R11R17R18G30R02
                                G05G29G02
 120504101.621 7  93725420.629 6  22606258.040    22606260.947    22606256.674
  22606260.148          43.000          37.000
 126116115.99546  98272302.25543  23999095.369                    23999094.423
  23999096.489          41.000          23.000
 129015553.40346 100531607.15743  24550837.331                    24550835.209
  24550837.490          40.000          23.000
 126860834.46647  98852604.66147  24140810.588    24140814.729    24140809.371
  24140813.737          42.000          42.000
 122714365.08247  95621606.56444  23351752.153                    23351750.787
  23351752.236          44.000          27.000
 111925082.039 8  87052849.288 7  20923200.703    20923199.738    20923198.576
  20923198.676          48.000          47.000
 129075728.33846 100578503.65042  24562284.429                    24562283.865
  24562284.094          40.000          17.000
 123799904.020 6  96288818.538 5  23167458.467    23167460.098    23167456.060
  23167460.210          37.000          34.000
 119087903.127 6  92623939.459 6  22254410.268    22254411.268    22254408.873
  22254410.352          40.000          38.000
 102946964.404 8  80069884.806 8  19285417.100    19285416.060    19285414.660
  19285416.479          52.000          51.000
 121097992.22647  94362083.45945  23044171.403                    23044169.617
  23044171.992          43.000          30.000
 108533554.884 8  84415000.931 8  20339119.778    20339118.533    20339117.530
  20339119.413          52.000          50.000
 107934915.39048  84105149.62648  20539308.917    20539306.614    20539308.348
  20539306.149          53.000          53.000
 108444213.35148  84502005.40748  20636230.882    20636228.012    20636230.213
  20636227.532          53.000          52.000
 114823780.74648  89473107.63946  21850218.159                    21850217.232
  21850214.496          49.000          39.000
 11 10  1  0 13  0.0000000  0 15R10G26G21G25G10R19G13R11R17R18G30R02
                                G05G29G02
 120542600.264 7  93755364.191 6  22613480.100    22613482.931    22613479.608
  22613482.787          44.000          37.000
 125994232.79947  98177328.67643  23975901.010                    23975901.034
  23975902.332          42.000          23.000
 128920307.95546 100457389.99143  24532712.685                    24532710.197
  24532712.275          40.000          23.000
 126964965.40647  98933745.60547  24160625.638    24160630.637    24160624.055
  24160629.456          42.000          43.000
 122819085.59847  95703206.78944  23371680.542                    23371679.231
  23371678.923          43.000          27.000
 111829007.777 8  86978124.491 7  20905240.520    20905240.183    20905238.272
  20905239.214          48.000          47.000
 129159849.09546 100644052.34843  24578292.304                    24578291.125
  24578290.671          41.000          19.000
 123731488.197 6  96235606.400 5  23154656.287    23154657.587    23154652.920
  23154657.511          37.000          33.000
 119207466.292 6  92716933.006 6  22276753.983    22276754.319    22276751.415
  22276754.161          40.000          37.000
 102970898.453 8  80088499.719 8  19289901.090    19289900.059    19289898.990
  19289901.152          52.000          51.000
 121171930.97647  94419697.98945  23058241.395                    23058239.863
  23058241.740          44.000          30.000
 108606967.044 8  84472099.637 8  20352876.915    20352875.132    20352874.674
  20352875.071          52.000          49.000
 107939869.42749  84109009.76748  20540251.692    20540249.399    20540251.159
  20540248.796          54.000          53.000
 108431230.48849  84491888.73348  20633760.375    20633757.538    20633759.746
  20633757.222          54.000          52.000
 114903411.41048  89535157.19746  21865371.630                    21865370.300
  21865367.978          50.000          39.000
 11 10  1  0 13 30.0000000  0 15R10G26G21G25G10R19G13R11R17R18G30R02
                                G05G29G02
 120581892.117 7  93785924.642 6  22620850.487    22620854.316    22620849.907
  22620853.416          44.000          37.000
 125872520.38947  98082488.13544  23952739.584                    23952738.811
  23952740.335          42.000          24.000
 128825125.52247 100383221.88843  24514600.408                    24514598.726
  24514599.706          42.000          23.000
 127069271.78046  99015023.25947  24180474.564    24180478.772    24180473.828
  24180477.090          41.000          42.000
 122924035.24547  95784985.53344  23391652.093                    23391650.109
  23391651.256          44.000          27.000
 111733344.047 8  86903719.573 7  20887357.616    20887356.816    20887355.901
  20887356.184          48.000          47.000
 129244381.69947 100709921.83543  24594378.345                    24594377.102
  24594376.648          42.000          19.000
 123663749.950 6  96182921.281 5  23141978.988    23141981.720    23141976.022
  23141980.756          38.000          34.000
 119327308.561 6  92810143.622 6  22299148.740    22299149.286    22299146.385
  22299148.233          39.000          37.000
 102995521.345 8  80107650.545 8  19294514.310    19294513.016    19294512.367
  19294513.692          52.000          51.000
 121246338.21447  94477677.58945  23072400.770                    23072399.135
  23072401.069          45.000          30.000
 108680963.785 8  84529653.126 8  20366743.348    20366741.382    20366740.690
  20366741.385          52.000          50.000
 107945391.43549  84113312.47148  20541302.718    20541300.269    20541302.209
  20541299.829          54.000          53.000
 108418810.13648  84482210.57348  20631396.804    20631393.928    20631396.061
  20631393.502          53.000          52.000
 114983340.93048  89597439.57046  21880581.820                    21880580.723
  21880578.586          50.000          39.000
 11 10  1  0 14  0.0000000  0 15R10G26G21G25G10R19G13R11R17R18G30R02
                                G05G29G02
 120621974.885 7  93817099.942 6  22628369.992    22628374.595    22628370.512
  22628373.423          44.000          37.000
 125750982.78547  97987783.81844  23929612.000                    23929611.846
  23929612.699          43.000          24.000
 128730007.83547 100309104.27144  24496499.628                    24496497.853
  24496498.690          42.000          24.000
 127173750.85447  99096435.50947  24200356.284    24200360.183    24200355.742
  24200359.494          42.000          42.000
 123029212.04447  95866941.28844  23411666.069                    23411663.688
  23411665.328          44.000          27.000
 111638093.255 8  86829635.725 7  20869551.061    20869550.379    20869549.476
  20869549.724          48.000          47.000
 129329324.44346 100776111.01243  24610542.688                    24610541.878
  24610540.903          41.000          22.000
 123596692.295 6  96130765.395 5  23129430.252    23129431.015    23129426.853
  23129431.623          38.000          33.000
 119447429.604 6  92903571.076 6  22321596.517    22321597.260    22321594.236
  22321595.557          39.000          37.000
 103020833.198 8  80127337.045 8  19299256.286    19299255.404    19299253.889
  19299256.400          53.000          52.000
 121321211.40747  94536020.26745  23086649.334                    23086647.065
  23086649.038          45.000          30.000
 108755542.430 8  84587659.306 8  20380719.282    20380717.409    20380717.472
  20380717.708          53.000          50.000
 107951480.70648  84118057.04648  20542461.918    20542459.333    20542461.352
  20542458.959          52.000          53.000
 108406952.31848  84472970.58448  20629140.649    20629137.744    20629139.873
  20629137.170          53.000          51.000
 115063568.48948  89659954.26146  21895849.295                    21895848.118
  21895845.230          50.000          39.000
 11 10  1  0 14 30.0000000  0 16R10G26G21G25G10R19G16G13R11R17R18G30
                                R02G05G29G02
 120662846.288 7  93848888.477 6  22636037.327    22636041.512    22636036.621
  22636041.645          44.000          37.000
 125629623.48846  97893218.53344  23906517.493                    23906516.830
  23906517.932          41.000          25.000
 128634955.68547 100235037.72144  24478411.899                    24478409.911
  24478410.894          42.000          24.000
 127278399.37647  99177979.85846  24220270.571    24220274.255    24220270.029
  24220273.338          42.000          41.000
 123134613.48547  95949072.11844  23431723.447                    23431721.945
  23431723.283          43.000          28.000
 111543258.421 8  86755875.312 7  20851822.705    20851821.867    20851819.844
  20851821.208          48.000          47.000
 132737004.44845                  25259012.026
                        34.000
 129414674.28446 100842617.52543  24626783.790                    24626782.958
  24626783.643          39.000          21.000
 123530318.853 6  96079141.629 5  23117008.902    23117009.998    23117006.242
  23117008.838          38.000          33.000
 119567824.399 6  92997211.362 6  22344095.961    22344095.167    22344094.241
  22344094.928          40.000          37.000
 103046834.284 8  80147559.765 8  19304127.395    19304126.417    19304125.194
  19304127.202          52.000          51.000
 121396547.42747  94594723.58045  23100984.939                    23100983.762
  23100984.402          45.000          30.000
 108830698.578 8  84646114.307 8  20394802.896    20394801.633    20394800.829
  20394801.989          51.000          50.000
 107958136.63249  84123243.06048  20543728.499    20543726.227    20543728.044
  20543725.844          54.000          53.000
 108395657.79249  84464169.45248  20626991.423    20626988.296    20626990.819
  20626987.941          54.000          52.000
 115144092.47348  89722699.91246  21911172.666                    21911171.514
  21911168.523          50.000          39.000
 11 10  1  0 15  0.0000000  0 16R10G26G21G25G10R19G16G13R11R17R18G30
                                R02G05G29G02
 120704504.874 7  93881289.518 6  22643852.714    22643857.543    22643852.426
  22643856.583          44.000          37.000
 125508445.68047  97798794.67544  23883458.052                    23883456.837
  23883458.324          42.000          24.000
 128539969.54747 100161022.64344  24460336.643                    24460335.088
  24460337.077          43.000          24.000
 127383214.14547  99259653.70046  24240216.433    24240219.446    24240214.193
  24240218.482          43.000          41.000
 123240236.87847  96031376.02744  23451822.965                    23451821.359
  23451822.060          43.000          28.000
 111448842.485 8  86682440.450 7  20834172.767    20834172.132    20834170.432
  20834170.962          48.000          46.000
 132651863.83745                  25242810.594
                        35.000
 129500427.52646 100909438.17943  24643102.253                    24643101.845
  24643099.779          39.000          21.000
 123464632.679 6  96028052.375 5  23104716.708    23104718.966    23104714.286
  23104717.058          38.000          32.000
 119688491.842 6  93091063.717 6  22366645.482    22366645.588    22366644.267
  22366644.618          41.000          38.000
 103073524.314 8  80168318.293 8  19309127.685    19309126.983    19309125.469
  19309127.657          53.000          52.000
 121472343.10647  94653785.06344  23115407.841                    23115406.178
  23115407.652          44.000          29.000
 108906428.887 8  84705015.705 8  20408994.558    20408993.352    20408992.320
  20408993.556          51.000          49.000
 107965359.36548  84128871.03748  20545102.950    20545101.116    20545102.368
  20545100.546          53.000          53.000
 108384927.18048  84455807.41448  20624949.785    20624947.130    20624949.215
  20624946.424          52.000          52.000
 115224910.67848  89785674.38446  21926552.268                    21926551.000
  21926548.108          49.000          38.000
 11 10  1  0 15 30.0000000  0 16R10G26G21G25G10R19G16G13R11R17R18G30
                                R02G05G29G02
 120746948.727 7  93914301.577 6  22651815.602    22651818.905    22651815.572
  22651819.515          44.000          37.000
 125387453.24946  97704515.22843  23860433.046                    23860431.882
  23860433.002          41.000          23.000
 128445051.06947 100087060.28444  24442274.199                    24442273.622
  24442273.069          43.000          24.000
 127488192.15647  99341454.69846  24260192.895    24260197.009    24260191.532
  24260195.666          43.000          41.000
 123346079.43447  96113850.67644  23471964.630                    23471962.842
  23471964.130          43.000          28.000
 111354849.497 8  86609334.723 7  20816601.574    20816601.164    20816598.965
  20816600.447          48.000          47.000
 132567081.73846                  25226676.900
                        36.000
 129586581.49046 100976571.08843  24659496.484                    24659495.526
  24659495.592          37.000          19.000
 123399637.027 6  95977500.164 5  23092554.240    23092555.866    23092550.743
  23092553.922          39.000          32.000
 119809430.191 6  93185126.856 6  22389244.617    22389245.258    22389244.068
  22389245.178          41.000          37.000
 103100903.227 8  80189612.971 8  19314256.532    19314255.882    19314254.466
  19314256.822          53.000          52.000
 121548595.97347  94713202.85044  23129918.549                    23129917.258
  23129918.481          43.000          29.000
 108982730.986 8  84764361.778 8  20423293.921    20423292.134    20423291.486
  20423292.471          52.000          49.000
 107973147.80248  84134939.90348  20546585.099    20546583.254    20546584.548
  20546582.711          53.000          53.000
 108374761.39948  84447885.32948  20623015.737    20623013.298    20623014.981
  20623012.792          53.000          52.000
 115306022.97948  89848877.95946  21941987.548                    21941986.435
  21941984.764          48.000          37.000
 11 10  1  0 16  0.0000000  0 16R10G26G21G25G10R19G16G13R11R17R18G30
                                R02G05G29G02
 120790174.753 7  93947921.717 6  22659924.311    22659928.335    22659923.934
  22659928.392          43.000          37.000
 125266649.68446  97610382.90743  23837444.820                    23837444.624
  23837445.625          40.000          23.000
 128350201.16047 100013151.38444  24424225.042                    24424223.402
  24424224.199          44.000          24.000
 127593330.65947  99423380.76146  24280200.224    24280203.826    24280199.067
  24280201.950          43.000          40.000
 123452139.25347  96196494.79544  23492146.906                    23492145.514
  23492146.078          43.000          27.000
 111261284.847 8  86536563.304 7  20799110.173    20799108.557    20799108.360
  20799107.891          48.000          47.000
 132482659.97046                  25210612.647
                        37.000
 129673134.00946 101044014.47043  24675967.550                    24675965.594
  24675965.147          36.000          19.000
 123335335.457 6  95927487.871 5  23080521.041    23080521.867    23080518.460
  23080520.361          40.000          33.000
 119930635.383 6  93279397.529 6  22411894.499    22411895.728    22411893.875
  22411895.079          40.000          37.000
 103128969.874 9  80211442.424 8  19319514.429    19319513.931    19319512.291
  19319514.751          54.000          52.000
 121625302.88147  94772974.46844  23144515.598                    23144513.226
  23144515.448          44.000          28.000
 109059601.507 8  84824149.944 8  20437699.515    20437697.297    20437697.666
  20437697.666          52.000          50.000
 107981500.90848  84141448.39849  20548175.059    20548173.179    20548174.582
  20548172.565          53.000          54.000
 108365161.76548  84440404.54748  20621189.337    20621187.056    20621188.815
  20621186.563          53.000          53.000
 115387430.37248  89912312.68346  21957478.731                    21957477.651
  21957475.598          48.000          38.000
 11 10  1  0 16 30.0000000  0 16R10G26G21G25G10R19G16G13R11R17R18G30
                                R02G05G29G02
 120834180.919 7  93982148.624 6  22668180.134    22668183.261    22668179.783
  22668183.102          44.000          37.000
 125146038.39247  97516400.39743  23814493.451                    23814492.341
  23814492.858          42.000          21.000
 128255420.56647  99939296.43644  24406188.883                    24406188.118
  24406187.117          43.000          24.000
 127698626.33147  99505429.30546  24300236.560    24300240.231    24300236.117
  24300239.344          42.000          40.000
 123558413.51647  96279305.98144  23512369.847                    23512368.540
  23512369.851          42.000          27.000
 111168149.783 8  86464126.147 7  20781698.699    20781697.378    20781697.021
  20781696.856          48.000          47.000
 132398601.28346 103167739.01642  25194615.597                    25194613.919
  25194618.333          36.000          12.000
 129760082.60945 101111766.61442  24692513.292                    24692512.210
  24692510.682          35.000          14.000
 123271730.812 6  95878017.795 5  23068617.996    23068618.174    23068614.582
  23068616.762          40.000          34.000
 120052106.150 6  93373874.655 6  22434594.324    22434595.400    22434592.974
  22434595.892          39.000          37.000
 103157723.906 8  80233806.058 8  19324901.506    19324901.207    19324899.447
  19324902.129          53.000          52.000
 121702460.51247  94833097.27944  23159198.433                    23159197.104
  23159198.826          44.000          28.000
 109137036.921 8  84884377.472 8  20452210.436    20452209.070    20452208.290
  20452209.167          51.000          50.000
 107990418.00249  84148396.44248  20549872.230    20549870.272    20549871.765
  20549869.767          54.000          53.000
 108356128.79649  84433365.40748  20619470.929    20619468.885    20619470.210
  20619468.310          54.000          52.000
 115469131.39948  89975977.35046  21973025.526                    21973024.511
  21973021.034          50.000          39.000
 11 10  1  0 17  0.0000000  0 16R10G26G21G25G10R19G16G13R11R17R18G30
                                R02G05G29G02
 120878965.371 7  94016981.285 6  22676580.233    22676584.693    22676579.887
  22676584.502          43.000          37.000
 125025622.95046  97422570.41343  23791578.533                    23791577.561
  23791578.212          41.000          22.000
 128160710.28447  99865496.26643  24388165.895                    24388164.757
  24388163.866          42.000          22.000
 127804076.11446  99587597.91746  24320303.567    24320307.081    24320301.920
  24320305.984          41.000          40.000
 123664899.83647  96362282.44044  23532633.473                    23532632.257
  23532632.799          43.000          26.000
 111075445.171 8  86392022.785 7  20764368.410    20764366.645    20764365.894
  20764366.259          48.000          47.000
 132314909.65846 103102525.19142  25178689.544                    25178688.036
  25178690.686          37.000          13.000
 129847423.38045 101179824.23342  24709132.331                    24709131.965
  24709132.008          35.000          14.000
 123208825.978 6  95829091.929 5  23056845.929    23056847.829    23056842.934
  23056845.168          40.000          34.000
 120173839.096 6  93468555.706 6  22457344.050    22457344.239    22457341.754
  22457344.049          39.000          38.000
 103187167.779 8  80256707.207 8  19330416.968    19330416.622    19330415.296
  19330417.222          53.000          51.000
 121780066.01547  94893569.08844  23173966.163                    23173964.274
  23173966.407          43.000          29.000
 109215034.049 8  84945041.905 8  20466827.322    20466825.841    20466825.200
  20466826.410          51.000          49.000
 107999897.08748  84155781.77148  20551676.695    20551674.888    20551676.106
  20551674.314          50.000          53.000
 108347663.39648  84426768.73248  20617860.102    20617858.111    20617859.461
  20617857.492          50.000          52.000
 115551120.24848  90039865.31646  21988627.359                    21988626.174
  21988622.606          50.000          39.000
 11 10  1  0 17 30.0000000  0 16R10G26G21G25G10R19G16G13R11R17R18G30
                                R02G05G29G02
 120924524.714 6  94052416.321 6  22685126.287    22685131.380    22685125.704
  22685132.081          41.000          37.000
 124905406.74447  97328895.61043  23768702.305                    23768701.423
  23768701.704          42.000          22.000
 128066071.43346  99791751.84643  24370156.231                    24370155.124
  24370155.221          41.000          22.000
 127909676.99246  99669884.24946  24340398.238    24340402.974    24340397.065
  24340402.458          41.000          40.000
 123771595.75147  96445422.32844  23552936.712                    23552935.110
  23552935.740          42.000          25.000
 110983175.878 8  86320257.768 7  20747119.847    20747118.543    20747117.177
  20747117.342          48.000          47.000
 132231587.01846 103037598.97042  25162832.967                    25162830.183
  25162834.286          36.000          13.000
 129935154.06946 101248185.73442  24725828.231                    24725827.216
  24725826.858          36.000          12.000
 123146623.869 6  95780712.612 5  23045205.921    23045206.834    23045201.972
  23045208.224          40.000          35.000
 120295832.874 6  93563439.643 6  22480141.930    22480142.649    22480139.854
  22480141.776          39.000          38.000
 103217297.200 8  80280140.717 8  19336061.768    19336061.247    19336059.556
  19336062.052          53.000          52.000
 121858116.40547  94954387.55645  23188818.766                    23188817.717
  23188818.209          45.000          30.000
 109293589.559 8  85006140.595 8  20481549.196    20481547.075    20481546.574
  20481547.240          52.000          50.000
 108009940.09649  84163607.03048  20553588.403    20553586.604    20553587.857
  20553586.205          54.000          53.000
 108339767.03149  84420615.92748  20616357.096    20616355.047    20616356.434
  20616354.860          54.000          52.000
 115633397.13948  90103977.40346  22004283.377                    22004282.075
  22004279.345          50.000          38.000
 11 10  1  0 18  0.0000000  0 16R10G26G21G25G10R19G16G13R11R17R18G30
                                R02G05G29G02
 120970856.836 7  94088452.172 6  22693820.380    22693824.139    22693819.818
  22693823.016          43.000          37.000
 124785393.74447  97235379.10343  23745864.440                    23745863.891
  23745864.006          43.000          23.000
 127971504.70946  99718063.56543  24352160.455                    24352159.355
  24352160.559          41.000          21.000
 128015425.91446  99752285.87146  24360522.040    24360526.196    24360520.893
  24360525.277          41.000          40.000
 123878498.68547  96528723.53544  23573279.713                    23573276.964
  23573278.785          43.000          25.000
 110891345.570 8  86248834.105 7  20729952.839    20729952.017    20729950.692
  20729950.502          49.000          47.000
 132148635.22346 102972961.67242  25147048.376                    25147046.605
  25147049.351          38.000          13.000
 130023270.70046                  24742595.583
                        37.000
 123085128.183 6  95732882.790 5  23033698.363    23033700.111    23033694.409
  23033696.622          39.000          35.000
 120418084.470 6  93658524.202 6  22502987.431    22502987.315    22502985.427
  22502986.773          39.000          37.000
 103248113.929 8  80304109.076 8  19341835.108    19341834.547    19341832.490
  19341834.993          53.000          51.000
 121936608.58147  95015550.22445  23203755.315                    23203753.608
  23203755.096          45.000          30.000
 109372699.956 8  85067670.807 8  20496373.982    20496372.674    20496371.751
  20496372.238          51.000          49.000
 108020547.73948  84171873.80548  20555606.024    20555604.043    20555605.553
  20555603.654          53.000          53.000
 108332438.67949  84414905.48748  20614962.871    20614960.727    20614962.251
  20614960.525          54.000          52.000
 115715961.86148  90168313.82746  22019994.707                    22019993.256
  22019990.458          49.000          37.000
 11 10  1  0 18 30.0000000  0 16R10G26G21G25G10R19G16G13R11R17R18G30
                                R02G05G29G02
 121017960.736 7  94125088.836 6  22702655.743    22702660.809    22702654.856
  22702659.525          43.000          38.000
 124665587.45847  97142023.53544  23723065.957                    23723064.760
  23723065.350          43.000          25.000
 127877011.81946  99644432.88743  24334179.463                    24334178.386
  24334178.899          41.000          22.000
 128121319.95247  99834800.53246  24380673.120    24380677.033    24380671.479
  24380675.630          42.000          40.000
 123985606.52347  96612184.39844  23593661.699                    23593659.607
  23593660.390          43.000          25.000
 110799959.578 8  86177756.892 7  20712868.874    20712867.613    20712866.782
  20712866.441          48.000          47.000
 132066058.33046                  25131333.517
                        38.000
 130111772.13446                  24759438.195
                        37.000
 123024341.706 6  95685604.531 5  23022321.757    23022324.845    23022317.845
  23022322.926          39.000          35.000
 120540592.523 6  93753808.306 6  22525880.432    22525881.773    22525878.235
  22525879.567          39.000          37.000
 103279617.139 8  80328610.966 8  19347736.833    19347736.435    19347734.592
  19347737.363          53.000          51.000
 122015540.01747  95077055.26844  23218775.420                    23218773.613
  23218774.719          44.000          28.000
 109452362.217 8  85129630.245 8  20511302.644    20511301.451    20511300.656
  20511301.408          51.000          50.000
 108031716.47149  84180577.72848  20557730.480    20557728.528    20557729.920
  20557728.301          54.000          53.000
 108325679.62948  84409638.68148  20613676.712    20613674.507    20613676.231
  20613674.233          53.000          51.000
 115798813.21248  90232873.66246  22035760.470                    22035759.129
  22035756.466          48.000          38.000
 11 10  1  0 19  0.0000000  0 17R10G26G07G21G25G10R19G16G13R11R17R18
                                G30R02G05G29G02
 121065832.999 7  94162323.075 6  22711637.029    22711641.471    22711636.792
  22711640.559          43.000          37.000
 124545991.32347  97048831.73844  23700307.435                    23700305.714
  23700307.726          42.000          25.000
 133207006.81446 103797667.66945  25348448.532    25348447.069    25348447.796
  25348448.466          38.000          35.000
 127782593.27246  99570860.10143  24316211.629                    24316209.498
  24316211.641          40.000          22.000
 128227355.99947  99917425.85646  24400851.057    24400854.914    24400850.312
  24400854.097          42.000          40.000
 124092916.49747  96695802.92544  23614081.794                    23614079.596
  23614080.021          44.000          26.000
 110709018.276 8  86107025.093 7  20695867.766    20695866.308    20695866.273
  20695865.675          49.000          47.000
 131983856.69746                  25115691.288
                        39.000
 130200654.32846                  24776352.487
                        37.000
 122964266.980 6  95638879.784 5  23011079.700    23011081.646    23011077.223
  23011079.572          38.000          35.000
 120663352.820 6  93849288.624 6  22548821.008    22548821.935    22548818.700
  22548820.527          39.000          36.000
 103311805.215 8  80353644.979 8  19353767.769    19353767.824    19353765.439
  19353768.350          52.000          51.000
 122094907.13847  95138899.77644  23233878.460                    23233877.461
  23233878.362          43.000          28.000
 109532573.017 8  85192016.367 8  20526334.143    20526332.494    20526332.287
  20526332.784          52.000          50.000
 108043443.43249  84189715.58348  20559962.213    20559960.074    20559961.596
  20559959.571          54.000          52.000
 108319489.48248  84404814.70948  20612499.314    20612497.010    20612498.595
  20612496.500          52.000          53.000
 115881951.99848  90297659.00546  22051580.391                    22051578.878
  22051575.236          50.000          39.000
 11 10  1  0 19 30.0000000  0 17R10G26G07G21G25G10R19G16G13R11R17R18
                                G30R02G05G29G02
 121114470.982 7  94200152.841 6  22720761.144    22720764.612    22720761.712
  22720764.089          43.000          37.000
 124426609.37247  96955806.88044  23677589.706                    23677588.803
  23677589.735          42.000          25.000
 133133915.04846 103740713.19945  25334540.924    25334538.399    25334540.330
  25334537.949          39.000          34.000
 127688250.50746  99497346.45043  24298258.510                    24298257.451
  24298257.591          41.000          23.000
 128333531.39147 100000159.85046  24421056.110    24421059.716    24421055.634
  24421058.517          42.000          40.000
 124200426.03247  96779576.83744  23634539.807                    23634538.109
  23634538.940          44.000          26.000
 110618525.605 8  86036642.011 7  20678951.257    20678949.878    20678948.493
  20678948.901          48.000          47.000
 131902035.46846 102780806.37641  25100121.415                    25100120.000
  25100120.967          39.000           9.000
 130289914.49546                  24793337.424
                        36.000
 122904907.668 6  95592711.530 6  22999972.456    22999973.334    22999968.665
  22999972.479          38.000          36.000
 120786363.867 6  93944964.023 6  22571808.826    22571809.621    22571806.703
  22571808.422          38.000          36.000
 103344683.965 8  80379218.659 8  19359926.233    19359925.868    19359924.152
  19359926.580          52.000          51.000
 122174707.23047  95201081.70144  23249064.270                    23249062.778
  23249064.049          44.000          28.000
 109613329.162 8  85254826.640 8  20541468.405    20541466.282    20541465.825
  20541466.735          51.000          49.000
 108055729.46148  84199288.84448  20562300.355    20562298.024    20562299.845
  20562297.707          53.000          53.000
 108313867.42448  84400432.09548  20611430.738    20611429.246    20611430.020
  20611428.979          53.000          53.000
 115965371.60648  90362661.62846  22067454.083                    22067453.132
  22067449.043          50.000          39.000
 11 10  1  0 20  0.0000000  0 17R10G26G07G21G25G10R19G16G13R11R17R18
                                G30R02G05G29G02
 121163870.945 7  94238574.694 6  22730027.566    22730032.050    22730027.358
  22730030.534          43.000          36.000
 124307445.45147  96862952.11444  23654913.800                    23654913.044
  23654913.459          43.000          25.000
 133061187.14246 103684042.17346  25320700.210    25320699.557    25320699.107
  25320699.627          37.000          36.000
 127593983.62047  99423891.76744  24280320.507                    24280319.534
  24280320.128          43.000          24.000
 128439842.75347 100082999.78146  24441286.411    24441290.063    24441285.155
  24441289.285          43.000          40.000
 124308132.45847  96863504.09844  23655035.722                    23655034.572
  23655034.133          43.000          26.000
 110528485.065 8  85966610.443 7  20662118.930    20662117.790    20662116.488
  20662116.800          49.000          47.000
 131820595.74046 102717346.87542  25084623.910                    25084622.785
  25084623.897          41.000          15.000
 130379550.31146 101594421.9214   24810396.293                    24810394.442
  24810395.834          38.000           1.000
 122846266.148 6  95547101.471 6  22988997.810    22989000.018    22988995.842
  22988998.441          39.000          36.000
 120909622.247 6  94040831.586 6  22594841.405    22594843.779    22594839.692
  22594842.080          38.000          36.000
 103378246.366 8  80405322.908 8  19366213.370    19366213.054    19366211.055
  19366213.676          53.000          51.000
 122254937.03447  95263598.50344  23264331.200                    23264329.495
  23264330.908          45.000          29.000
 109694626.958 8  85318058.154 8  20556703.154    20556701.844    20556700.959
  20556701.844          51.000          49.000
 108068576.24948  84209300.15548  20564744.145    20564742.096    20564743.637
  20564741.671          53.000          53.000
 108308820.67948  84396499.96948  20610469.972    20610468.139    20610469.273
  20610467.917          53.000          52.000
 116049073.23448  90427883.82946  22083381.578                    22083380.410
  22083377.033          49.000          38.000
