     2.11           OBSERVATION DATA    G (GPS)             RINEX VERSION / TYPE
teqc  2016Apr1                          20160930 07:51:16UTCPGM / RUN BY / DATE
Linux 2.4.20-8|Pentium IV|gcc|Linux|486/DX+                 COMMENT
teqc  2016Apr1                          20160816 03:14:23UTCCOMMENT
teqc  2010Mar17     gpsops              20111002 00:11:33UTCCOMMENT
Linux 2.4.21-27.ELsmp|Opteron|gcc -static|Linux x86_64|=+   COMMENT
     2.10           OBSERVATION DATA    GPS                 COMMENT
soc2rnx ver 1.20    gpsops               2-Oct-2011 00:11:33COMMENT
S1, if present, is the SNR for the C/A data stream on L1.   COMMENT
 SNR is mapped to RINEX snr flag value [1,4-9]              COMMENT
    SNR:   >316  >100  >31.6  >10  >3.2    >0 bad=0         COMMENT
L1 & L2:      9     8     7     6     5     4     1         COMMENT
                                                            COMMENT
This data is provided as a public service by NASA/JPL.      COMMENT
No warranty is expressed or implied regarding suitability   COMMENT
for use.  For further information, contact:                 COMMENT
Dave Stowers, NASA/JPL m/s 238-600                          COMMENT
4800 Oak Grove Drive, Pasadena CA 91109 USA                 COMMENT
                                                            COMMENT
Forced Modulo Decimation to 30 seconds                      COMMENT
MDO1                                                        MARKER NAME
40442M012                                                   MARKER NUMBER
GGN                 JPL                                     OBSERVER / AGENCY
UC1200340013        ASHTECH UZ-12       CQ00                REC # / TYPE / VERS
130                 AOAD/M_T        JPLA                    ANT # / TYPE
 -1329998.7970 -5328393.3570  3236504.1410                  APPROX POSITION XYZ
        0.0610        0.0000        0.0000                  ANTENNA: DELTA H/E/N
     1     1                                                WAVELENGTH FACT L1/2
     7    L1    L2    P1    P2    C1    S1    S2            # / TYPES OF OBSERV
    30.0000                                                 INTERVAL
teqc windowed: start @ 2011 Oct  1 00:10:00.000             COMMENT
teqc windowed:  end  @ 2011 Oct  1 00:20:00.000             COMMENT
  2011    10     1     0    10    0.0000000     GPS         TIME OF FIRST OBS
                                                            END OF HEADER
 11 10  1  0 10  0.0000000  0 10G25G12G15G02G21G05G29G18G30G26
 114293719.85647  89060008.86047  21749396.4154   21749403.8254   21749396.6684
        56.000          48.000
 120157365.48747  93629080.18247  22865212.9454   22865218.9864   22865212.4834
        51.000          44.000
 122534934.16147  95481749.27647  23317633.8884   23317640.2834   23317633.7204
        48.000          42.000
 119927269.50947  93449823.21547  22821396.9584   22821399.6524   22821397.0854
        48.000          41.000
 126741000.99347  98759180.06647  24118044.9214   24118051.0464   24118044.9764
        46.000          38.000
 111672458.19447  87017481.07147  21250578.9334   21250581.8724   21250578.3524
        53.000          47.000
 110407951.55447  86032153.20547  21009946.2244   21009949.9204   21009945.9824
        54.000          49.000
 127683498.19847  99493584.31647  24297402.3844   24297412.8994   24297402.5824
        45.000          37.000
 117029926.83647  91192131.18047  22270070.3824   22270076.4094   22270071.2824
        51.000          43.000
 119468232.78547  93092106.72147  22734063.8684   22734069.6114   22734063.9434
        47.000          41.000
 11 10  1  0 10 30.0000000  0 10G25G12G15G02G21G05G29G18G30G26
 114350907.63047  89104570.73647  21760278.8854   21760286.4594   21760279.1634
        56.000          48.000
 120253515.30647  93704002.06547  22883509.9314   22883515.6034   22883509.6704
        51.000          44.000
 122443148.03747  95410227.84247  23300167.1384   23300173.8054   23300167.3824
        48.000          42.000
 119984838.01247  93494681.78947  22832352.1274   22832354.8654   22832352.3784
        47.000          41.000
 126684821.78647  98715404.25147  24107353.8324   24107360.5074   24107354.2514
        47.000          38.000
 111737126.10747  87067871.65947  21262884.6614   21262887.8334   21262884.2094
        53.000          47.000
 110350313.72147  85987240.66847  20998978.1164   20998981.6704   20998978.0174
        55.000          49.000
 127589975.50047  99420709.88047  24279606.5764   24279615.8664   24279607.1064
        45.000          38.000
 117036908.39847  91197571.38447  22271398.8054   22271405.0494   22271399.0574
        51.000          43.000
 119392294.46347  93032934.13247  22719613.2184   22719619.0034   22719612.6744
        47.000          41.000
 11 10  1  0 11  0.0000000  0 10G25G12G15G02G21G05G29G18G30G26
 114408534.43147  89149474.70947  21771244.8304   21771252.6734   21771245.2294
        56.000          48.000
 120349830.96447  93779053.18047  22901838.4394   22901843.8714   22901838.0724
        51.000          44.000
 122351456.96647  95338780.47547  23282718.9804   23282725.4464   23282718.7144
        48.000          42.000
 120042480.65347  93539598.11747  22843320.3454   22843324.3394   22843320.9364
        48.000          41.000
 126628674.80147  98671653.54747  24096668.7614   24096675.4214   24096668.8054
        47.000          38.000
 111802164.08747  87118550.61547  21275260.9164   21275264.1634   21275260.5374
        53.000          47.000
 110292957.86147  85942547.84647  20988063.6464   20988067.1224   20988063.3934
        55.000          49.000
 127496618.02147  99347964.19047  24261840.8344   24261850.2624   24261840.9204
        45.000          38.000
 117044473.26147  91203466.11247  22272838.3854   22272844.9094   22272838.8894
        51.000          43.000
 119316708.00447  92974035.71247  22705229.1384   22705235.1844   22705229.6014
        47.000          41.000
 11 10  1  0 11 30.0000000  0 10G25G12G15G02G21G05G29G18G30G26
 114466594.90747  89194716.61247  21782293.4414   21782301.0764   21782293.8754
        56.000          47.000
 120446306.65447  93854228.97647  22920197.0474   22920202.9794   22920196.9434
        51.000          44.000
 122259861.44847  95267407.56747  23265288.7134   23265294.9954   23265288.4434
        48.000          42.000
 120100195.13147  93584570.42747  22854304.1914   22854306.6314   22854304.9364
        47.000          41.000
 126572557.10647  98627925.64747  24085989.8984   24085996.3294   24085990.6114
        47.000          38.000
 111867566.65447  87169513.66147  21287706.6444   21287709.9064   21287706.1874
        53.000          47.000
 110235883.27147  85898074.20047  20977202.6344   20977206.1284   20977202.4984
        55.000          49.000
 127403424.89947  99275346.58347  24244105.8884   24244115.4324   24244107.4934
        44.000          37.000
 117052617.55747  91209812.34447  22274388.0904   22274394.3554   22274388.9634
        51.000          43.000
 119241474.42847  92915412.27947  22690912.7104   22690918.5774   22690913.1284
        47.000          41.000
 11 10  1  0 12  0.0000000  0 10G25G12G15G02G21G05G29G18G30G26
 114525085.23347  89240293.46647  21793423.8354   21793431.3344   21793424.0084
        56.000          47.000
 120542937.95247  93929526.02047  22938585.3474   22938591.3144   22938585.0564
        51.000          44.000
 122168363.25747  95196110.50347  23247876.8424   23247883.0644   23247876.5034
        47.000          42.000
 120157979.94247  93629597.55647  22865299.3754   22865302.9864   22865299.3524
        47.000          41.000
 126516467.08947  98584219.31147  24075316.4554   24075322.5354   24075316.6934
        47.000          39.000
 111933329.92647  87220757.77247  21300220.9334   21300224.2054   21300220.5574
        53.000          47.000
 110179090.79347  85853820.37547  20966395.3834   20966398.8274   20966395.0774
        55.000          49.000
 127310396.42447  99202857.26647  24226403.4244   24226412.2664   24226403.3564
        44.000          37.000
 117061338.97747  91216608.28947  22276047.6934   22276053.6634   22276048.0454
        51.000          43.000
 119166595.88647  92857065.49747  22676663.6874   22676669.5034   22676663.5484
        47.000          41.000
 11 10  1  0 12 30.0000000  0 10G25G12G15G02G21G05G29G18G30G26
 114584005.05247  89286204.98247  21804635.8854   21804643.6064   21804636.2784
        56.000          48.000
 120639724.15547  94004943.76947  22957003.3024   22957008.9004   22957002.9584
        51.000          44.000
 122076967.76247  95124893.44647  23230484.5094   23230490.7624   23230484.1174
        48.000          41.000
 120215837.49847  93674681.35947  22876309.6654   22876312.7524   22876309.6934
        46.000          41.000
 126460406.24147  98540535.70847  24064648.2884   24064654.6934   24064649.1934
        47.000          39.000
 111999453.73447  87272282.82747  21312803.9554   21312806.9934   21312803.5684
        53.000          47.000
 110122584.85547  85809789.82747  20955642.5774   20955646.1204   20955642.3024
        55.000          49.000
 127217536.52647  99130499.31147  24208732.0304   24208741.6554   24208733.1154
        44.000          37.000
 117070638.83847  91223854.96347  22277817.6334   22277823.7024   22277818.7244
        51.000          44.000
 119092078.14847  92798999.84947  22662483.4904   22662489.1824   22662483.9004
        47.000          41.000
 11 10  1  0 13  0.0000000  0 10G25G12G15G02G21G05G29G18G30G26
 114643350.40647  89332448.09247  21815929.0704   21815936.7634   21815929.3514
        56.000          47.000
 120736660.76347  94080478.73047  22975449.9814   22975455.4854   22975449.9434
        51.000          44.000
 121985676.46747  95053757.58347  23213112.6184   23213118.6894   23213112.1774
        48.000          42.000
 120273766.61047  93719820.92747  22887333.1924   22887336.3064   22887332.9664
        48.000          41.000
 126404372.95947  98496873.58147  24053984.9314   24053991.6434   24053985.6234
        47.000          39.000
 112065934.49347  87324086.01347  21325454.7674   21325457.9514   21325454.4564
        53.000          47.000
 110066366.29647  85765983.21447  20944944.5344   20944947.9904   20944944.3654
        55.000          49.000
 127124844.99647  99058272.56847  24191093.0834   24191102.7954   24191093.8444
        44.000          37.000
 117080514.64747  91231550.43747  22279696.7254   22279702.7844   22279697.2364
        51.000          44.000
 119017923.73047  92741217.31647  22648372.1564   22648377.7644   22648372.1404
        47.000          41.000
 11 10  1  0 13 30.0000000  0 10G25G12G15G02G21G05G29G18G30G26
 114703119.74247  89379021.57347  21827302.7424   21827310.3024   21827303.0054
        56.000          47.000
 120833745.86247  94156129.39747  22993924.5144   22993930.2644   22993924.3334
        50.000          44.000
 121894493.70347  94982706.29147  23195760.5904   23195766.9314   23195760.4924
        48.000          41.000
 120331768.51347  93765017.21047  22898371.2194   22898373.6414   22898371.3504
        47.000          41.000
 126348367.35947  98453233.01447  24043327.6014   24043333.6924   24043328.0464
        47.000          39.000
 112132770.47147  87376166.00147  21338173.2034   21338176.3784   21338172.5434
        52.000          47.000
 110010438.66347  85722403.28947  20934301.8504   20934305.3374   20934301.6194
        55.000          49.000
 127032324.57347  98986179.13547  24173486.7824   24173497.3244   24173486.0864
        45.000          38.000
 117090966.31947  91239694.62147  22281685.4514   22281691.8664   22281685.9324
        51.000          44.000
 118944136.86147  92683721.18347  22634330.9084   22634336.4914   22634330.9494
        47.000          41.000
 11 10  1  0 14  0.0000000  0 10G25G12G15G02G21G05G29G18G30G26
 114763311.00047  89425923.82747  21838756.8754   21838764.2874   21838757.3044
        56.000          47.000
 120930976.98047  94231893.83847  23012426.9134   23012432.8334   23012426.7794
        51.000          44.000
 121803423.08747  94911742.37947  23178430.8974   23178436.1454   23178430.0784
        48.000          41.000
 120389843.81847  93810270.67647  22909421.7524   22909425.0814   22909421.0414
        47.000          41.000
 126292390.00047  98409614.45147  24032675.4524   24032681.3774   24032675.7574
        47.000          39.000
 112199959.71347  87428521.25447  21350958.8944   21350961.9764   21350958.4664
        53.000          47.000
 109954804.35147  85679051.92747  20923714.9154   20923718.3974   20923714.7434
        55.000          49.000
 126939977.23147  98914220.58447  24155913.1984   24155922.9234   24155913.4524
        45.000          38.000
 117101993.36647  91248287.15747  22283783.8934   22283790.2344   22283784.8794
        51.000          44.000
 118870721.91447  92626514.86147  22620360.5084   22620365.8334   22620360.2974
        47.000          41.000
 11 10  1  0 14 30.0000000  0 10G25G12G15G02G21G05G29G18G30G26
 114823918.56647  89473150.48747  21850290.0994   21850297.5514   21850290.3944
        56.000          47.000
 121028348.12847  94307767.40147  23030956.3664   23030961.8604   23030956.3694
        50.000          43.000
 121712464.95947  94840866.12547  23161121.9074   23161127.2984   23161121.5764
        48.000          41.000
 120447989.79747  93855579.22547  22920487.0054   22920489.8224   22920486.6054
        46.000          40.000
 126236437.56347  98366015.31147  24022027.9704   24022033.9634   24022028.8314
        48.000          39.000
 112267496.90047  87481147.64447  21363810.8424   21363814.0364   21363810.4564
        53.000          47.000
 109899462.62547  85635928.55047  20913183.6734   20913187.2034   20913183.4014
        55.000          49.000
 126847801.79847  98842396.00647  24138372.4454   24138382.3184   24138372.9144
        44.000          38.000
 117113591.73447  91257324.88747  22285991.0924   22285997.3684   22285991.7774
        51.000          43.000
 118797679.41447  92569598.75547  22606460.8614   22606466.4274   22606460.6834
        48.000          42.000
 11 10  1  0 15  0.0000000  0 10G25G12G15G02G21G05G29G18G30G26
 114884943.18647  89520702.12147  21861902.5834   21861910.1784   21861902.8934
        56.000          47.000
 121125860.03247  94383750.63947  23049511.9954   23049518.0134   23049511.7564
        50.000          43.000
 121621625.70747  94770082.50747  23143835.3454   23143841.3894   23143835.2394
        48.000          42.000
 120506209.98747  93900945.57847  22931565.8674   22931568.8104   22931565.7204
        48.000          41.000
 126180512.61947  98322437.59047  24011386.0024   24011391.7934   24011385.7914
        47.000          39.000
 112335383.02347  87534045.92247  21376729.2184   21376732.5244   21376728.9204
        53.000          47.000
 109844419.51447  85593037.87047  20902709.3794   20902712.7634   20902709.3214
        55.000          49.000
 126755803.09047  98770709.12647  24120865.3244   24120874.5024   24120865.2434
        44.000          38.000
 117125763.53647  91266809.44047  22288307.1804   22288313.0374   22288307.9104
        51.000          44.000
 118725016.19347  92512978.18847  22592633.6044   22592639.1694   22592633.5324
        47.000          41.000
 11 10  1  0 15 30.0000000  0 10G25G12G15G02G21G05G29G18G30G26
 114946379.71647  89568574.71647  21873593.7054   21873601.2974   21873593.9424
        56.000          47.000
 121223507.31647  94459839.35747  23068093.7474   23068099.8984   23068093.6294
        50.000          43.000
 121530905.87747  94699391.94747  23126571.8284   23126577.7274   23126571.6544
        48.000          42.000
 120564502.02847  93946367.92947  22942657.9974   22942661.4954   22942657.5984
        46.000          40.000
 126124612.66547  98278879.32747  24000748.0404   24000754.3514   24000748.1214
        47.000          39.000
 112403612.95647  87587212.10547  21389712.9314   21389716.0064   21389712.7254
        53.000          47.000
 109789674.42747  85550379.40447  20892291.5654   20892295.1244   20892291.3144
        55.000          49.000
 126663979.98347  98699159.11147  24103391.5464   24103400.4214   24103391.1234
        44.000          37.000
 117138505.27847  91276738.10047  22290731.6664   22290738.1924   22290732.3574
        51.000          43.000
 118652733.56347  92456654.20747  22578878.2264   22578883.5954   22578878.3414
        47.000          41.000
 11 10  1  0 16  0.0000000  0 10G25G12G15G02G21G05G29G18G30G26
 115008226.39847  89616766.91547  21885362.7414   21885370.3534   21885362.8634
        56.000          47.000
 121321287.19247  94536031.40047  23086700.7724   23086706.9224   23086700.8094
        50.000          43.000
 121440309.59247  94628797.64647  23109331.6024   23109337.5174   23109331.0814
        47.000          42.000
 120622866.92947  93991847.05747  22953764.8364   22953767.8114   22953764.5184
        46.000          41.000
 126068738.10047  98235340.85547  23990115.5354   23990121.2154   23990115.7814
        48.000          39.000
 112472185.63247  87640645.36047  21402761.7774   21402765.0674   21402761.4314
        53.000          47.000
 109735230.37047  85507955.51447  20881931.2724   20881934.7094   20881931.1864
        55.000          49.000
 126572335.10747  98627747.96447  24085952.1234   24085960.5854   24085952.5954
        45.000          37.000
 117151816.48847  91287110.49447  22293265.0844   22293271.1504   22293265.4134
        51.000          44.000
 118580835.84147  92400630.13347  22565196.8824   22565202.1814   22565196.7474
        48.000          42.000
 11 10  1  0 16 30.0000000  0 10G25G12G15G02G21G05G29G18G30G26
 115070480.31247  89665276.43447  21897209.2684   21897216.7274   21897209.6664
        56.000          47.000
 121419196.84847  94612324.57047  23105332.5254   23105338.2894   23105332.1704
        50.000          43.000
 121349839.85647  94558301.94947  23092115.6914   23092121.0694   23092115.0154
        48.000          42.000
 120681304.86347  94037383.08147  22964884.7504   22964888.6814   22964884.3134
        45.000          40.000
 126012888.36447  98191821.72647  23979487.9174   23979493.2644   23979488.0374
        47.000          39.000
 112541097.64247  87694343.01947  21415875.4404   21415878.5894   21415875.0004
        52.000          47.000
 109681089.51847  85465767.88747  20871628.5394   20871632.0294   20871628.4364
        55.000          49.000
 126480869.65847  98556476.61947  24068546.5444   24068554.8874   24068547.0694
        46.000          37.000
 117165695.73747  91297925.52347  22295906.3034   22295912.5254   22295906.8264
        51.000          44.000
 118509326.33047  92344908.56147  22551588.8764   22551594.1424   22551589.0824
        48.000          42.000
 11 10  1  0 17  0.0000000  0 10G25G12G15G02G21G05G29G18G30G26
 115133139.62847  89714101.86247  21909133.1404   21909140.5884   21909133.2664
        56.000          47.000
 121517234.00447  94688717.09447  23123988.6004   23123994.1484   23123988.1474
        49.000          43.000
 121259500.67047  94487907.97847  23074924.3514   23074929.8084   23074923.7054
        48.000          42.000
 120739816.42047  94082976.49447  22976019.8904   22976022.8264   22976020.0234
        46.000          40.000
 125957063.84147  98148322.25747  23968864.0764   23968870.3354   23968864.5414
        47.000          39.000
 112610347.60647  87748304.03347  21429053.1414   21429056.2274   21429052.7224
        53.000          47.000
 109627254.90047  85423818.88047  20861384.0374   20861387.5624   20861383.8434
        55.000          49.000
 126389585.88147  98485346.84447  24051175.4474   24051184.1434   24051176.0094
        45.000          38.000
 117180142.66047  91309182.88747  22298655.2354   22298661.1114   22298656.1254
        51.000          44.000
 118438209.49247  92289492.96947  22538055.6034   22538060.6084   22538055.7344
        48.000          42.000
 11 10  1  0 17 30.0000000  0 10G25G12G15G02G21G05G29G18G30G26
 115196199.77347  89763239.62247  21921132.8394   21921140.4804   21921133.1274
        55.000          47.000
 121615394.08447  94765205.40147  23142667.8124   23142673.7054   23142667.1234
        50.000          43.000
 121169293.23747  94417616.67147  23057758.6304   23057764.0294   23057758.3544
        49.000          42.000
 120798400.06547  94128626.07747  22987167.1354   22987170.8464   22987166.9054
        46.000          40.000
 125901262.13047  98104840.56147  23958245.3204   23958251.1764   23958245.2264
        47.000          39.000
 112679931.26447  87802525.06047  21442294.3224   21442297.7434   21442293.7944
        53.000          47.000
 109573727.03447  85382108.90547  20851198.1954   20851201.5514   20851198.1324
        55.000          49.000
 126298483.39547  98414358.32947  24033838.2864   24033847.1234   24033838.9044
        46.000          38.000
 117195154.07247  91320880.10947  22301511.5774   22301517.9724   22301512.0184
        51.000          44.000
 118367486.75347  92234384.46047  22524597.3834   22524602.4524   22524597.7654
        48.000          41.000
 11 10  1  0 18  0.0000000  0 10G25G12G15G02G21G05G29G18G30G26
 115259659.49547  89812688.74447  21933208.6994   21933216.3494   21933209.0564
        55.000          47.000
 121713675.30947  94841788.10047  23161370.0184   23161376.4504   23161369.8054
        50.000          43.000
 121079222.04547  94347431.51847  23040618.6204   23040624.0214   23040618.6104
        49.000          42.000
 120857057.69047  94174333.30847  22998329.6534   22998333.2164   22998328.9634
        45.000          40.000
 125845484.33547  98061377.49947  23947631.1414   23947636.8894   23947630.8474
        47.000          39.000
 112749847.28547  87857005.07447  21455598.9684   21455602.3074   21455598.4494
        52.000          47.000
 109520509.38147  85340640.65447  20841070.9714   20841074.4634   20841070.7694
        55.000          49.000
 126207565.43847  98343513.60147  24016537.2654   24016545.6914   24016538.0234
        46.000          38.000
 117210730.17447  91333017.34347  22304475.7074   22304481.9174   22304476.4254
        51.000          43.000
 118297163.36147  92179587.12147  22511215.1814   22511220.3634   22511214.8994
        48.000          42.000
 11 10  1  0 18 30.0000000  0 10G25G12G15G02G21G05G29G18G30G26
 115323516.31247  89862447.27847  21945360.4544   21945368.0894   21945360.5284
        55.000          47.000
 121812075.38347  94918463.40347  23180094.7224   23180101.2224   23180094.5074
        49.000          43.000
 120989290.55147  94277355.22547  23023505.1304   23023510.6224   23023504.9124
        49.000          43.000
 120915789.61347  94220098.42547  23009505.9694   23009509.3154   23009506.0134
        46.000          40.000
 125789730.47247  98017933.12147  23937021.3374   23937027.1784   23937021.4724
        48.000          39.000
 112820093.55047  87911742.42247  21468966.5724   21468969.4904   21468965.9514
        53.000          47.000
 109467604.32847  85299415.98547  20831003.4834   20831007.0024   20831003.2584
        55.000          49.000
 126116833.26447  98272813.61647  23999271.8384   23999279.7874   23999271.5224
        46.000          38.000
 117226869.91647  91345593.78547  22307547.0744   22307553.1754   22307547.4994
        51.000          44.000
 118227243.04847  92125103.86747  22497909.7154   22497914.8784   22497909.5744
        47.000          41.000
 11 10  1  0 19  0.0000000  0 10G25G12G15G02G21G05G29G18G30G26
 115387765.22747  89912511.35447  21957586.6194   21957594.3794   21957587.0104
        55.000          47.000
 121910588.38747  94995226.71547  23198841.3584   23198847.3734   23198841.1584
        50.000          43.000
 120899499.93147  94207388.70047  23006418.3724   23006424.3484   23006418.1064
        49.000          43.000
 120974593.40547  94265919.54847  23020696.2364   23020699.3054   23020696.3624
        45.000          40.000
 125733997.96347  97974505.33947  23926415.8574   23926421.4744   23926415.9564
        48.000          40.000
 112890665.66047  87966733.66947  21482396.0984   21482399.0454   21482396.0234
        53.000          47.000
 109415012.10847  85258435.08247  20820995.3714   20820998.7984   20820995.0354
        55.000          49.000
 126026286.68247  98202258.23647  23982040.2684   23982048.8544   23982040.8374
        46.000          38.000
 117243569.65947  91358606.58147  22310724.8824   22310730.9254   22310725.4164
        51.000          44.000
 118157726.89447  92070935.54047  22484681.2274   22484686.2634   22484680.8644
        48.000          42.000
 11 10  1  0 19 30.0000000  0 10G25G12G15G02G21G05G29G18G30G26
 115452407.92147  89962882.26247  21969887.5604   21969895.4474   21969887.8514
        55.000          47.000
 122009216.20447  95072079.49547  23217609.9344   23217615.5674   23217609.3324
        50.000          43.000
 120809857.59247  94137537.71847  22989359.8004   22989365.5484   22989359.4484
        49.000          43.000
 121033474.07247  94311800.56847  23031900.5984   23031903.6644   23031900.7384
        46.000          40.000
 125678290.62047  97931097.18247  23915815.2094   23915820.7104   23915815.4924
        48.000          40.000
 112961565.00347  88021979.90747  21495887.5594   21495890.9164   21495887.2194
        52.000          47.000
 109362739.11147  85217702.93047  20811048.2094   20811051.6064   20811047.8404
        55.000          49.000
 125935931.34647  98131851.90547  23964845.7574   23964853.7534   23964846.2654
        46.000          38.000
 117260832.35747  91372058.04947  22314009.9964   22314015.9854   22314010.8714
        51.000          44.000
 118088622.90147  92017088.37947  22471530.9564   22471536.0824   22471530.4844
        48.000          42.000
 11 10  1  0 20  0.0000000  0 10G25G12G15G02G21G05G29G18G30G26
 115517436.46547  90013553.83847  21982262.4084   21982269.8114   21982262.4294
        55.000          47.000
 122107950.74947  95149015.42247  23236398.3134   23236404.0384   23236398.1694
        49.000          42.000
 120720361.87947  94067800.97647  22972329.0724   22972334.4734   22972328.4844
        49.000          42.000
 121092426.61347  94357737.60747  23043118.9274   23043122.5074   23043119.5164
        46.000          40.000
 125622602.67647  97887704.13847  23905217.6264   23905223.5824   23905218.2274
        48.000          40.000
 113032784.20747  88077475.38747  21509440.1864   21509443.5524   21509439.8324
        53.000          47.000
 109310782.60447  85177217.38947  20801161.0744   20801164.5514   20801160.7014
        55.000          49.000
 125845763.25447  98061591.43847  23947687.1124   23947695.2714   23947687.6024
        46.000          38.000
 117278651.55847  91385943.14447  22317400.8574   22317406.5314   22317401.1074
        51.000          43.000
 118019929.48247  91963561.13947  22458458.8584   22458463.9674   22458458.2124
        48.000          42.000
