     2.11           OBSERVATION DATA    G (GPS)             RINEX VERSION / TYPE
teqc  2016Apr1                          20160930 07:51:16UTCPGM / RUN BY / DATE
Linux 2.4.20-8|Pentium IV|gcc|Linux|486/DX+                 COMMENT
teqc  2016Apr1                          20160816 03:14:58UTCCOMMENT
teqc  2010Mar17     gpsops              20111002 00:19:43UTCCOMMENT
Linux 2.4.21-27.ELsmp|Opteron|gcc -static|Linux x86_64|=+   COMMENT
     2.10           OBSERVATION DATA    GPS                 COMMENT
soc2rnx ver 1.20    gpsops               2-Oct-2011 00:19:42COMMENT
S1, if present, is the SNR for the C/A data stream on L1.   COMMENT
 SNR is mapped to RINEX snr flag value [1,4-9]              COMMENT
    SNR:   >316  >100  >31.6  >10  >3.2    >0 bad=0         COMMENT
L1 & L2:      9     8     7     6     5     4     1         COMMENT
                                                            COMMENT
This data is provided as a public service by                COMMENT
Regional GPS Data Acquisition and Analysis Center (RDAAC)   COMMENT
Geophysical Service RAS (GS RAS).                           COMMENT
The data acquisition software is provided by NASA/JPL.      COMMENT
No warranty is expressed or implied regarding suitability   COMMENT
for use.  For further information, contact:                 COMMENT
Grigory M. Steblov, GS RAS (steblov@gps.gsras.ru)           COMMENT
Dave Stowers, NASA/JPL (dstowers@jpl.nasa.gov)              COMMENT
                                                            COMMENT
Forced Modulo Decimation to 30 seconds                      COMMENT
NRIL                                                        MARKER NAME
12364M001                                                   MARKER NUMBER
CMIS                RDAAC-JPL-IRIS                          OBSERVER / AGENCY
UC120031611         ASHTECH UZ-12       CQ00                REC # / TYPE / VERS
CR620002607         ASH701945B_M    SCIT                    ANT # / TYPE
    64537.2912  2253782.8543  5946363.4808                  APPROX POSITION XYZ
        0.0795        0.0000        0.0000                  ANTENNA: DELTA H/E/N
     1     1                                                WAVELENGTH FACT L1/2
     7    L1    L2    P1    P2    C1    S1    S2            # / TYPES OF OBSERV
    30.0000                                                 INTERVAL
teqc windowed: start @ 2011 Oct  1 00:10:00.000             COMMENT
teqc windowed:  end  @ 2011 Oct  1 00:20:00.000             COMMENT
  2011    10     1     0    10    0.0000000     GPS         TIME OF FIRST OBS
                                                            END OF HEADER
 11 10  1  0 10  0.0000000  0 11G05G06G13G16G07G02G03G31G23G10G29
 127216459.45947  99129704.65947  24208491.2754   24208493.9974   24208490.2474
        46.000          41.000
 122336494.64447  95327119.40347  23279875.4174   23279878.9294   23279875.4124
        46.000          41.000
 108257737.03747  84356676.06447  20600762.6484   20600763.6214   20600762.4384
        56.000          50.000
 109437325.69647  85275831.35647  20825236.3104   20825237.6694   20825236.5334
        56.000          50.000
 123454483.60647  96198291.30147  23492612.7414   23492614.0204   23492612.2364
        48.000          42.000
 129254385.36447 100717695.64447  24596296.3694   24596298.4234   24596296.1794
        42.000          37.000
 123593090.01247  96306290.37547  23518992.4454   23518996.9934   23518993.2044
        44.000          40.000
 131745852.70347 102659085.81447  25070416.7044   25070419.7554   25070416.6464
        44.000          40.000
 111587682.08847  86951439.77947  21234432.1524   21234431.3854   21234432.2224
        55.000          48.000
 118036129.64947  91976188.80347  22461541.4474   22461544.9954   22461542.1424
        50.000          44.000
 124470916.06747  96990333.77647  23686018.4994   23686021.9984   23686018.6784
        47.000          42.000
 11 10  1  0 10 30.0000000  0 11G05G06G13G16G07G02G03G31G23G10G29
 127140738.04547  99070700.89847  24194081.7894   24194084.5884   24194082.0804
        46.000          41.000
 122246062.43247  95256652.75547  23262666.9334   23262670.0794   23262666.9084
        46.000          41.000
 108261362.04447  84359500.73547  20601452.5054   20601453.4544   20601452.3834
        56.000          50.000
 109410437.67247  85254879.65247  20820119.6684   20820120.9784   20820119.9904
        56.000          50.000
 123348979.43347  96116080.24547  23472535.7414   23472537.0544   23472535.4554
        48.000          42.000
 129328192.52247 100775207.60047  24610341.0094   24610342.3514   24610341.5324
        43.000          37.000
 123478537.99547  96217029.13647  23497194.5314   23497198.7014   23497194.2034
        45.000          40.000
 131856734.93347 102745487.34047  25091517.0404   25091520.4104   25091516.7214
        45.000          40.000
 111648680.39547  86998970.93947  21246039.7264   21246039.0644   21246039.8214
        55.000          48.000
 118062913.80947  91997059.41147  22466638.6004   22466642.0244   22466639.2214
        50.000          44.000
 124544680.93847  97047812.90747  23700055.3854   23700058.7384   23700055.8124
        47.000          42.000
 11 10  1  0 11  0.0000000  0 11G05G06G13G16G07G02G03G31G23G10G29
 127065459.87547  99012042.53147  24179756.7694   24179760.1494   24179755.8864
        44.000          41.000
 122155974.16847  95186454.13347  23245523.5714   23245527.2294   23245523.2864
        47.000          42.000
 108265635.48347  84362830.66947  20602265.8374   20602266.6034   20602265.4964
        56.000          50.000
 109384155.36847  85234399.94347  20815118.3334   20815119.5594   20815118.6254
        56.000          50.000
 123243666.21247  96034017.99847  23452495.4184   23452496.5604   23452495.0574
        47.000          42.000
 129402399.43647 100833031.06947  24624462.7744   24624463.9354   24624462.5114
        42.000          38.000
 123364215.46847  96127946.69947  23475439.5264   23475443.8604   23475439.7644
        46.000          40.000
 131967675.96947 102831934.69547  25112628.8224   25112631.8364   25112628.4474
        45.000          40.000
 111710212.29047  87046917.85447  21257748.9364   21257748.2264   21257748.9584
        55.000          48.000
 118090330.70647  92018423.08847  22471855.9674   22471859.1034   22471856.8034
        50.000          44.000
 124618897.91447  97105643.90347  23714178.4354   23714182.0524   23714178.4314
        46.000          41.000
 11 10  1  0 11 30.0000000  0 11G05G06G13G16G07G02G03G31G23G10G29
 126990622.39647  98953727.65247  24165515.5694   24165518.8514   24165515.2404
        46.000          41.000
 122066227.11647  95116521.41947  23228445.2774   23228448.6354   23228445.3574
        47.000          42.000
 108270552.38547  84366661.99347  20603201.4884   20603202.3314   20603201.2974
        56.000          50.000
 109358474.16147  85214388.58447  20810231.3534   20810232.5864   20810231.5184
        56.000          50.000
 123138540.34447  95952101.71447  23432490.5954   23432491.5274   23432490.1764
        47.000          42.000
 129476998.71447 100891160.22147  24638658.2804   24638659.9284   24638658.5254
        43.000          38.000
 123250120.16347  96039041.30247  23453728.2984   23453731.8144   23453728.4854
        46.000          40.000
 132078669.28247 102918422.81647  25133750.4014   25133753.3654   25133748.8554
        45.000          40.000
 111772271.14947  87095275.38747  21269558.3034   21269557.5904   21269558.4254
        55.000          48.000
 118118373.72647  92040274.71247  22477192.4614   22477196.0074   22477193.3944
        50.000          44.000
 124693560.08147  97163821.80947  23728386.2954   23728390.3284   23728385.5764
        46.000          41.000
 11 10  1  0 12  0.0000000  0 11G05G06G13G16G07G02G03G31G23G10G29
 126916231.73747  98895761.09247  24151359.5354   24151362.6874   24151359.0314
        46.000          41.000
 121976828.07447  95046859.85647  23211433.5474   23211436.5514   23211433.7394
        47.000          42.000
 108276116.64747  84370997.78747  20604260.2364   20604261.1464   20604260.1644
        56.000          50.000
 109333398.64547  85194849.21047  20805459.6134   20805460.9414   20805459.9234
        56.000          50.000
 123033608.06647  95870336.33247  23412522.8564   23412523.6484   23412522.1674
        48.000          43.000
 129551991.10747 100949595.70647  24652929.4454   24652931.0074   24652929.8974
        44.000          38.000
 123136259.55147  95950318.78347  23432060.9714   23432064.8284   23432061.8034
        45.000          40.000
 132189717.20547 103004953.45247  25154882.2074   25154885.4384   25154881.7974
        45.000          40.000
 111834859.17347  87144045.26147  21281468.6574   21281467.7804   21281468.7734
        55.000          48.000
 118147045.55047  92062616.26247  22482648.3864   22482652.2614   22482648.9564
        50.000          44.000
 124768668.95547  97222347.99347  23742679.4764   23742683.6764   23742679.3284
        47.000          42.000
 11 10  1  0 12 30.0000000  0 11G05G06G13G16G07G02G03G31G23G10G29
 126842288.03247  98838142.71547  24137288.1554   24137291.5654   24137288.2764
        45.000          41.000
 121887777.18947  94977469.60447  23194487.4384   23194490.7014   23194487.8464
        47.000          42.000
 108282326.13847  84375836.34847  20605441.8534   20605442.7734   20605441.4844
        56.000          50.000
 109308927.22147  85175780.56447  20800802.8774   20800804.2004   20800803.1044
        56.000          50.000
 122928868.69747  95788721.13847  23392591.3254   23392592.6094   23392590.9584
        48.000          43.000
 129627371.72447 101008333.49047  24667274.4454   24667274.7794   24667274.9654
        42.000          37.000
 123022634.24247  95861779.63647  23410438.7764   23410442.5014   23410438.8284
        46.000          40.000
 132300816.03747 103091523.75247  25176023.9184   25176026.9404   25176023.4354
        46.000          40.000
 111897972.04647  87193224.05847  21293478.5774   21293477.7024   21293478.7274
        55.000          48.000
 118176342.39247  92085444.75547  22488223.6924   22488226.9154   22488224.6834
        50.000          44.000
 124844219.31647  97281217.94747  23757056.7824   23757061.1204   23757056.5784
        47.000          42.000
 11 10  1  0 13  0.0000000  0 11G05G06G13G16G07G02G03G31G23G10G29
 126768796.02847  98780876.36947  24123303.2534   24123306.3124   24123302.4764
        45.000          42.000
 121799079.52847  94908354.54347  23177608.9484   23177612.2604   23177608.9614
        48.000          42.000
 108289183.09147  84381179.42947  20606746.7344   20606747.6664   20606746.4734
        56.000          50.000
 109285062.57347  85157184.72947  20796261.5924   20796262.9744   20796261.6964
        56.000          50.000
 122824326.92447  95707259.93447  23372698.0894   23372699.3514   23372697.6704
        47.000          43.000
 129703141.09647 101067374.48247  24681691.8254   24681693.1294   24681692.3714
        40.000          36.000
 122909249.91847  95773428.28147  23388862.1424   23388866.2374   23388861.9824
        45.000          40.000
 132411966.54447 103178134.36047  25197175.0494   25197178.2384   25197174.8134
        45.000          40.000
 111961610.87247  87242812.70247  21305588.6404   21305587.9904   21305588.7014
        55.000          48.000
 118206266.72947  92108762.59147  22493917.8164   22493921.3624   22493918.6014
        50.000          44.000
 124920210.99547  97340431.54847  23771518.0694   23771522.4464   23771517.7754
        46.000          42.000
 11 10  1  0 13 30.0000000  0 11G05G06G13G16G07G02G03G31G23G10G29
 126695755.09247  98723961.20747  24109403.9134   24109407.0214   24109402.5224
        45.000          41.000
 121710734.81147  94839514.54347  23160797.5974   23160800.6034   23160797.5804
        48.000          42.000
 108296684.75047  84387024.87847  20608174.2234   20608175.1574   20608174.0854
        56.000          50.000
 109261802.22047  85139059.76247  20791835.3284   20791836.6604   20791835.6504
        56.000          50.000
 122719981.40747  95625951.72647  23352841.3124   23352843.0474   23352840.8344
        47.000          43.000
 129779293.60847 101126714.06647  24696184.3934   24696185.1674   24696184.1354
        43.000          38.000
 122796106.45347  95685264.58847  23367331.3044   23367335.1374   23367331.4244
        45.000          40.000
 132523164.28847 103264781.73447  25218335.4334   25218338.8574   25218334.4534
        45.000          40.000
 112025770.64647  87292807.26647  21317797.8924   21317797.2594   21317797.9604
        55.000          48.000
 118236812.66947  92132564.46247  22499730.7964   22499734.1234   22499731.5434
        50.000          44.000
 124996639.31047  97399985.45047  23786062.1234   23786066.4174   23786061.8134
        46.000          41.000
 11 10  1  0 14  0.0000000  0 10G05G06G13G16G07G02G03G31G23G10
 126623169.50347  98667401.01247  24095591.9234   24095594.6594   24095591.3454
        46.000          42.000
 121622747.60747  94770953.12247  23144054.1424   23144057.2114   23144054.2784
        48.000          42.000
 108304832.95147  84393374.07547  20609724.8304   20609725.7194   20609724.5584
        56.000          50.000
 109239148.19247  85121407.24647  20787524.4184   20787525.7094   20787524.6064
        56.000          50.000
 122615836.02847  95544799.40247  23333023.4734   23333024.9704   23333023.2354
        48.000          43.000
 129855828.08047 101186351.33047  24710748.1634   24710750.1184   24710747.9384
        42.000          37.000
 122683209.02747  95597292.63147  23345847.7004   23345851.7194   23345847.9514
        46.000          41.000
 132634409.88147 103351466.44847  25239504.8974   25239508.4644   25239504.9824
        45.000          40.000
 112090451.79747  87343208.14847  21330106.2334   21330105.5974   21330106.4024
        55.000          48.000
 118267981.65747  92156851.83847  22505662.0794   22505665.7874   22505662.8354
        50.000          44.000
 11 10  1  0 14 30.0000000  0 11G05G06G13G16G07G02G03G31G23G10G29
 126551042.20847  98611197.97647  24081866.0024   24081869.0154   24081865.6614
        45.000          41.000
 121535120.77947  94702672.51847  23127379.2854   23127382.2164   23127379.3764
        48.000          42.000
 108313628.02147  84400227.33747  20611398.4714   20611399.3614   20611398.0914
        56.000          50.000
 109217101.62747  85104228.10847  20783329.1054   20783330.3524   20783329.4224
        56.000          50.000
 122511892.99647  95463804.79347  23313243.8454   23313245.1974   23313243.4104
        49.000          43.000
 129932742.30847 101246284.51247  24725384.3654   24725384.7524   24725384.7884
        43.000          37.000
 122570560.98447  95509514.99847  23324411.9244   23324415.2294   23324411.8674
        46.000          40.000
 132745701.81647 103438187.26547  25260682.8654   25260686.9044   25260682.5894
        45.000          39.000
 112155652.75847  87394014.09747  21342513.7164   21342512.9194   21342513.8004
        55.000          48.000
 118299773.06247  92181624.37747  22511711.6874   22511715.1054   22511712.3854
        50.000          44.000
 135150678.64557  87519989.04557  23815398.1715   23815401.9145   23815397.2835
        46.000          42.000
 11 10  1  0 15  0.0000000  0 11G05G06G13G16G07G02G03G31G23G10G29
 126479373.41347  98555352.06147  24068228.3184   24068230.8884   24068227.7464
        46.000          41.000
 121447855.04547  94634673.29047  23110773.0184   23110776.2484   23110773.2574
        48.000          42.000
 108323067.86747  84407583.07647  20613194.8104   20613195.7364   20613194.5544
        56.000          50.000
 109195660.76747  85087520.92747  20779249.0524   20779250.3334   20779249.3174
        56.000          50.000
 122408152.15847  95382967.70347  23293502.7984   23293503.8154   23293502.6154
        49.000          43.000
 130010031.56347 101306509.92547  24740091.4954   24740093.4014   24740091.1164
        42.000          38.000
 122458163.33947  95421932.47347  23303023.0134   23303026.7284   23303023.5064
        46.000          40.000
 132857036.78547 103524941.60247  25281869.1874   25281872.9964   25281869.0764
        44.000          39.000
 112221369.36747  87445221.77847  21355019.0614   21355018.4234   21355019.2064
        55.000          48.000
 118332183.04247  92206878.90047  22517879.1034   22517882.7784   22517879.8614
        50.000          44.000
 135228407.91247  87580557.91447  23830189.1474   23830193.1804   23830188.6794
        46.000          42.000
 11 10  1  0 15 30.0000000  0 11G05G06G13G16G07G02G03G31G23G10G29
 126408168.84847  98499867.77047  24054678.4694   24054681.3804   24054677.5644
        45.000          41.000
 121360956.21547  94566959.92747  23094236.8184   23094239.6534   23094237.0184
        48.000          43.000
 108333155.15447  84415443.25347  20615114.4474   20615115.2764   20615114.2404
        56.000          50.000
 109174829.57747  85071288.81247  20775284.9834   20775286.3264   20775285.1984
        56.000          50.000
 122304618.60447  95302292.12447  23273800.7784   23273802.3344   23273800.3564
        48.000          43.000
 130087696.18547 101367027.68147  24754871.6074   24754872.6724   24754871.1684
        42.000          38.000
 122346022.56547  95334550.09547  23281683.7044   23281687.1934   23281683.7934
        46.000          40.000
 132968416.34947 103611730.69647  25303064.4644   25303068.5964   25303064.2054
        44.000          39.000
 112287603.36447  87496832.65547  21367622.9324   21367622.4864   21367623.0634
        54.000          48.000
 118365213.70947  92232617.21747  22524164.6164   22524167.8714   22524165.3674
        50.000          44.000
 135306565.63747  87641459.94947  23845062.3784   23845066.5564   23845061.7294
        46.000          42.000
 11 10  1  0 16  0.0000000  0 11G05G06G13G16G07G02G03G31G23G10G29
 126337426.98247  98444744.33247  24041216.5164   24041219.3954   24041216.4724
        46.000          42.000
 121274422.13547  94499530.82147  23077769.8144   23077773.1864   23077769.8074
        48.000          43.000
 108343885.61447  84423804.60947  20617156.4484   20617157.3074   20617156.1764
        56.000          50.000
 109154603.19247  85055527.99247  20771435.9944   20771437.3984   20771436.1874
        56.000          50.000
 122201289.30347  95221775.61247  23254138.1744   23254139.6714   23254138.1864
        48.000          43.000
 130165728.83047 101427832.14247  24769720.3204   24769722.1074   24769721.4034
        43.000          38.000
 122234137.00447  95247366.57847  23260392.3484   23260395.9654   23260392.5004
        46.000          40.000
 133079834.41647 103698549.80047  25324266.7424   25324270.1834   25324265.1944
        43.000          38.000
 112354347.92947  87548841.37547  21380324.1144   21380323.6294   21380324.1894
        55.000          48.000
 118398858.38647  92258833.93747  22530566.8894   22530570.5304   22530567.5334
        49.000          44.000
 135385144.65547  87702689.71747  23860016.0714   23860020.3564   23860015.6104
        47.000          42.000
 11 10  1  0 16 30.0000000  0 10G05G06G13G16G07G02G03G31G23G10
 126267154.69747  98389987.01247  24027843.9234   24027846.8524   24027843.2314
        46.000          42.000
 121188260.43447  94432391.84147  23061373.6224   23061377.0174   23061373.8314
        48.000          43.000
 108355264.43747  84432671.24347  20619321.7144   20619322.5844   20619321.3964
        56.000          50.000
 109134987.10947  85040242.68647  20767703.2154   20767704.6214   20767703.4854
        55.000          50.000
 122098171.91547  95141424.28847  23234515.7414   23234517.2594   23234515.5164
        49.000          44.000
 130244132.61847 101488925.87147  24784640.4074   24784641.0474   24784640.1114
        41.000          36.000
 122122515.15047  95160388.55247  23239151.6494   23239155.0174   23239151.6254
        46.000          40.000
 133191294.63247 103785401.75147  25345476.7994   25345480.4234   25345476.4844
        44.000          38.000
 112421606.64547  87601250.71647  21393122.9314   21393122.4384   21393122.9824
        54.000          48.000
 118433121.33547  92285532.38747  22537086.9824   22537090.2194   22537087.5794
        50.000          44.000
 11 10  1  0 17  0.0000000  0 11G05G06G13G16G07G02G03G31G23G10G29
 126197349.67647  98335593.58347  24014560.1654   24014563.5114   24014559.7484
        46.000          42.000
 121102469.78247  94365541.97347  23045048.4894   23045051.9154   23045048.3394
        49.000          43.000
 108367287.27047  84442039.62647  20621609.6514   20621610.5784   20621609.3594
        56.000          50.000
 109115978.19847  85025430.52147  20764085.9314   20764087.3444   20764086.2194
        55.000          50.000
 121995263.33647  95061235.40647  23214933.0764   23214934.5424   23214932.6624
        49.000          43.000
 140322919.37657  91550325.27357  24799629.6675   24799630.2085   24799630.4455
        41.000          36.000
 122011156.08747  95073615.31447  23217960.1514   23217964.1014   23217960.5544
        47.000          41.000
 133302791.57447 103872282.31247  25366694.5224   25366698.0704   25366695.0294
        44.000          38.000
 112489373.52947  87654056.02947  21406018.4314   21406018.1234   21406018.4834
        55.000          48.000
 118467996.72947  92312707.84547  22543723.7144   22543727.0444   22543724.4764
        50.000          44.000
 115543555.23357 107826121.18757  23890164.1815   23890168.0155   23890163.5885
        47.000          41.000
 11 10  1  0 17 30.0000000  0 11G05G06G13G16G07G02G03G31G23G10G29
 126128019.70147  98281570.49447  24001367.1514   24001369.9604   24001367.1804
        46.000          42.000
 121017057.16347  94298986.65147  23028794.9654   23028797.8614   23028795.2964
        48.000          43.000
 108379958.32647  84451913.17947  20624020.8444   20624021.8114   20624020.6364
        56.000          50.000
 109097580.55847  85011094.71047  20760584.9424   20760586.4004   20760585.1524
        56.000          50.000
 121892571.06847  94981215.32247  23195391.6484   23195393.0494   23195391.0544
        49.000          44.000
 140402052.84447  91611987.71047  24814688.2544   24814688.5614   24814688.4664
        42.000          36.000
 121900067.21647  94987052.58047  23196820.7434   23196824.6254   23196821.0444
        47.000          41.000
 133414328.05947 103959193.73347  25387919.0914   25387923.1864   25387920.6294
        44.000          37.000
 112557651.14947  87707259.39047  21419011.3284   21419010.7394   21419011.4524
        54.000          48.000
 118503488.18147  92340363.55347  22550477.4394   22550480.8304   22550477.9714
        50.000          43.000
 115623401.23647 107888339.15247  23905357.8304   23905361.8134   23905358.1354
        46.000          41.000
 11 10  1  0 18  0.0000000  0 11G05G06G13G16G07G02G03G31G23G10G29
 126059162.16547  98227915.24347  23988264.2074   23988267.0964   23988263.4714
        46.000          42.000
 120932021.40947  94232724.97947  23012613.3094   23012616.4594   23012613.0134
        48.000          43.000
 108393273.16347  84462288.32947  20626554.5314   20626555.5144   20626554.2584
        56.000          50.000
 109079790.74147  84997232.47647  20757199.7594   20757201.1614   20757199.9864
        56.000          50.000
 121790093.01947  94901362.13747  23175890.7004   23175892.3164   23175890.4654
        49.000          44.000
 140481545.68747  91673930.26447  24829815.0634   24829815.9904   24829815.1524
        44.000          36.000
 121789247.77847  94900699.77647  23175732.3074   23175736.6334   23175732.3164
        46.000          41.000
 133525898.84247 104046131.89747  25409150.4014   25409154.0264   25409150.7394
        43.000          37.000
 112626433.86147  87760856.29947  21432100.3504   21432099.6694   21432100.4064
        54.000          48.000
 118539590.22147  92368495.08747  22557347.1634   22557350.8934   22557347.7994
        50.000          44.000
 135703691.64757  87950910.86757  23920630.8355   23920635.2605   23920629.4365
        46.000          41.000
 11 10  1  0 18 30.0000000  0 11G05G06G13G16G07G02G03G31G23G10G29
 125990776.45847  98174627.01747  23975251.4454   23975254.6314   23975250.5014
        46.000          42.000
 120847363.17747  94166757.48347  22996503.4474   22996506.5594   22996503.5464
        48.000          43.000
 108407230.08647  84473163.78247  20629210.5084   20629211.5114   20629210.2984
        56.000          50.000
 109062607.09747  84983842.59547  20753929.8124   20753931.2414   20753930.1144
        56.000          50.000
 121687828.84447  94821675.67747  23156430.7194   23156432.0574   23156430.4834
        49.000          44.000
 140561393.27347  91736149.17947  24845009.0834   24845010.2984   24845009.6724
        43.000          36.000
 121678698.93147  94814557.87247  23154695.6454   23154699.6224   23154695.7874
        46.000          41.000
 133637500.18547 104133093.81247  25430387.4454   25430391.0754   25430387.9924
        43.000          37.000
 112695717.54947  87814843.57847  21445284.7164   21445284.1224   21445284.7894
        54.000          48.000
 118576299.22147  92397099.53847  22564332.8364   22564336.2654   22564333.6494
        49.000          44.000
 115784374.36157 108013782.84757  23935981.6835   23935985.6695   23935981.2725
        47.000          42.000
 11 10  1  0 19  0.0000000  0 11G05G06G13G16G07G02G03G31G23G10G29
 125922875.09447  98121716.60447  23962330.3284   23962333.5274   23962329.7754
        47.000          42.000
 120763092.69647  94101092.17147  22980467.3264   22980470.3234   22980467.6094
        49.000          43.000
 108421836.55247  84484545.40447  20631990.0934   20631991.1054   20631989.8994
        56.000          50.000
 109046037.66647  84970931.32447  20750776.7854   20750778.2154   20750776.9324
        56.000          50.000
 121585787.50447  94742162.65447  23137013.0424   23137014.7564   23137012.4074
        49.000          44.000
 140641600.12847  91798648.20547  24860272.2404   24860273.2804   24860272.8854
        45.000          38.000
 121568431.59147  94728635.34947  23133712.0364   23133716.4194   23133712.1194
        46.000          41.000
 133749138.80147 104220084.82347  25451631.6404   25451636.2184   25451631.5684
        42.000          37.000
 112765508.16047  87869225.87747  21458565.4914   21458564.6334   21458565.5384
        55.000          48.000
 118613620.94547  92426181.28347  22571434.7424   22571438.3874   22571435.6004
        49.000          43.000
 115865459.45547 108076966.58447  23951411.1864   23951415.1264   23951411.4384
        47.000          42.000
 11 10  1  0 19 30.0000000  0 10G05G06G13G16G07G02G03G23G10G29
 125855450.02547  98069177.35947  23949499.8704   23949502.9614   23949499.5904
        46.000          42.000
 120679203.30447  94035723.84747  22964503.3874   22964506.7454   22964503.3754
        49.000          43.000
 108437082.83247  84496425.61047  20634891.4134   20634892.3654   20634891.2004
        56.000          50.000
 109030073.59647  84958491.79047  20747738.8824   20747740.3344   20747739.1374
        56.000          50.000
 121483963.26147  94662819.09047  23117636.4294   23117637.9894   23117636.1694
        48.000          44.000
 140722154.80947  91861418.40647  24875601.6214   24875601.7904   24875601.1714
        44.000          37.000
 121458439.86047  94642927.57147  23112781.5824   23112785.1084   23112781.7984
        47.000          41.000
 112835794.53647  87923994.46247  21471940.4074   21471939.8834   21471940.5944
        55.000          48.000
 118651544.88947  92455732.26147  22578651.7074   22578655.5544   22578652.3524
        49.000          44.000
 115946947.35447 108140464.20847  23966917.3054   23966921.2214   23966917.6994
        46.000          41.000
 11 10  1  0 20  0.0000000  0 10G05G06G13G16G07G02G03G23G10G29
 125788512.92247  98017018.83447  23936761.8424   23936765.2164   23936761.1914
        47.000          42.000
 120595705.98947  93970661.10047  22948614.6464   22948617.4554   22948614.8064
        49.000          43.000
 108452977.08247  84508810.78047  20637915.9854   20637916.8834   20637915.7144
        56.000          50.000
 109014722.92747  84946530.23747  20744817.7194   20744819.2224   20744817.9974
        56.000          50.000
 121382365.79347  94583652.40047  23098302.8364   23098304.3544   23098302.1974
        49.000          44.000
 140803062.64347  91924463.49947  24890996.9134   24890999.2764   24890997.5704
        41.000          37.000
 121348734.63647  94557442.95047  23091905.2524   23091909.1774   23091905.7364
        46.000          41.000
 112906582.98547  87979154.28047  21485411.0704   21485410.4924   21485411.1814
        54.000          48.000
 118690077.86647  92485757.67347  22585984.4114   22585988.0844   22585985.2714
        50.000          43.000
 116028844.00447 108204280.18247  23982501.4014   23982504.7094   23982500.7794
        46.000          41.000
