     2.11           OBSERVATION DATA    G (GPS)             RINEX VERSION / TYPE
teqc  2016Apr1                          20160930 07:51:15UTCPGM / RUN BY / DATE
Linux 2.4.20-8|Pentium IV|gcc|Linux|486/DX+                 COMMENT
teqc  2016Apr1                          20160816 03:11:17UTCCOMMENT
teqc  2010Mar17     gpsops              20111002 00:07:38UTCCOMMENT
Linux 2.4.21-27.ELsmp|Opteron|gcc -static|Linux x86_64|=+   COMMENT
     2.10           OBSERVATION DATA    GPS                 COMMENT
soc2rnx ver 1.20    gpsops               2-Oct-2011 00:07:38COMMENT
S1, if present, is the SNR for the C/A data stream on L1.   COMMENT
 SNR is mapped to RINEX snr flag value [1,4-9]              COMMENT
    SNR:   >316  >100  >31.6  >10  >3.2    >0 bad=0         COMMENT
L1 & L2:      9     8     7     6     5     4     1         COMMENT
                                                            COMMENT
This data is provided as a public service by NASA/JPL.      COMMENT
No warranty is expressed or implied regarding suitability   COMMENT
for use.  For further information, contact:                 COMMENT
Dave Stowers, NASA/JPL m/s 238-600                          COMMENT
4800 Oak Grove Drive, Pasadena CA 91109 USA                 COMMENT
                                                            COMMENT
Forced Modulo Decimation to 30 seconds                      COMMENT
KELY                                                        MARKER NAME
43005M002                                                   MARKER NUMBER
JPL                 SRI                                     OBSERVER / AGENCY
ZR520021809         ASHTECH UZ-12       CQ00                REC # / TYPE / VERS
CR620010504         ASH701945C_M    NONE                    ANT # / TYPE
  1575559.0735 -1941827.9411  5848076.4820                  APPROX POSITION XYZ
        0.0762        0.0000        0.0000                  ANTENNA: DELTA H/E/N
     1     1                                                WAVELENGTH FACT L1/2
     7    L1    L2    P1    P2    C1    S1    S2            # / TYPES OF OBSERV
    30.0000                                                 INTERVAL
teqc windowed: start @ 2011 Oct  1 00:10:00.000             COMMENT
teqc windowed:  end  @ 2011 Oct  1 00:20:00.000             COMMENT
  2011    10     1     0    10    0.0000000     GPS         TIME OF FIRST OBS
                                                            END OF HEADER
 11 10  1  0 10  0.0000000  0  9G13G16G02G29G10G04G05G23G26
 119105239.68647  92809260.72347  22664987.3324   22664989.4914   22664987.4754
        49.000          41.000
 128228587.25747  99918354.50147  24401108.9464   24401112.4444   24401109.3184
        42.000          36.000
 110610009.25847  86189609.87847  21048390.0204   21048391.1704   21048390.3174
        55.000          48.000
 115231377.53047  89790672.21247  21927809.0294   21927813.9544   21927808.7504
        52.000          47.000
 122500255.78057  77662520.19057  21408099.1305   21408102.5345   21408100.0715
        54.000          46.000
 138951643.93657  90481787.28757  24538691.6715   24538694.8275   24538690.6415
        42.000          37.000
 109404796.11647  85250482.25747  20819046.9244   20819049.3744   20819046.7924
        55.000          49.000
 140564342.22357  91738440.26457  24845572.5365   24845573.2975   24845573.2125
        44.000          37.000
 118705639.50147 110290096.95047  24491878.2594   24491882.7504   24491877.4544
        44.000          35.000
 11 10  1  0 10 30.0000000  0 10G13G16G02G29G10G04G05G23G07G26
 119190384.66447  92875607.33447  22681190.0894   22681192.1544   22681190.1214
        49.000          41.000
 128168316.21247  99871390.02147  24389639.2884   24389644.3754   24389640.2424
        43.000          37.000
 110670080.40647  86236418.55647  21059821.1414   21059822.3824   21059821.5354
        54.000          48.000
 115227235.79147  89787444.83647  21927021.2644   21927026.2754   21927020.9634
        52.000          47.000
 122576721.27247  77722103.63747  21422650.1154   21422653.5024   21422651.0424
        53.000          46.000
 119069236.06857 110573419.53557  24561068.1315   24561071.0735   24561067.7665
        43.000          36.000
 109360136.27847  85215682.18647  20810548.5464   20810551.2324   20810548.3134
        55.000          50.000
 140672457.65747  91822686.43247  24866145.7004   24866147.7394   24866146.3264
        40.000          35.000
 112795207.22057 105684566.75757  23367159.0415   23367161.6315   23367158.4765
        48.000          42.000
 118572239.29547 110186148.83147  24466493.1004   24466496.0414   24466492.7114
        44.000          35.000
 11 10  1  0 11  0.0000000  0  9G13G16G02G29G10G05G23G07G26
 119275979.31547  92942304.38347  22697478.2794   22697480.7384   22697478.5074
        49.000          41.000
 128108575.11347  99824838.77947  24378271.6274   24378275.3464   24378271.6704
        44.000          37.000
 110730671.22447  86283632.16447  21071351.1694   21071352.4054   21071351.5254
        54.000          48.000
 115223744.80547  89784725.08747  21926356.5974   21926361.4064   21926356.4294
        52.000          47.000
 122653611.66447  77782018.03047  21437282.0254   21437285.5084   21437282.9164
        53.000          46.000
 109315993.70047  85181285.53747  20802148.3004   20802150.9504   20802148.0814
        55.000          50.000
 120780726.27757 111907045.33957  24886755.1765   24886758.5695   24886757.0705
        43.000          35.000
 132719590.08657  85625641.95957  23352770.6975   23352773.6595   23352770.5115
        48.000          42.000
 118438954.76147 110082290.94047  24441129.0984   24441134.2264   24441129.4984
        43.000          37.000
 11 10  1  0 11 30.0000000  0  9G13G16G02G29G10G05G23G07G26
 119361997.49047  93009331.41647  22713846.9224   22713849.6334   22713846.9334
        48.000          41.000
 128049342.50647  99778683.73947  24366999.7154   24367002.5064   24367000.4344
        42.000          37.000
 110791757.36347  86331231.77047  21082975.5774   21082976.6834   21082976.0074
        54.000          48.000
 115220879.96847  89782493.02547  21925811.2024   21925815.9384   21925811.2434
        52.000          47.000
 122730900.32347  77842242.26647  21451990.1884   21451993.7524   21451991.0194
        53.000          46.000
 109272345.19647  85147273.94947  20793842.2674   20793844.5914   20793842.0384
        55.000          50.000
 140889265.69057  91991633.29157  24907400.3845   24907400.8205   24907401.0325
        45.000          37.000
 112644414.94057 105567064.01957  23338465.6325   23338468.6905   23338465.0765
        48.000          42.000
 138305686.23757  89978426.66457  24415782.9745   24415790.2995   24415782.6715
        41.000          35.000
 11 10  1  0 12  0.0000000  0  7G13G16G02G29G10G05G23
 119448435.15347  93076685.35847  22730295.7534   22730298.0654   22730295.7964
        48.000          41.000
 127990618.78647  99732924.92747  24355824.6934   24355829.0634   24355825.3484
        42.000          37.000
 110853335.27747  86379214.33747  21094693.6194   21094694.7384   21094693.9434
        54.000          48.000
 115218640.99747  89780748.98347  21925385.2364   21925389.4364   21925385.2714
        53.000          47.000
 122808586.65647  77902777.13847  21466773.3834   21466776.7234   21466774.3474
        53.000          46.000
 109229190.25047  85113646.92447  20785629.9464   20785632.4014   20785629.6974
        55.000          50.000
 120997897.83957 112076276.09557  24928075.9835   24928077.5925   24928076.1365
        43.000          37.000
 11 10  1  0 12 30.0000000  0  8G13G16G02G29G10G05G23G07
 119535290.52247  93144364.70547  22746823.8364   22746826.2694   22746823.6774
        48.000          41.000
 127932407.89647  99687565.79947  24344747.3884   24344751.5104   24344747.7474
        40.000          37.000
 110915405.21647  86427580.45447  21106505.0834   21106506.4034   21106505.4344
        54.000          48.000
 115217028.17647  89779492.70447  21925077.2994   21925081.6224   21925077.2434
        52.000          46.000
 102886686.27657  97963639.70257  21481631.7065   21481634.7875   21481633.0735
        54.000          46.000
 109186530.69147  85080405.76247  20777512.1584   20777514.4924   20777511.9684
        55.000          50.000
 141106652.38457  92161011.77257  24948779.0235   24948783.0705   24948780.6095
        41.000          36.000
 132495364.09957  85450916.18357  23310105.6835   23310109.8535   23310106.4895
        48.000          42.000
 11 10  1  0 13  0.0000000  0  9G13G16G02G29G10G04G05G23G07
 119622545.49947  93212355.53147  22763427.9614   22763430.4644   22763427.8634
        47.000          41.000
 127874696.71847  99642596.21847  24333765.8904   24333768.9684   24333765.9734
        43.000          37.000
 110977950.40147  86476317.02147  21118406.9594   21118408.3034   21118407.3834
        54.000          48.000
 115216025.55747  89778711.47447  21924886.1044   21924890.6264   21924886.1014
        52.000          46.000
 122965137.79357  78024769.09957  21496561.8925   21496565.4065   21496563.1545
        53.000          46.000
 139658328.34157  91032431.45457  24673183.6705   24673191.4685   24673184.3045
        42.000          36.000
 109144352.39847  85047539.50647  20769485.8714   20769488.2644   20769485.7094
        55.000          50.000
 121215730.89157 112246030.52557  24969517.9755   24969516.2505   24969516.3515
        40.000          34.000
 112421535.84657 105393393.35857  23296051.8005   23296054.4415   23296051.9685
        48.000          42.000
 11 10  1  0 13 30.0000000  0  8G13G16G02G29G10G05G23G07
 119710232.93247  93280683.23147  22780114.2324   22780116.8244   22780114.0504
        48.000          41.000
 127817522.27147  99598044.86947  24322884.8284   24322888.5844   24322885.3434
        44.000          37.000
 111041004.59247  86525450.25547  21130405.7154   21130406.9624   21130406.1424
        54.000          48.000
 115215668.91847  89778433.16847  21924818.9414   21924823.3264   21924818.9704
        52.000          46.000
 103043999.60057  98086216.95657  21511570.8115   21511574.9935   21511571.7005
        53.000          46.000
 109102691.05747  85015075.72347  20761558.2844   20761560.7044   20761558.0024
        56.000          50.000
 141324876.99257  92331081.41857  24990286.3385   24990284.1075   24990285.0625
        42.000          34.000
 132348146.61557  85336207.47157  23282085.9945   23282088.5335   23282086.0815
        48.000          42.000
 11 10  1  0 14  0.0000000  0  8G13G16G02G29G10G05G23G07
 119798322.06047  93349324.16347  22796877.0634   22796879.7314   22796876.9774
        48.000          41.000
 127760858.76047  99553891.75947  24312103.9854   24312106.6054   24312103.9394
        42.000          37.000
 111104537.57647  86574956.55747  21142495.5454   21142496.8204   21142495.9034
        54.000          48.000
 115215930.99647  89778637.30247  21924868.8744   21924873.2664   21924868.9424
        52.000          46.000
 123123247.12957  78147968.89457  21526650.8265   21526654.8725   21526652.3325
        53.000          46.000
 109061520.53247  84982994.91947  20753723.6704   20753726.2654   20753723.5644
        55.000          50.000
 121434133.07357 112416206.84857  25011084.6425   25011084.8905   25011083.6645
        42.000          33.000
 112275205.52857 105279371.23857  23268204.9085   23268207.4735   23268204.8725
        48.000          42.000
 11 10  1  0 14 30.0000000  0  8G13G16G02G29G10G05G23G07
 129886844.58657  83418308.54657  22813718.1315   22813720.7745   22813718.6375
        48.000          41.000
 137704801.47757  89510227.98457  24301421.5885   24301423.0995   24301420.8095
        44.000          37.000
 121168564.63857  76624848.45557  21154678.8515   21154680.2465   21154679.1825
        54.000          47.000
 125216800.37557  79779311.28557  21925038.5515   21925041.9235   21925038.2115
        52.000          46.000
 103202892.87957  98210030.02157  21541806.3265   21541810.0585   21541807.0895
        53.000          46.000
 119020851.19457  74951303.15157  20745985.0955   20745987.3315   20745984.8175
        56.000          50.000
 141543537.92657  92501448.93557  25031912.4055   25031912.1725   25031911.5895
        44.000          35.000
 132202734.80657  85222905.10857  23254410.3275   23254412.2155   23254409.6165
        48.000          42.000
 11 10  1  0 15  0.0000000  0  7G13G16G02G29G10G05G23
 129975747.08847  83487582.95447  22830636.0754   22830638.8214   22830636.1604
        49.000          41.000
 137649184.79247  89466890.45147  24290835.6114   24290840.3394   24290836.1974
        43.000          37.000
 121233070.55747  76675112.80347  21166953.9524   21166955.3394   21166954.4294
        54.000          48.000
 105218314.33757  99780488.82357  21925327.6155   21925331.7335   21925327.6925
        52.000          46.000
 103282916.47647  98272385.68647  21557034.6124   21557038.0924   21557035.3674
        53.000          46.000
  98980682.77757  94920004.26957  20738341.0315   20738343.2585   20738340.7275
        55.000          50.000
 121653099.31457 112586813.82757  25052764.8165   25052768.9765   25052769.0685
        41.000          35.000
 11 10  1  0 15 30.0000000  0  7G13G16G02G29G10G05G07
 130065047.69847  83557167.87447  22847629.3814   22847631.8394   22847629.4454
        48.000          41.000
 137594090.35147  89423959.90747  24280351.6244   24280354.8524   24280352.3024
        43.000          37.000
 121298055.48847  76725750.28847  21179320.3774   21179321.6544   21179320.8284
        54.000          48.000
 105220455.49047  99782157.11347  21925734.5014   21925739.3264   21925734.4244
        51.000          46.000
 103363318.78747  98335036.35347  21572334.8994   21572338.7454   21572335.7134
        53.000          46.000
  98941014.19447  94889094.45547  20730791.7974   20730793.8124   20730791.6074
        55.000          50.000
 112059085.59557 105110963.51057  23227080.4105   23227083.2195   23227080.0625
        49.000          42.000
 11 10  1  0 16  0.0000000  0  9G13G16G02G29G10G04G05G07G26
 110154763.72857 103627074.65057  22864702.0765   22864705.5985   22864702.1865
        48.000          41.000
 117539449.68457 109381363.78757  24269970.3675   24269976.8085   24269969.8585
        43.000          37.000
 101363548.25757  96776786.25057  21191781.5965   21191782.5895   21191781.9555
        54.000          48.000
 125223241.65057  79784330.45857  21926264.7135   21926268.2215   21926264.1875
        52.000          46.000
 123444112.80057  78397990.51857  21587711.2795   21587715.2155   21587712.3335
        53.000          46.000
 120367578.48357 111585088.86757  24808155.2385   24808162.2985   24808153.8885
        43.000          36.000
 118901865.86157  74858588.60157  20723341.8745   20723343.7925   20723341.5275
        55.000          50.000
 131987997.72957  85055572.22757  23213550.5765   23213553.0975   23213550.2245
        49.000          42.000
 117111745.03757 109048092.00557  24188576.2355   24188581.7845   24188576.0055
        46.000          39.000
 11 10  1  0 16 30.0000000  0  9G13G16G02G29G10G04G05G07G26
 130244892.91557  83697310.49457  22881848.8385   22881851.5115   22881848.9095
        48.000          41.000
 137485429.67757  89339269.93857  24259690.0785   24259692.9745   24259690.4855
        43.000          37.000
 121429486.90757  76828163.10157  21204332.5145   21204334.5335   21204333.2055
        54.000          47.000
 105226637.59357  99786974.39257  21926912.8165   21926916.8615   21926912.7135
        52.000          46.000
 103525311.97457  98461269.33257  21603158.3555   21603161.5205   21603159.0405
        53.000          46.000
 140486082.75857  91677449.25657  24830691.2695   24830696.4235   24830690.3415
        42.000          36.000
  98863214.64057  94828471.16157  20715986.6015   20715988.4235   20715986.2405
        55.000          50.000
 111917369.56657 105000542.78657  23200107.4575   23200109.7645   23200107.1295
        48.000          43.000
 136979668.82157  88945177.43057  24163441.5645   24163446.3665   24163441.6755
        44.000          38.000
 11 10  1  0 17  0.0000000  0  9G13G16G02G29G10G04G05G07G26
 110335392.01957 103767829.32757  22899070.1355   22899073.0225   22899069.9745
        47.000          41.000
 117432004.13457 109297657.52857  24249511.4635   24249512.5245   24249511.0505
        44.000          37.000
 101495927.00957  96879935.36557  21216974.5905   21216975.9615   21216974.6855
        54.000          47.000
 125230687.25857  79790132.47257  21927679.8375   21927683.6285   21927679.4935
        52.000          46.000
 123606837.34457  78524789.78557  21618675.6975   21618680.3195   21618677.1595
        53.000          46.000
 120604601.71757 111769807.32057  24853237.5895   24853243.4955   24853237.5275
        42.000          36.000
 118825063.31757  74798743.94857  20708726.3675   20708728.3095   20708726.1185
        55.000          50.000
 131847162.13557  84945829.63557  23186752.5135   23186755.0625   23186752.7445
        48.000          43.000
 116847716.69057 108842361.61557  24138328.8165   24138332.3535   24138329.5175
        40.000          35.000
 11 10  1  0 17 30.0000000  0  6G13G16G29G10G05G07
 110426283.38347 103838653.76347  22916366.0364   22916369.1434   22916366.1324
        48.000          41.000
 117379042.60347 109256388.78247  24239431.5554   24239434.9484   24239432.3974
        44.000          37.000
 125235346.58247  79793763.33947  21928566.3794   21928570.2684   21928566.0914
        52.000          46.000
 123688762.58747  78588628.00447  21634265.4924   21634269.4264   21634266.4014
        53.000          46.000
 118787419.53147  74769410.96647  20701563.0734   20701565.1784   20701562.8144
        55.000          50.000
 131777453.69747  84891511.29647  23173487.4354   23173490.1074   23173487.2594
        49.000          42.000
 11 10  1  0 18  0.0000000  0  8G13G16G02G29G10G04G05G07
 110517557.53447 103909776.10347  22933735.6674   22933738.1584   22933735.5834
        48.000          41.000
 117326612.49847 109215534.16347  24229454.4254   24229458.4594   24229454.8274
        44.000          37.000
 121630217.75857  76984576.87357  21242530.2235   21242532.2225   21242530.9425
        54.000          47.000
 125240627.86347  79797878.77147  21929571.8574   21929574.7344   21929571.8344
        53.000          46.000
 123771055.53247  78652752.45247  21649925.2154   21649929.1044   21649926.1334
        53.000          46.000
 140841655.70057  91954513.05557  24898357.4875   24898363.3895   24898359.5155
        43.000          35.000
 118750277.76847  74740469.28447  20694495.3214   20694497.4344   20694495.0764
        55.000          50.000
 131708212.25347  84837556.54447  23160311.4954   23160314.2834   23160311.3204
        49.000          42.000
 11 10  1  0 18 30.0000000  0  8G13G16G02G29G10G05G07G26
 130609196.21057  83981174.10657  22951180.3895   22951184.7585   22951180.1745
        48.000          41.000
 117274730.12747 109175106.26447  24219580.9834   24219585.3774   24219581.5324
        42.000          37.000
 101698093.88657  97037468.83057  21255445.6535   21255447.3285   21255445.9085
        54.000          47.000
 125246544.87347  79802489.51447  21930697.7284   21930700.0834   21930697.8954
        52.000          46.000
 123853728.45347  78717172.78247  21665657.5384   21665661.4514   21665658.5394
        52.000          46.000
 118713652.42047  74711929.87647  20687525.8764   20687527.8774   20687525.6354
        55.000          50.000
 131639455.18647  84783979.54047  23147227.6964   23147230.1674   23147227.4534
        49.000          43.000
 136452616.41657  88534484.38957  24063148.9845   24063153.8645   24063149.8685
        43.000          37.000
 11 10  1  0 19  0.0000000  0  9G13G16G02G29G10G04G05G07G26
 110701293.90857 104052948.27757  22968698.4615   22968701.9425   22968698.1795
        48.000          40.000
 117223390.58947 109135101.31847  24209811.2014   24209815.5774   24209811.8374
        42.000          37.000
 121766436.80757  77090723.44857  21268449.7425   21268451.0635   21268449.9205
        54.000          47.000
 125253091.38847  79807590.80347  21931942.8774   21931945.8754   21931942.9074
        52.000          46.000
 123936772.77647  78781882.49447  21681460.4244   21681464.4164   21681461.2894
        53.000          46.000
 121079075.78657 112139533.66457  24943523.5755   24943525.1265   24943524.8115
        43.000          35.000
 118677538.97747  74683789.67047  20680653.5694   20680655.6154   20680653.3494
        55.000          50.000
 131571177.38247  84730775.84847  23134234.8134   23134237.6364   23134234.7114
        48.000          43.000
 116321260.42357 108432143.91857  24038142.2395   24038145.9245   24038142.3635
        45.000          37.000
 11 10  1  0 19 30.0000000  0  9G13G16G02G29G10G04G05G07G26
 130793701.03057  84124950.20057  22986285.7675   22986288.5935   22986286.0245
        48.000          41.000
 117172577.95647 109095506.91247  24200142.5774   24200146.7234   24200142.7604
        44.000          37.000
 101835220.01657  97144318.66257  21281541.5145   21281543.6575   21281541.2315
        54.000          48.000
 125260248.60347  79813167.96747  21933304.4754   21933308.1664   21933304.3154
        52.000          46.000
 124020167.82247  78846865.23547  21697330.1384   21697334.4184   21697331.1414
        52.000          46.000
 141197764.56757  92232008.07257  24966116.5025   24966120.3915   24966117.8995
        41.000          36.000
 118641918.87747  74656033.79647  20673875.2624   20673877.3114   20673875.1034
        55.000          50.000
 131503364.64747  84677934.86947  23121330.3984   23121333.2794   23121330.5714
        48.000          43.000
 116189972.05247 108329841.12247  24013159.0734   24013163.8304   24013159.1544
        44.000          38.000
 11 10  1  0 20  0.0000000  0  9G13G16G02G29G10G04G05G07G26
 110886486.25857 104197248.93757  23003943.7785   23003947.0995   23003945.3955
        47.000          41.000
 117122314.28147 109056340.24247  24190577.5224   24190581.6164   24190578.2574
        44.000          37.000
 121904497.06157  77198302.15557  21294723.3565   21294725.1315   21294723.2895
        54.000          47.000
 125268037.28647  79819237.29947  21934786.8594   21934789.6794   21934786.8894
        52.000          46.000
 124103931.70847  78912135.05047  21713270.7234   21713274.8784   21713271.6374
        52.000          46.000
 121316550.87957 112324570.11857  24988720.4195   24988724.1545   24988719.8045
        41.000          36.000
 118606813.00547  74628678.25147  20667195.0944   20667197.2214   20667194.8784
        55.000          50.000
 131436038.14147  84625472.43447  23108519.0074   23108521.4624   23108518.7854
        48.000          43.000
 116058831.40547 108227653.20247  23988203.8554   23988209.7244   23988203.8914
        41.000          37.000
