     2.11           OBSERVATION DATA    M (MIXED)           RINEX VERSION / TYPE
teqc  2016Apr1                          20160930 07:51:15UTCPGM / RUN BY / DATE
Linux 2.4.20-8|Pentium IV|gcc|Linux|486/DX+                 COMMENT
teqc  2016Apr1                          20160816 03:28:17UTCCOMMENT
TEQC  2011AUG2                          20111001 01:02:14UTCCOMMENT
LINUX 2.4.20-8|PENTIUM IV|GCC -STATIC|LINUX|486/DX+         COMMENT
TEQC  2011AUG2                          20111001 00:16:08UTCCOMMENT
TEQC  2011AUG2                          20111001 00:16:01UTCCOMMENT
BIT 2 OF LLI FLAGS DATA COLLECTED UNDER A/S CONDITION       COMMENT
 SNR IS MAPPED TO RINEX SNR FLAG VALUE [0-9]                COMMENT
  L1 & L2: MIN(MAX(INT(SNR_DBHZ/6), 0), 9)                  COMMENT
PSEUDORANGE SMOOTHING CORRECTIONS NOT APPLIED               COMMENT
JOGJ                                                        MARKER NAME
YOGY                                                        MARKER NUMBER
GFZ                 GFZ                                     OBSERVER / AGENCY
212                 JAVAD TRE_G3TH DELTA3.2.6               REC # / TYPE / VERS
323                 JAV_RINGANT_G3T NONE                    ANT # / TYPE
 -2200568.0380  5924590.4957  -857007.3637                  APPROX POSITION XYZ
        0.1206        0.0000        0.0000                  ANTENNA: DELTA H/E/N
     1     1                                                WAVELENGTH FACT L1/2
    10    L1    L2    L5    C1    P1    P2    C5    S1    S2# / TYPES OF OBSERV
          S5                                                # / TYPES OF OBSERV
    30.0000                                                 INTERVAL
teqc windowed: start @ 2011 Oct  1 00:10:00.000             COMMENT
teqc windowed:  end  @ 2011 Oct  1 00:20:00.000             COMMENT
  2011    10     1     0    10    0.0000000     GPS         TIME OF FIRST OBS
    15                                                      LEAP SECONDS
                                                            END OF HEADER
 11 10  1  0 10  0.0000000  0 17R21G06R20G32G01G03G19R08G11G23G20R07
                                G31R04R09R22E01
 102634793.636 7  79827037.827 7                  19179763.204    19179763.781
  19179770.619                          47.750          45.750
 111658185.943 7  87006372.75345                  21247850.982    21247850.260
  21247853.500                          45.750          31.7504
 113049784.735 6  87927618.885 6                  21140888.739    21140889.955
  21140899.066                          39.000          38.000
 114297319.894 7  89062840.93045                  21750059.663    21750058.578
  21750061.443                          46.250          30.5004
 125992722.62415  98176145.59256  94085471.715 7  23975620.508    23975619.805
  23975625.837    23975629.978          35.500          18.7504         44.250
 105433343.235 8  82155852.02746                  20063301.993    20063301.271
  20063303.699                          48.250          36.2504
 105268900.270 8  82027720.71847                  20032008.114    20032007.113
  20032007.576                          50.500          42.5004
 115923254.578 6  90162534.023 5                  21647850.862    21647848.902
  21647857.526                          36.000          33.500
 120533593.792 7  93922286.29143                  22936786.104    22936785.171
  22936786.450                          42.500          23.0004
 120630597.282 6  93997855.87543                  22955236.263    22955236.727
  22955238.908                          40.000          19.0004
 119853067.414 5  93392016.44442                  22807287.044    22807282.466
  22807288.856                          34.500          13.0004
 111667070.731 7  86852160.714 6                  20860348.870    20860347.389
  20860351.378                          43.250          37.250
 124090579.817 6  96693948.87345                  23613658.066    23613657.248
  23613660.667                          40.750          18.0004
 102023410.251 8  79351535.700 8                  19125871.603    19125872.004
  19125879.946                          48.000          46.750
 126811250.527 6  98630975.572 5                  23747673.122    23747672.239
  23747688.499                          36.250          33.500
 115037029.703 7  89473243.254 6                  21550311.953    21550310.868
  21550319.540                          42.500          37.250
 125259598.63417                  93538007.573 8  23836113.656
                  23836115.077          46.500                          48.250
 11 10  1  0 10 30.0000000  0 17R21G06R20G32G01G03G19R08G11G23G20R07
                                G31R04R09R22E01
 102624649.978 7  79819148.292 7                  19177867.586    19177867.645
  19177874.850                          47.750          45.750
 111742818.923 7  87072320.47745                  21263956.159    21263955.716
  21263958.381                          46.250          31.7504
 113147464.410 6  88003591.877 6                  21159154.121    21159155.373
  21159165.914                          37.750          37.500
 114314879.932 7  89076524.05645                  21753400.612    21753399.470
  21753402.867                          45.000          30.2504
 125940478.26916  98135435.75556  94046458.082 7  23965677.962    23965678.173
  23965683.832    23965687.735          36.750          17.7504         43.750
 105485908.654 8  82196812.03846                  20073305.145    20073304.474
  20073306.797                          48.750          36.2504
 105251510.008 8  82014169.83247                  20028698.763    20028697.977
  20028697.887                          50.500          42.5004
 115911251.990 6  90153198.654 5                  21645610.454    21645608.069
  21645616.670                          36.250          33.500
 120465443.801 6  93869182.44243                  22923817.168    22923816.325
  22923817.845                          41.750          22.5004
 120533195.502 6  93921958.41443                  22936701.742    22936701.510
  22936702.840                          39.250          19.0004
 119849861.650 5  93389518.38142                  22806677.066    22806675.034
  22806675.813                          35.750          14.0004
 111722470.998 7  86895249.753 6                  20870698.708    20870697.347
  20870700.611                          43.250          37.250
 124066571.181 6  96675240.79645                  23609089.767    23609089.697
  23609091.043                          41.500          17.7504
 102035106.664 7  79360632.864 8                  19128064.764    19128064.584
  19128072.212                          47.750          46.750
 126775950.174 5  98603519.770 5                  23741060.023    23741061.121
  23741078.554                          35.250          32.500
 114928898.393 7  89389141.163 6                  21530055.347    21530054.420
  21530062.620                          42.000          38.000
 125296387.42217                  93565479.687 8  23843113.978
                  23843115.800          45.750                          48.000
 11 10  1  0 11  0.0000000  0 17R21G06R20G32G01G03G19R08G11G23G20R07
                                G31R04R09R22E01
 102615248.753 8  79811836.195 7                  19176111.266    19176111.571
  19176118.073                          48.500          46.000
 111827833.386 7  87138565.44145                  21280134.422    21280133.418
  21280136.329                          45.500          31.5004
 113245677.170 6  88079979.487 6                  21177520.938    21177521.412
  21177531.670                          37.750          37.500
 114332632.635 7  89090357.31245                  21756779.569    21756778.971
  21756782.261                          46.000          30.7504
 125888060.40916  98094590.64056  94007314.867 7  23955705.036    23955702.495
  23955709.691    23955712.405          37.750          17.7504         43.250
 105538986.701 8  82238171.51446                  20083405.800    20083404.218
  20083407.500                          48.500          36.0004
 105234700.164 8  82001071.22747                  20025500.524    20025499.258
  20025499.042                          50.750          42.5004
 115899721.456 6  90144230.475 5                  21643456.090    21643455.954
  21643462.916                          37.000          33.000
 120397235.133 6  93816032.82443                  22910835.925    22910836.073
  22910837.883                          41.250          22.7504
 120435985.156 6  93846210.17543                  22918203.951    22918203.179
  22918204.163                          39.750          19.0004
 119846847.641 5  93387169.85142                  22806102.087    22806101.072
  22806103.389                          33.500          13.5004
 111778083.086 7  86938503.554 6                  20881087.138    20881085.717
  20881089.950                          42.750          37.500
 124042656.528 6  96656605.98245                  23604537.653    23604538.857
  23604538.974                          40.000          16.7504
 102047570.814 7  79370327.160 8                  19130400.892    19130400.889
  19130409.024                          46.750          46.750
 126740585.326 5  98576013.786 5                  23734437.078    23734438.797
  23734454.883                          35.500          33.000
 114821029.773 7  89305243.390 6                  21509847.312    21509847.105
  21509856.285                          42.500          38.500
 125333545.90917                  93593227.876 8  23850184.320
                  23850186.888          45.500                          48.250
 11 10  1  0 11 30.0000000  0 17R21G06R20G32G01G03G19R08G11G23G20R07
                                G31R04R09R22E01
 102606588.736 8  79805100.587 7                  19174493.120    19174492.642
  19174499.591                          48.000          45.500
 111913224.107 7  87205103.60145                  21296383.157    21296382.207
  21296384.404                          45.250          31.2504
 113344416.733 6  88156776.825 6                  21195986.889    21195986.214
  21195996.055                          38.000          37.000
 114350573.708 7  89104337.33045                  21760193.911    21760192.622
  21760195.359                          46.000          30.0004
 125835468.12016  98053609.59756  93968041.393 7  23945695.540    23945694.013
  23945701.661    23945704.088          37.750          17.5004         42.750
 105592573.025 8  82279927.04546                  20093603.111    20093602.527
  20093604.218                          49.500          36.2504
 105218469.674 8  81988424.05247                  20022411.743    20022410.550
  20022410.759                          50.500          42.5004
 115888659.228 6  90135626.523 5                  21641390.464    21641389.138
  21641397.038                          37.000          32.250
 120328967.142 6  93762837.03043                  22897844.772    22897845.007
  22897846.955                          41.250          23.5004
 120338966.917 6  93770611.64343                  22899742.238    22899741.829
  22899742.271                          40.250          18.5004
 119844021.464 5  93384967.55942                  22805563.500    22805562.202
  22805564.833                          33.500          14.0004
 111833900.715 7  86981917.217 6                  20891513.472    20891512.421
  20891516.285                          42.000          37.250
 124018836.033 6  96638044.49645                  23600004.852    23600004.751
  23600006.582                          39.750          17.5004
 102060800.697 7  79380617.035 8                  19132880.494    19132880.856
  19132889.431                          45.750          47.000
 126705156.257 6  98548457.828 5                  23727804.629    23727805.249
  23727821.517                          37.250          32.750
 114713425.700 7  89221551.381 6                  21489689.855    21489688.920
  21489697.679                          42.500          38.500
 125371071.32917                  93621250.073 8  23857325.210
                  23857327.660          45.750                          48.250
 11 10  1  0 12  0.0000000  0 17R21G06R20G32G01G03G19R08G11G23G20R07
                                G31R04R09R22E01
 102598671.429 8  79798942.638 7                  19173013.348    19173013.405
  19173019.860                          48.000          45.500
 111998988.396 7  87271932.84645                  21312704.058    21312702.648
  21312704.911                          45.750          30.5004
 113443679.838 6  88233981.356 6                  21214550.786    21214550.220
  21214558.942                          39.250          37.750
 114368701.004 7  89118462.44144                  21763643.595    21763642.367
  21763644.986                          45.750          29.7504
 125782700.85316  98012492.26356  93928637.276 7  23935654.746    23935654.121
  23935659.181    23935663.433          38.000          17.5004         43.000
 105646665.853 8  82322077.24546                  20103897.047    20103896.385
  20103898.054                          49.250          36.2504
 105202819.148 8  81976228.81147                  20019433.526    20019432.270
  20019432.426                          50.500          42.7504
 115878063.514 6  90127385.412 5                  21639412.846    21639410.111
  21639418.571                          37.000          34.000
 120260641.243 7  93709596.08044                  22884844.968    22884843.321
  22884845.558                          42.500          24.5004
 120242143.272 6  93695164.71042                  22881317.291    22881316.457
  22881316.692                          40.250          17.5004
 119841381.082 5  93382910.03342                  22805062.735    22805061.017
  22805062.934                          35.000          15.2504
 111889921.634 7  87025489.002 6                  20901980.099    20901978.197
  20901982.548                          42.750          38.500
 123995111.878 6  96619558.16945                  23595490.868    23595490.442
  23595493.123                          40.000          17.2504
 102074796.788 7  79391502.852 8                  19135504.271    19135505.301
  19135513.424                          45.500          47.000
 126669666.141 6  98520854.389 5                  23721159.356    23721160.021
  23721174.996                          38.500          32.750
 114606089.854 7  89138067.981 6                  21469582.530    21469581.987
  21469590.567                          43.500          38.500
 125408962.90017                  93649545.676 8  23864536.233
                  23864538.000          46.000                          48.250
 11 10  1  0 12 30.0000000  0 17R21G06R20G32G01G03G19R08G11G23G20R07
                                G31R04R09R22E01
 102591505.371 8  79793369.002 7                  19171674.581    19171674.372
  19171680.758                          48.000          45.500
 112085130.517 7  87339056.50945                  21329096.088    21329094.884
  21329097.317                          44.750          30.0004
 113543470.775 6  88311596.427 6                  21233209.459    21233211.356
  21233222.270                          38.500          38.500
 114387019.650 7  89132736.66745                  21767129.311    21767127.962
  21767131.142                          45.750          30.5004
 125729767.90816  97971245.86156  93889109.430 7  23925581.468    23925581.795
  23925586.074    23925590.734          36.750          17.0004         43.000
 105701270.100 8  82364625.95845                  20114287.288    20114286.119
  20114289.236                          48.500          35.7504
 105187757.030 8  81964492.05747                  20016567.519    20016566.303
  20016566.345                          50.500          42.5004
 115867939.561 5  90119511.197 6                  21637522.497    21637519.858
  21637529.423                          35.250          34.750
 120192266.012 7  93656316.69744                  22871833.280    22871832.558
  22871833.772                          43.500          24.5004
 120145523.829 6  93619876.89243                  22862931.154    22862929.386
  22862930.071                          41.250          18.0004
 119838931.824 5  93381001.56342                  22804596.762    22804595.295
  22804598.457                          35.500          16.7504
 111946148.373 7  87069220.858 6                  20912483.318    20912481.872
  20912487.354                          42.500          38.500
 123971493.641 6  96601154.29145                  23590996.502    23590996.146
  23590998.500                          39.750          17.7504
 102089566.779 7  79402990.577 8                  19138273.987    19138274.154
  19138282.059                          45.500          46.750
 126634125.353 6  98493211.562 5                  23714504.631    23714503.579
  23714518.711                          37.500          33.250
 114499033.811 7  89054802.208 6                  21449526.469    21449526.981
  21449535.250                          43.500          38.500
 125447227.15717                  93678119.595 8  23871817.755
                  23871819.283          45.750                          48.250
 11 10  1  0 13  0.0000000  0 17R21G06R20G32G01G03G19R08G11G23G20R07
                                G31R04R09R22E01
 102585089.822 8  79788379.095 7                  19170475.380    19170475.517
  19170482.243                          48.000          45.750
 112171645.389 7  87406470.64945                  21345559.296    21345558.578
  21345560.559                          45.000          30.5004
 113643783.540 6  88389617.372 6                  21251970.541    21251970.245
  21251980.316                          38.500          38.500
 114405525.123 7  89147156.49745                  21770651.212    21770649.532
  21770652.558                          46.250          32.0004
 125676665.78216  97929867.54256  93849455.229 7  23915476.333    23915475.651
  23915481.968    23915485.109          36.250          16.7504         43.250
 105756381.503 8  82407569.86446                  20124774.738    20124773.967
  20124776.491                          48.500          36.0004
 105173281.795 8  81953212.62447                  20013812.679    20013811.739
  20013811.944                          50.250          42.7504
 115858282.812 6  90112000.361 6                  21635717.605    21635717.699
  21635725.686                          36.750          34.750
 120123840.714 7  93602998.33544                  22858812.242    22858811.822
  22858811.945                          43.000          24.2504
 120049109.094 6  93544748.56543                  22844583.816    22844582.166
  22844582.997                          41.750          18.5004
 119836669.299 5  93379238.53042                  22804164.834    22804164.899
  22804168.950                          35.000          16.5004
 112002575.510 7  87113108.572 6                  20923024.166    20923023.546
  20923027.004                          43.000          38.250
 123947981.104 6  96582832.79945                  23586520.900    23586521.629
  23586525.480                          39.000          17.2504
 102105108.033 7  79415078.191 8                  19141187.859    19141187.619
  19141195.423                          45.500          47.000
 126598534.471 6  98465529.781 6                  23707838.785    23707838.380
  23707855.624                          36.750          34.250
 114392259.410 7  88971755.491 6                  21429523.980    21429523.465
  21429532.635                          43.000          39.000
 125485861.10817                  93706969.576 8  23879169.101
                  23879171.386          45.500                          48.000
 11 10  1  0 13 30.0000000  0 17R21G06R20G32G01G03G19R08G11G23G20R07
                                G31R04R09R22E01
 102579415.592 8  79783965.780 7                  19169414.926    19169415.299
  19169421.956                          48.000          45.750
 112258520.165 7  87474165.21545                  21362091.333    21362091.005
  21362093.534                          45.750          30.7504
 113744604.689 6  88468033.681 6                  21270825.645    21270824.570
  21270834.728                          38.250          38.000
 114424205.564 7  89161712.64145                  21774205.240    21774204.575
  21774207.631                          46.500          31.5004
 125623384.74516  97888349.77656  93809667.469 7  23905337.465    23905336.679
  23905343.697    23905345.708          37.750          17.5004         43.000
 105811987.759 8  82450899.37046                  20135356.551    20135355.941
  20135357.928                          49.000          36.0004
 105159384.517 8  81942383.54847                  20011168.568    20011167.170
  20011167.325                          50.500          42.2504
 115849081.525 6  90104843.793 5                  21633997.036    21633997.478
  21634006.910                          36.750          34.000
 120055357.021 7  93549634.41244                  22845779.727    22845779.133
  22845781.468                          42.500          24.7504
 119952891.563 6  93469773.88242                  22826272.122    22826272.633
  22826275.722                          40.750          17.0004
 119834581.621 5  93377611.76742                  22803766.371    22803767.205
  22803770.851                          33.250          15.2504
 112059188.776 7  87157141.073 6                  20933598.773    20933598.650
  20933603.238                          42.500          38.000
 123924566.684 6  96564587.74745                  23582067.503    23582065.677
  23582068.901                          40.500          17.2504
 102121411.045 7  79427758.276 8                  19144243.903    19144243.700
  19144252.227                          45.750          47.250
 126562886.683 6  98437803.743 5                  23701163.485    23701162.816
  23701179.163                          38.000          34.250
 114285760.844 7  88888923.330 6                  21409571.918    21409572.367
  21409581.490                          42.500          39.250
 125524854.08417                  93736087.654 8  23886589.366
                  23886591.431          46.000                          48.000
 11 10  1  0 14  0.0000000  0 17R21G06R20G32G01G03G19R08G11G23G20R07
                                G31R04R09R22E01
 102574489.860 8  79780134.625 7                  19168494.747    19168494.496
  19168501.062                          48.000          45.750
 112345757.825 7  87542142.52945                  21378692.744    21378692.135
  21378694.268                          45.500          32.0004
 113845936.886 6  88546847.496 6                  21289773.895    21289773.062
  21289784.370                          37.500          38.750
 114443064.273 7  89176407.68845                  21777794.124    21777793.335
  21777795.282                          45.750          30.5004
 125569931.52716  97846697.97656  93769751.089 7  23895165.742    23895164.836
  23895171.121    23895175.004          36.750          17.0004         43.500
 105868092.451 8  82494617.26345                  20146032.839    20146031.845
  20146033.961                          48.250          35.7504
 105146071.762 8  81932009.93147                  20008635.114    20008634.122
  20008633.927                          50.250          42.2504
 115840339.626 6  90098044.492 5                  21632364.715    21632365.257
  21632373.142                          37.500          30.750
 119986822.093 7  93496230.57444                  22832737.986    22832737.960
  22832739.489                          43.000          25.5004
 119856879.696 7  93394959.45743                  22808003.264    22808002.319
  22808005.087                          42.500          18.0004
 119832672.911 5  93376124.47941                  22803405.008    22803401.624
  22803406.441                          32.500          11.5004
 112115989.947 7  87201319.710 6                  20944210.543    20944210.478
  20944213.685                          43.500          38.250
 123901258.509 6  96546425.53445                  23577631.615    23577630.711
  23577632.198                          39.500          16.7504
 102138481.536 7  79441035.298 8                  19147443.712    19147443.969
  19147451.728                          46.000          46.750
 126527190.455 6  98410040.045 5                  23694477.123    23694477.489
  23694493.714                          36.000          33.750
 114179548.015 7  88806313.359 6                  21389675.124    21389675.103
  21389684.602                          42.000          39.500
 125564211.10617                  93765477.585 7  23894078.776
                  23894080.899          46.000                          47.750
 11 10  1  0 14 30.0000000  0 17R21G06R20G32G01G03G19R08G11G23G20R07
                                G31R04R09R22E01
 102570322.129 8  79776893.031 7                  19167716.141    19167716.115
  19167722.321                          48.500          45.750
 112433363.796 7  87610406.84945                  21395362.260    21395362.029
  21395365.854                          44.500          31.5004
 113947784.744 6  88626062.383 6                  21308820.037    21308820.675
  21308830.732                          37.750          37.750
 114462107.623 7  89191246.61145                  21781418.655    21781416.669
  21781419.758                          46.000          31.2504
 125516315.37716  97804919.10056  93729713.011 7  23884962.564    23884961.575
  23884968.482    23884972.043          36.250          16.5004         43.750
 105924701.777 7  82538728.37746                  20156805.333    20156804.833
  20156806.931                          47.750          36.0004
 105133352.460 8  81922098.75447                  20006214.853    20006213.656
  20006213.314                          50.000          42.5004
 115832063.174 6  90091607.228 4                  21630819.547    21630820.401
  21630824.981                          38.000          29.000
 119918245.472 7  93442794.26744                  22819688.257    22819687.933
  22819689.410                          42.750          25.0004
 119761084.389 7  93320313.77042                  22789774.191    22789773.408
  22789774.476                          42.750          15.7504
 119830949.346 5  93374781.28942                  22803077.110    22803075.666
  22803079.486                          33.500          13.2504
 112172983.659 7  87245648.094 6                  20954858.629    20954857.162
  20954861.065                          43.500          38.500
 123878067.031 6  96528354.23045                  23573216.632    23573217.329
  23573218.943                          38.500          15.7504
 102156328.057 7  79454915.893 8                  19150789.939    19150789.779
  19150797.762                          46.750          47.000
 126491457.532 5  98382247.728 5                  23687787.425    23687785.876
  23687802.157                          35.500          33.000
 114073633.271 7  88723935.267 6                  21369834.447    21369833.606
  21369842.133                          43.000          39.000
 125603939.68717                  93795144.985 8  23901638.945
                  23901641.145          45.500                          48.250
 11 10  1  0 15  0.0000000  0 17R21G06R20G32G01G03G19R08G11G23G20R07
                                G31R04R09R22E01
 102566908.971 8  79774238.318 7                  19167078.448    19167078.090
  19167084.747                          48.750          45.500
 112521330.650 7  87678952.39345                  21412102.111    21412101.365
  21412105.003                          43.750          31.0004
 114050140.425 6  88705672.208 6                  21327959.915    21327961.296
  21327971.850                          37.500          37.750
 114481328.969 7  89206224.24145                  21785076.316    21785075.129
  21785077.520                          45.750          31.7504
 125462531.53916  97763009.63256  93689549.747 7  23874730.623    23874728.179
  23874733.119    23874737.416          38.250          18.0004         43.750
 105981808.745 7  82583227.27545                  20167671.838    20167671.410
  20167674.256                          47.500          35.7504
 105121223.422 8  81912647.52347                  20003906.584    20003905.737
  20003905.553                          49.750          42.2504
 115824245.734 6  90085526.987 5                  21629361.377    21629360.848
  21629367.783                          38.000          29.750
 119849624.242 7  93389323.14844                  22806630.189    22806629.605
  22806631.270                          42.500          25.2504
 119665503.392 7  93245835.10542                  22771586.460    22771586.003
  22771584.382                          43.500          15.7504
 119829404.487 5  93373577.57542                  22802783.461    22802781.312
  22802785.789                          34.000          15.2504
 112230161.885 7  87290120.009 6                  20965540.429    20965538.683
  20965543.077                          43.250          39.000
 123854989.895 6  96510371.97045                  23568825.634    23568825.051
  23568827.576                          38.250          15.5004
 102174945.876 7  79469396.379 8                  19154279.911    19154279.807
  19154288.071                          47.500          46.750
 126455686.314 5  98354425.680 5                  23681087.346    23681087.871
  23681104.992                          35.750          33.250
 113968016.111 7  88641788.611 6                  21350048.792    21350048.099
  21350057.351                          43.000          39.500
 125644034.38417                  93825085.778 8  23909268.544
                  23909271.049          45.750                          48.250
 11 10  1  0 15 30.0000000  0 17R21G06R20G32G01G03G19R08G11G23G20R07
                                G31R04R09R22E01
 102564253.956 8  79772173.280 7                  19166581.716    19166581.949
  19166588.580                          48.750          45.500
 112609657.995 7  87747778.82345                  21428911.509    21428910.381
  21428912.573                          45.250          31.0004
 114153002.156 6  88785675.667 6                  21347197.046    21347196.923
  21347207.684                          37.500          37.500
 114500728.586 7  89221340.81045                  21788767.842    21788766.594
  21788769.999                          45.750          31.2504
 125408583.13316  97720971.92756  93649263.597 7  23864463.184    23864462.829
  23864467.270    23864471.208          38.000          18.0004         43.250
 106039413.736 7  82628114.22946                  20178634.667    20178633.650
  20178635.526                          47.500          36.0004
 105109687.609 8  81903658.55347                  20001711.344    20001710.310
  20001710.365                          50.000          42.2504
 115816887.712 6  90079804.080 5                  21627988.397    21627986.949
  21627995.379                          39.750          30.500
 119780962.362 7  93335820.38844                  22793565.039    22793563.645
  22793566.707                          42.500          25.5004
 119570141.841 7  93171527.46842                  22753439.193    22753438.552
  22753437.136                          42.500          13.2504
 119828038.951 5  93372513.45142                  22802522.916    22802522.463
  22802525.970                          34.500          17.2504
 112287523.753 7  87334734.734 6                  20976254.553    20976253.467
  20976258.455                          43.250          38.250
 123832031.760 6  96492482.49345                  23564457.322    23564457.541
  23564459.805                          40.250          15.2504
 102194337.584 8  79484478.796 7                  19157914.373    19157914.747
  19157923.050                          48.000          46.750
 126419882.257 5  98326578.101 5                  23674381.673    23674382.045
  23674398.992                          34.250          32.750
 113862703.369 7  88559878.723 6                  21330319.215    21330319.167
  21330328.661                          42.500          39.250
 125684497.09217                  93855301.386 8  23916968.070
                  23916971.407          45.750                          48.750
 11 10  1  0 16  0.0000000  0 17R21G06R20G32G01G03G19R08G11G23G20R07
                                G31R04R09R22E01
 102562357.961 8  79770698.586 7                  19166227.381    19166227.241
  19166234.069                          48.250          45.750
 112698342.911 7  87816883.86645                  21445787.596    21445786.619
  21445788.542                          45.000          30.7504
 114256366.722 6  88866070.235 6                  21366525.538    21366527.135
  21366537.756                          38.750          37.250
 114520304.114 7  89236594.42045                  21792492.626    21792491.774
  21792495.045                          45.750          31.0004
 125354470.59216  97678806.32556  93608854.875 7  23854164.065    23854164.208
  23854170.848    23854173.471          36.500          18.2504         42.750
 106097514.532 7  82673387.51045                  20189690.346    20189689.647
  20189691.547                          46.500          35.2504
 105098745.496 8  81895132.20247                  19999629.690    19999628.319
  19999628.246                          50.000          42.0004
 115809986.637 6  90074436.552 5                  21626696.963    21626697.556
  21626705.021                          39.000          29.250
 119712261.157 7  93282286.99244                  22780490.914    22780489.904
  22780492.465                          42.250          25.5004
 119475002.207 7  93097392.63642                  22735333.925    22735334.789
  22735335.131                          42.250          15.2504
 119826850.508 5  93371587.35542                  22802297.602    22802296.860
  22802300.119                          35.750          17.7504
 112345064.980 7  87379488.967 6                  20987004.725    20987003.879
  20987006.617                          43.750          38.000
 123809195.012 6  96474687.64545                  23560113.186    23560113.041
  23560113.021                          40.500          16.2504
 102214503.001 8  79500162.974 7                  19161695.164    19161695.270
  19161703.657                          48.750          46.500
 126384048.364 5  98298707.298 5                  23667672.472    23667672.943
  23667689.827                          35.750          33.500
 113757698.822 7  88478208.540 6                  21310649.334    21310649.108
  21310658.070                          43.000          39.750
 125725326.75117                  93885791.012 8  23924738.091
                  23924740.976          46.000                          48.500
 11 10  1  0 16 30.0000000  0 17R21G06R20G32G01G03G19R08G11G23G20R07
                                G31R04R09R22E01
 102561219.205 8  79769812.862 7                  19166014.576    19166014.909
  19166021.457                          48.750          45.500
 112787379.547 7  87886262.98744                  21462729.893    21462729.156
  21462731.532                          44.000          29.7504
 114360227.841 6  88946850.969 6                  21385948.262    21385949.878
  21385959.853                          38.000          36.500
 114540050.879 7  89251981.45545                  21796250.902    21796249.404
  21796251.802                          46.250          31.5004
 125300192.20716  97636511.44756  93568322.285 7  23843835.810    23843835.493
  23843841.207    23843844.590          36.250          18.5004         43.000
 106156106.124 7  82719043.25645                  20200839.365    20200839.257
  20200842.058                          46.000          35.2504
 105088395.438 8  81887067.19947                  19997659.663    19997658.505
  19997658.496                          50.250          42.2504
 115803538.145 6  90069421.033 5                  21625493.757    21625493.796
  21625501.383                          40.250          30.500
 119643519.509 7  93228722.08644                  22767409.071    22767409.570
  22767411.694                          42.250          25.2504
 119380084.495 7  93023430.75943                  22717271.932    22717272.623
  22717272.617                          42.250          18.0004
 119825834.734 5  93370795.80043                  22802104.124    22802102.156
  22802106.460                          35.500          18.0004
 112402779.033 7  87424377.629 6                  20997786.646    20997784.766
  20997789.629                          43.750          39.000
 123786479.073 6  96456986.88946                  23555788.800    23555788.987
  23555791.566                          38.750          15.7504
 102235439.217 8  79516446.660 7                  19165620.193    19165620.572
  19165628.476                          48.500          46.750
 126348184.972 6  98270813.520 5                  23660953.831    23660955.454
  23660973.364                          36.500          33.750
 113653004.039 7  88396779.311 6                  21291034.658    21291035.383
  21291045.143                          42.250          40.500
 125766520.04517                  93916552.183 8  23932577.644
                  23932579.615          46.250                          48.250
 11 10  1  0 17  0.0000000  0 17R21G06R20G32G01G03G19R08G11G23G20R07
                                G31R04R09R22E01
 102560845.754 8  79769522.364 7                  19165945.267    19165944.869
  19165951.636                          48.250          45.500
 112876772.116 7  87955919.47744                  21479741.121    21479740.075
  21479743.482                          44.250          29.7504
 114464589.249 6  89028020.833 6                  21405466.251    21405466.565
  21405476.308                          38.750          36.750
 114559973.650 7  89267505.65245                  21800041.927    21800040.979
  21800043.998                          45.500          31.5004
 125245754.55416  97594092.50556  93527670.773 7  23833475.511    23833476.444
  23833482.562    23833486.053          36.750          18.7504         43.500
 106215193.263 7  82765085.13345                  20212084.054    20212083.401
  20212086.097                          46.500          35.7504
 105078644.967 8  81879469.40247                  19995804.352    19995803.123
  19995803.052                          50.250          42.2504
 115797547.041 6  90064761.236 5                  21624375.155    21624375.532
  21624383.293                          40.250          30.500
 119574746.006 6  93175132.36644                  22754322.107    22754321.836
  22754323.527                          41.500          25.2504
 119285398.038 7  92949649.16643                  22699254.934    22699254.197
  22699254.395                          43.250          19.7504
 119824996.613 6  93370142.67243                  22801943.871    22801943.863
  22801946.406                          37.250          18.0004
 112460669.414 7  87469403.434 6                  21008600.279    21008599.224
  21008603.364                          43.750          38.250
 123763893.280 6  96439387.45646                  23551492.064    23551491.679
  23551494.577                          39.000          17.0004
 102257153.266 7  79533335.319 8                  19169690.523    19169690.683
  19169698.858                          47.750          46.500
 126312302.258 5  98242904.700 5                  23654236.075    23654235.521
  23654253.563                          35.500          33.750
 113548630.279 7  88315599.740 7                  21271481.802    21271482.980
  21271492.429                          42.250          40.500
 125808082.92317                  93947589.346 8  23940486.436
                  23940488.850          46.250                          48.000
 11 10  1  0 17 30.0000000  0 17R21G06R20G32G01G03G19R08G11G23G20R07
                                G31R04R09R22E01
 102561237.870 8  79769827.321 7                  19166018.869    19166018.284
  19166024.845                          48.750          45.500
 112966517.211 7  88025850.62845                  21496818.945    21496818.375
  21496821.273                          44.250          30.2504
 114569446.906 6  89109576.669 6                  21425076.043    21425074.675
  21425085.999                          37.500          37.250
 114580069.705 7  89283164.91145                  21803865.928    21803864.773
  21803867.244                          45.750          31.2504
 125191157.82716  97551549.56556  93486900.465 7  23823087.058    23823086.008
  23823092.092    23823097.010          36.750          18.5004         43.750
 106274773.062 7  82811510.89245                  20223421.488    20223421.201
  20223423.420                          46.250          35.5004
 105069494.079 8  81872338.81347                  19994063.180    19994061.734
  19994061.798                          50.000          42.2504
 115792010.865 6  90060455.289 5                  21623342.416    21623342.198
  21623350.003                          40.250          31.250
 119505941.689 6  93121518.61744                  22741228.869    22741229.081
  22741231.335                          41.500          24.7504
 119190944.948 7  92876049.41043                  22681280.279    22681278.944
  22681280.456                          43.250          18.5004
 119824333.379 5  93369625.83442                  22801818.696    22801817.511
  22801819.926                          35.750          16.5004
 112518731.842 7  87514563.014 6                  21019448.002    21019445.810
  21019449.883                          42.750          38.000
 123741439.388 6  96421890.94346                  23547219.599    23547219.303
  23547220.121                          39.500          15.7504
 102279644.355 8  79550828.359 8                  19173906.714    19173907.115
  19173915.266                          48.000          46.500
 126276402.792 6  98214982.933 5                  23647513.912    23647514.824
  23647530.213                          37.000          33.500
 113444581.200 7  88234672.708 7                  21251991.735    21251990.978
  21252000.455                          42.500          40.750
 125850014.24117                  93978901.653 8  23948465.529
                  23948468.164          46.000                          48.250
 11 10  1  0 18  0.0000000  0 17R21G06R20G32G01G03G19R08G11G23G20R07
                                G31R04R09R22E01
 102562392.310 8  79770725.184 7                  19166234.600    19166234.313
  19166241.010                          48.750          45.750
 113056607.757 7  88096050.99245                  21513962.465    21513961.723
  21513964.613                          44.250          30.5004
 114674793.143 6  89191512.524 6                  21444775.000    21444774.955
  21444786.360                          37.500          37.250
 114600332.930 7  89298954.35545                  21807721.538    21807720.539
  21807723.359                          45.500          31.2504
 125136398.92316  97508880.23157  93446009.057 7  23812668.510    23812666.132
  23812673.485    23812677.360          37.250          18.2504         44.250
 106334838.924 7  82858315.39345                  20234852.113    20234851.457
  20234853.710                          46.500          35.2504
 105060939.563 8  81865672.92747                  19992435.326    19992434.376
  19992434.031                          50.500          42.5004
 115786922.821 6  90056497.895 5                  21622391.510    21622391.265
  21622399.534                          40.500          30.500
 119437103.982 6  93067878.88544                  22728130.251    22728128.912
  22728131.146                          41.250          25.0004
 119096723.730 7  92802630.28143                  22663350.378    22663349.193
  22663349.801                          42.000          18.2504
 119823839.101 6  93369240.68142                  22801723.920    22801723.112
  22801727.177                          36.250          17.0004
 112576959.758 7  87559851.366 6                  21030325.972    21030324.099
  21030326.998                          44.250          37.750
 123719115.221 6  96404495.38546                  23542970.849    23542970.515
  23542971.285                          39.500          16.5004
 102302907.796 7  79568922.111 8                  19178267.885    19178267.872
  19178276.396                          47.250          46.500
 126240485.486 6  98187047.234 5                  23640788.751    23640787.736
  23640804.095                          39.000          34.000
 113340856.746 6  88153998.183 7                  21232559.733    21232558.998
  21232569.670                          41.500          41.000
 125892308.87217                  94010485.257 8  23956513.607
                  23956516.658          46.250                          48.000
 11 10  1  0 18 30.0000000  0 17R21G06R20G32G01G03G19R08G11G23G20R07
                                G31R04R09R22E01
 102564306.943 8  79772214.310 7                  19166592.084    19166591.959
  19166598.546                          48.500          45.500
 113147038.279 7  88166516.25445                  21531171.344    21531170.889
  21531173.138                          44.000          30.7504
 114780621.048 6  89273822.986 6                  21464565.817    21464565.437
  21464577.146                          38.500          37.750
 114620758.353 7  89314870.23345                  21811608.331    21811607.648
  21811610.657                          45.500          31.2504
 125081475.22716  97466082.54056  93404994.600 7  23802215.931    23802214.955
  23802222.520    23802225.437          36.750          18.7504         44.250
 106395385.816 7  82905494.73545                  20246373.902    20246372.728
  20246375.717                          46.000          35.5004
 105052979.065 8  81859469.92147                  19990920.245    19990918.763
  19990919.191                          50.000          42.5004
 115782278.375 6  90052885.492 5                  21621523.093    21621523.091
  21621532.049                          39.250          30.750
 119368231.571 6  93014212.08644                  22715022.909    22715022.720
  22715025.675                          41.000          25.2504
 119002734.182 7  92729391.67743                  22645464.314    22645463.487
  22645464.061                          42.250          19.0004
 119823509.216 6  93368983.59042                  22801662.356    22801661.426
  22801664.210                          36.750          17.5004
 112635344.016 7  87605261.269 6                  21041230.362    21041230.104
  21041234.457                          43.000          38.500
 123696920.355 6  96387200.77946                  23538744.981    23538745.656
  23538747.843                          37.250          14.5004
 102326940.850 7  79587614.440 8                  19182773.024    19182773.336
  19182781.695                          47.250          46.500
 126204550.861 6  98159098.090 5                  23634059.511    23634057.976
  23634073.996                          39.000          32.500
 113237458.104 7  88073577.034 7                  21213190.765    21213189.864
  21213199.170                          42.000          40.750
 125934963.29317                  94042337.537 7  23964631.066
                  23964633.322          46.500                          47.750
 11 10  1  0 19  0.0000000  0 17R21G06R20G32G01G03G19R08G11G23G20R07
                                G31R04R09R22E01
 102566990.386 8  79774301.402 7                  19167093.766    19167093.235
  19167100.015                          48.500          45.500
 113237813.066 7  88237249.78145                  21548444.771    21548444.723
  21548448.316                          44.750          31.2504
 114886935.023 6  89356511.514 6                  21484445.662    21484446.523
  21484458.754                          37.250          38.750
 114641351.349 7  89330916.70945                  21815527.344    21815526.130
  21815529.217                          45.000          31.2504
 125026394.72716  97423162.63656  93363863.026 7  23791733.343    23791732.897
  23791740.101    23791743.336          36.250          18.2504         43.750
 106456418.720 7  82953052.81045                  20257987.636    20257986.989
  20257989.726                          45.750          34.7504
 105045620.600 8  81853736.02347                  19989519.853    19989518.512
  19989518.743                          49.750          42.2504
 115778082.867 6  90049622.279 5                  21620741.722    21620740.309
  21620746.597                          40.750          29.750
 119299333.574 6  92960525.35744                  22701912.634    22701911.569
  22701915.165                          41.500          25.5004
 118908986.203 7  92656341.33543                  22627624.205    22627624.098
  22627624.971                          42.000          19.5004
 119823349.148 5  93368858.78942                  22801630.251    22801630.101
  22801633.598                          35.250          15.2504
 112693889.996 7  87650796.996 6                  21052169.094    21052167.067
  21052171.009                          43.250          38.250
 123674864.785 6  96370014.54346                  23534548.970    23534547.522
  23534553.018                          37.000          16.5004
 102351750.562 7  79606910.856 7                  19187425.059    19187424.622
  19187432.536                          47.750          46.250
 126168609.195 6  98131143.474 5                  23627327.062    23627328.370
  23627342.067                          40.000          30.250
 113134396.924 6  87993418.391 7                  21193881.978    21193882.391
  21193891.434                          41.250          40.500
 125977984.00717                  94074463.347 7  23972817.883
                  23972819.893          47.000                          47.750
 11 10  1  0 19 30.0000000  0 17R21G06R20G32G01G03G19R08G11G23G20R07
                                G31R04R09R22E01
 102570438.634 8  79776983.343 7                  19167738.269    19167738.010
  19167744.510                          48.500          45.250
 113328924.724 7  88308245.79945                  21565783.177    21565782.332
  21565785.476                          43.500          30.7504
 114993726.049 6  89439571.070 6                  21504418.367    21504417.510
  21504429.444                          37.500          38.250
 114662105.194 7  89347088.49945                  21819476.834    21819475.960
  21819478.372                          45.500          31.0004
 124971153.94616  97380117.84456  93322611.761 7  23781222.097    23781221.752
  23781229.291    23781231.060          37.000          18.7504         44.000
 106517931.248 7  83000984.61045                  20269693.657    20269692.139
  20269694.605                          46.250          34.5004
 105038860.622 8  81848468.48147                  19988233.960    19988232.963
  19988232.027                          50.500          42.2504
 115774328.896 6  90046702.467 5                  21620040.217    21620039.830
  21620048.132                          41.250          31.000
 119230407.054 7  92906816.37944                  22688797.465    22688796.057
  22688798.256                          42.000          26.0004
 118815478.051 7  92583477.85243                  22609830.837    22609830.550
  22609831.898                          42.250          20.0004
 119823352.446 5  93368861.33242                  22801630.578    22801630.002
  22801632.949                          35.500          14.7504
 112752590.271 7  87696452.694 6                  21063134.857    21063132.409
  21063137.386                          42.750          38.500
 123652946.288 6  96352935.18646                  23530378.509    23530378.605
  23530382.996                          38.500          17.7504
 102377331.898 7  79626807.378 8                  19192220.991    19192220.585
  19192228.592                          47.750          46.250
 126132659.263 6  98103182.418 5                  23620596.004    23620594.901
  23620610.466                          38.500          30.250
 113031672.976 7  87913522.018 6                  21174641.144    21174640.170
  21174648.240                          43.000          40.250
 126021365.59217                  94106858.632 8  23981073.391
                  23981075.167          47.000                          48.000
 11 10  1  0 20  0.0000000  0 17R21G06R20G32G01G03G19R08G11G23G20R07
                                G31R04R09R22E01
 102574656.039 8  79780263.508 7                  19168526.037    19168525.987
  19168532.420                          48.750          45.500
 113420373.867 7  88379504.79744                  21583185.320    21583184.778
  21583187.618                          44.250          29.7504
 115100994.745 6  89523002.122 6                  21524476.504    21524477.098
  21524488.439                          36.750          37.500
 114683021.448 7  89363386.86844                  21823456.630    21823455.728
  21823458.806                          44.750          29.5004
 124915756.53616  97336951.06456  93281243.529 7  23770681.014    23770680.608
  23770686.675    23770689.514          36.750          18.2504         44.250
 106579924.034 7  83049290.60145                  20281490.463    20281489.506
  20281491.282                          46.500          34.7504
 105032702.664 8  81843670.03647                  19987062.184    19987060.904
  19987060.566                          50.500          42.5004
 115771018.607 6  90044127.775 5                  21619421.265    21619421.596
  21619431.164                          41.250          32.000
 119161457.293 7  92853089.27944                  22675676.676    22675675.641
  22675677.766                          43.000          26.2504
 118722215.611 7  92510805.80743                  22592084.249    22592083.656
  22592084.596                          42.250          18.7504
 119823520.682 6  93368992.42442                  22801662.256    22801662.101
  22801665.333                          36.750          16.5004
 112811443.417 7  87742227.298 6                  21074127.768    21074127.323
  21074131.758                          43.250          39.250
 123631170.661 6  96335967.15746                  23526235.927    23526234.971
  23526237.481                          39.250          17.7504
 102403688.305 7  79647306.769 8                  19197161.340    19197161.150
  19197169.240                          47.500          46.250
 126096708.069 6  98075220.342 5                  23613861.806    23613862.222
  23613877.765                          37.750          30.500
 112929294.083 7  87833894.028 7                  21155461.046    21155460.378
  21155469.744                          43.250          40.750
 126065110.85817                  94139525.496 8  23989397.223
                  23989399.618          46.250                          48.000
