     2.11           OBSERVATION DATA    G (GPS)             RINEX VERSION / TYPE
teqc  2016Apr1                          20160930 07:51:16UTCPGM / RUN BY / DATE
Linux 2.4.20-8|Pentium IV|gcc|Linux|486/DX+                 COMMENT
teqc  2016Apr1                          20160816 03:20:33UTCCOMMENT
teqc  2010Mar17     gpsops              20111002 00:07:46UTCCOMMENT
Linux 2.4.21-27.ELsmp|Opteron|gcc -static|Linux x86_64|=+   COMMENT
     2.10           OBSERVATION DATA    GPS                 COMMENT
soc2rnx ver 1.20    gpsops               2-Oct-2011 00:07:45COMMENT
S1, if present, is the SNR for the C/A data stream on L1.   COMMENT
 SNR is mapped to RINEX snr flag value [1,4-9]              COMMENT
    SNR:   >316  >100  >31.6  >10  >3.2    >0 bad=0         COMMENT
L1 & L2:      9     8     7     6     5     4     1         COMMENT
                                                            COMMENT
This data is provided as a public service by NASA/JPL.      COMMENT
No warranty is expressed or implied regarding suitability   COMMENT
for use.  For further information, contact:                 COMMENT
Dave Stowers, NASA/JPL m/s 238-600                          COMMENT
4800 Oak Grove Drive, Pasadena CA 91109 USA                 COMMENT
                                                            COMMENT
Forced Modulo Decimation to 30 seconds                      COMMENT
SUTH                                                        MARKER NAME
30314M002                                                   MARKER NUMBER
GGN                 JPL                                     OBSERVER / AGENCY
ZR220001909         ASHTECH UZ-12       CQ00                REC # / TYPE / VERS
CR6200342011        ASH701945G_M    NONE                    ANT # / TYPE
  5041274.8417  1916054.1204 -3397075.9716                  APPROX POSITION XYZ
        0.0840        0.0000        0.0000                  ANTENNA: DELTA H/E/N
     1     1                                                WAVELENGTH FACT L1/2
     7    L1    L2    P1    P2    C1    S1    S2            # / TYPES OF OBSERV
    30.0000                                                 INTERVAL
teqc windowed: start @ 2011 Oct  1 00:10:00.000             COMMENT
teqc windowed:  end  @ 2011 Oct  1 00:20:00.000             COMMENT
  2011    10     1     0    10    0.0000000     GPS         TIME OF FIRST OBS
                                                            END OF HEADER
 11 10  1  0 10  0.0000000  0  7G07G20G32G28G17G04G11
 128847323.60047 100400496.47247  24518842.1314   24518845.8414   24518842.5134
        46.000          40.000
 116526874.79347  90800155.12347  22174333.1994   22174336.5654   22174334.3074
        52.000          46.000
 121758047.35647  94876381.97347  23169799.9324   23169804.3454   23169801.1294
        49.000          43.000
 105055058.86547  81861080.32847  19991315.2354   19991317.6674   19991316.1974
        55.000          51.000
 112713752.72547  87828889.49147  21448721.7024   21448724.1554   21448722.2944
        54.000          49.000
 122120569.35047  95158859.60147  23238790.9434   23238794.3094   23238791.2314
        49.000          43.000
 121628044.98747  94775085.71147  23145057.7184   23145060.3454   23145058.4344
        49.000          43.000
 11 10  1  0 10 30.0000000  0  7G07G20G32G28G17G04G11
 128950501.59847 100480894.87447  24538475.9304   24538479.9974   24538476.5094
        45.000          39.000
 116492099.74447  90773057.69547  22167715.7914   22167719.2714   22167716.8864
        53.000          46.000
 121741803.43847  94863724.38447  23166709.1724   23166713.2224   23166710.7624
        49.000          43.000
 105044155.20047  81852583.96447  19989240.0314   19989242.7374   19989240.8054
        55.000          51.000
 112673787.40447  87797747.69347  21441116.2704   21441119.2514   21441116.5114
        54.000          49.000
 122034645.03647  95091905.59947  23222440.0934   23222443.7524   23222440.8234
        49.000          43.000
 121705856.46247  94835718.01147  23159865.1114   23159867.5084   23159865.5914
        49.000          43.000
 11 10  1  0 11  0.0000000  0  7G07G20G32G28G17G04G11
 129053615.81647 100561243.57247  24558097.8464   24558101.7124   24558098.5114
        45.000          38.000
 116457782.20847  90746316.76147  22161185.4144   22161188.6744   22161186.5704
        52.000          46.000
 121726070.72447  94851465.13747  23163715.0214   23163718.8964   23163716.4164
        49.000          43.000
 105033753.16947  81844478.48147  19987260.9274   19987263.1734   19987261.8974
        55.000          51.000
 112633981.82547  87766730.36947  21433541.3124   21433544.3204   21433541.3094
        54.000          49.000
 121948957.10847  95025135.80047  23206134.0654   23206137.9084   23206134.3114
        49.000          43.000
 121783750.59647  94896414.74347  23174687.7244   23174690.4444   23174688.4194
        49.000          43.000
 11 10  1  0 11 30.0000000  0  7G07G20G32G28G17G04G11
 129156661.29447 100641538.71747  24577707.3144   24577710.0404   24577707.2894
        44.000          38.000
 116423922.18247  90719932.33447  22154742.0474   22154745.3544   22154743.2474
        52.000          46.000
 121710848.54347  94839603.71447  23160818.1614   23160822.5454   23160819.1874
        49.000          43.000
 105023852.09647  81836763.35547  19985376.9804   19985379.0514   19985377.9334
        55.000          51.000
 112594334.05747  87735836.01147  21425996.9084   21425999.3094   21425997.1934
        54.000          49.000
 121863504.76447  94958549.56847  23189873.1154   23189876.7234   23189873.5014
        49.000          43.000
 121861724.10947  94957173.31847  23189525.6784   23189528.3304   23189526.7674
        49.000          43.000
 11 10  1  0 12  0.0000000  0  7G07G20G32G28G17G04G11
 129259638.19347 100721780.40447  24597303.2454   24597305.8204   24597303.4544
        43.000          38.000
 116390523.94147  90693907.74447  22148386.4344   22148389.9834   22148387.7054
        52.000          46.000
 121696140.71847  94828143.08247  23158019.1174   23158024.0114   23158019.9784
        49.000          43.000
 105014455.61947  81829441.42547  19983588.6244   19983590.9554   19983589.6064
        55.000          51.000
 112554846.23247  87705066.28447  21418482.8744   21418484.9814   21418483.2534
        54.000          49.000
 121778291.41547  94892149.57247  23173657.3864   23173660.9184   23173657.9634
        49.000          43.000
 121939778.06247  95017994.56847  23204378.6354   23204381.4864   23204379.3284
        49.000          43.000
 11 10  1  0 12 30.0000000  0  7G07G20G32G28G17G04G11
 129362542.92347 100801965.87647  24616884.8914   24616888.5204   24616884.6694
        44.000          38.000
 116357588.08947  90668243.45447  22142119.1404   22142122.5374   22142120.2384
        53.000          46.000
 121681947.41147  94817083.36247  23155318.4114   23155322.7484   23155319.1074
        49.000          43.000
 105005563.40647  81822512.43447  19981896.3814   19981898.9384   19981897.2394
        55.000          51.000
 112515517.16347  87674420.27147  21410998.8544   21411001.0324   21410999.4634
        54.000          49.000
 121693317.55147  94825936.18847  23157487.3284   23157491.0574   23157487.5564
        49.000          43.000
 122017909.78647  95078876.42647  23219246.4744   23219249.4484   23219247.2264
        49.000          43.000
 11 10  1  0 13  0.0000000  0  7G07G20G32G28G17G04G11
 129465372.67147 100882092.89447  24636452.3214   24636456.8524   24636452.8234
        44.000          39.000
 116325116.19947  90642940.68747  22135939.9364   22135943.2034   22135940.9994
        52.000          46.000
 121668269.72047  94806425.43147  23152715.9824   23152719.7294   23152717.0034
        49.000          43.000
 104997176.76647  81815977.38947  19980300.6104   19980303.0024   19980301.5124
        55.000          51.000
 112476346.63347  87643897.79047  21403544.6304   21403547.2834   21403545.1044
        54.000          49.000
 121608583.89847  94759909.98147  23141362.7674   23141366.9784   23141362.9434
        48.000          43.000
 122096117.89247  95139817.79547  23234129.3054   23234131.6904   23234129.9144
        49.000          43.000
 11 10  1  0 13 30.0000000  0  7G07G20G32G28G17G04G11
 129568124.81047 100962159.44647  24656005.6314   24656009.9684   24656006.4144
        45.000          40.000
 116293110.15547  90618000.92247  22129849.2654   22129852.6284   22129850.5714
        52.000          46.000
 121655109.20547  94796170.49747  23150211.5494   23150215.5604   23150212.9734
        49.000          43.000
 104989297.11647  81809837.39347  19978801.2824   19978803.4844   19978802.2704
        55.000          51.000
 112437334.76647  87613498.94347  21396120.7564   21396123.6054   21396121.0164
        54.000          49.000
 121524092.22347  94694072.32747  23125284.8614   23125288.8234   23125285.1174
        49.000          43.000
 122174401.21947  95200817.78547  23249026.1124   23249028.5654   23249027.0554
        49.000          43.000
 11 10  1  0 14  0.0000000  0  7G07G20G32G28G17G04G11
 129670796.42947 101042163.24847  24675543.8294   24675547.9614   24675544.0264
        46.000          41.000
 116261571.45947  90593425.31947  22123847.6584   22123851.1644   22123848.8554
        52.000          46.000
 121642466.31247  94786318.89447  23147805.7684   23147809.6274   23147807.0744
        49.000          44.000
 104981925.05647  81804092.92847  19977398.4424   19977400.5614   19977399.4774
        55.000          51.000
 112398480.46447  87583222.86947  21388727.0204   21388730.0194   21388727.0674
        54.000          49.000
 121439842.69447  94628423.36047  23109252.5294   23109256.6894   23109253.0454
        49.000          43.000
 122252757.78447  95261874.84147  23263937.1104   23263939.2834   23263937.8144
        49.000          43.000
 11 10  1  0 14 30.0000000  0  7G07G20G32G28G17G04G11
 129773386.94447 101122103.85247  24695066.4984   24695070.3294   24695066.5904
        47.000          41.000
 116230503.77347  90569216.73547  22117935.8374   22117939.1004   22117936.9194
        52.000          46.000
 121630344.47947  94776873.30747  23145498.7634   23145502.9734   23145499.6394
        48.000          43.000
 104975063.90147  81798746.57747  19976092.5294   19976095.0064   19976093.5344
        55.000          51.000
 112359786.07647  87553071.40347  21381363.9634   21381366.5534   21381364.1214
        55.000          49.000
 121355838.96747  94562965.92047  23093267.0994   23093271.0934   23093267.4614
        49.000          43.000
 122331188.04547  95322989.33147  23278861.9024   23278864.0784   23278862.5824
        49.000          43.000
 11 10  1  0 15  0.0000000  0  7G07G20G32G28G17G04G11
 129875893.21647 101201978.81547  24714572.8214   24714576.7194   24714573.0844
        46.000          42.000
 116199908.33947  90545376.13547  22112113.5364   22112116.9994   22112114.5374
        52.000          46.000
 121618744.40947  94767834.29947  23143290.9824   23143295.8074   23143291.7934
        49.000          43.000
 104968714.16247  81793798.72847  19974884.2374   19974886.6994   19974885.0534
        55.000          51.000
 112321250.91547  87523044.01547  21374031.1274   21374033.3844   21374031.5934
        55.000          49.000
 121272081.37147  94497700.27647  23077328.5244   23077332.4804   23077328.7804
        49.000          43.000
 122409690.22647  95384159.85647  23293800.0454   23293802.5304   23293800.9524
        49.000          43.000
 11 10  1  0 15 30.0000000  0  7G07G20G32G28G17G04G11
 129978308.20847 101281782.62447  24734062.1224   24734065.5734   24734062.1244
        46.000          42.000
 116169782.46447  90521901.43347  22106380.9304   22106384.2794   22106382.0284
        52.000          47.000
 121607662.84547  94759199.31547  23141182.6954   23141186.9694   23141183.7904
        49.000          43.000
 104962872.35347  81789246.66347  19973772.8304   19973775.1104   19973773.6904
        55.000          51.000
 112282870.49347  87493137.20447  21366727.6434   21366729.5624   21366728.2754
        55.000          49.000
 121188566.90047  94432624.06647  23061436.3644   23061440.1174   23061436.4024
        49.000          43.000
 122488258.51647  95445381.89547  23308751.2694   23308753.3604   23308751.8204
        49.000          43.000
 11 10  1  0 16  0.0000000  0  7G07G20G32G28G17G04G11
 130080635.06347 101361517.77247  24753534.3124   24753537.7694   24753534.4434
        45.000          41.000
 116140133.26747  90498798.17447  22100738.7054   22100742.0894   22100739.7944
        52.000          46.000
 121597106.33647  94750973.47647  23139173.6924   23139178.0644   23139174.9964
        49.000          44.000
 104957545.11647  81785095.56747  19972759.1184   19972761.4324   19972760.0764
        55.000          51.000
 112244650.18047  87463355.14547  21359454.1604   21359456.6764   21359454.3134
        54.000          49.000
 121105302.10147  94367742.41847  23045591.5354   23045595.1884   23045591.8634
        50.000          43.000
 122566896.96247  95506658.59947  23323715.6354   23323717.9094   23323716.0914
        49.000          42.000
 11 10  1  0 16 30.0000000  0  7G07G20G32G28G17G04G11
 130182869.09047 101441180.56447  24772988.3034   24772992.2384   24772988.1394
        45.000          41.000
 116110960.44247  90476066.10947  22095187.3304   22095190.7724   22095188.3984
        52.000          47.000
 121587073.99147  94743156.06547  23137264.8264   23137268.9194   23137266.2214
        49.000          43.000
 104952731.72747  81781344.87347  19971843.0374   19971845.3254   19971843.8514
        55.000          51.000
 112206587.83947  87433696.17547  21352211.0934   21352213.8564   21352211.1404
        54.000          49.000
 121022286.18347  94303054.68847  23029794.0464   23029798.0174   23029794.8024
        50.000          43.000
 122645602.13747  95567987.30747  23338692.8334   23338695.3864   23338693.6054
        49.000          42.000
 11 10  1  0 17  0.0000000  0  7G07G20G32G28G17G04G11
 130285007.26147 101520768.68247  24792424.2384   24792428.6284   24792424.3184
        43.000          39.000
 116082265.42047  90453706.34647  22089726.8864   22089730.2874   22089727.9584
        53.000          47.000
 121577566.66847  94735747.77547  23135455.6974   23135459.5114   23135457.0604
        49.000          43.000
 104948432.95147  81777995.17847  19971024.7904   19971027.2204   19971025.7654
        55.000          51.000
 112168682.89547  87404159.86047  21344998.1754   21345000.8664   21344998.5074
        55.000          49.000
 120939520.00447  94238561.56547  23014044.2404   23014048.0544   23014044.6254
        50.000          43.000
 122724372.57747  95629366.86947  23353682.3614   23353684.8534   23353683.2614
        49.000          42.000
 11 10  1  0 17 30.0000000  0  7G07G20G32G28G17G04G11
 130387055.36447 101600286.61247  24811843.2824   24811847.5204   24811842.7184
        41.000          38.000
 116054057.42147  90431726.08547  22084359.0914   22084362.2844   22084360.1684
        53.000          47.000
 121568593.23347  94728755.49647  23133748.1804   23133752.0574   23133749.1344
        50.000          43.000
 104944657.59447  81775053.33747  19970306.4784   19970308.8574   19970307.4504
        55.000          51.000
 112130943.45447  87374752.50747  21337816.7934   21337819.2624   21337817.3624
        55.000          49.000
 120857012.59447  94174270.08947  22998343.6424   22998347.4874   22998343.9394
        50.000          43.000
 122803214.79647  95690802.35347  23368685.4164   23368688.1094   23368686.2844
        48.000          42.000
 11 10  1  0 18  0.0000000  0  7G07G20G32G28G17G04G11
 130488994.87747 101679719.87747  24831241.9194   24831246.5274   24831240.6004
        39.000          36.000
 116026322.20447  90410114.23147  22079081.3524   22079084.3544   22079082.4194
        53.000          47.000
 121560138.95747  94722167.75247  23132138.8574   23132143.2454   23132140.0684
        49.000          43.000
 104941390.76647  81772507.75247  19969685.1284   19969687.2744   19969686.0124
        55.000          51.000
 112093353.33847  87345461.51347  21330663.6064   21330665.8854   21330664.1434
        55.000          49.000
 120774749.10847  94110168.67647  22982689.3134   22982693.1494   22982689.9224
        50.000          43.000
 122882111.50647  95752280.29947  23383698.7704   23383701.4574   23383699.5084
        48.000          42.000
 11 10  1  0 18 30.0000000  0  7G07G20G32G28G17G04G11
 130590844.25947 101759082.90747  24850622.7864   24850627.3884   24850623.2504
        40.000          35.000
 115999082.65747  90388888.62047  22073897.6994   22073901.0294   22073898.8934
        52.000          47.000
 121552225.94147  94716001.77947  23130632.9344   23130637.5094   23130633.6844
        49.000          43.000
 104938654.54247  81770375.62947  19969164.4654   19969166.6244   19969165.5914
        54.000          51.000
 112055933.65947  87316303.32547  21323542.7534   21323545.0694   21323543.3094
        55.000          49.000
 120692751.92747  94046274.77847  22967085.8844   22967089.7054   22967086.3644
        50.000          44.000
 122961082.31547  95813815.98847  23398726.4074   23398728.8804   23398727.2284
        48.000          42.000
 11 10  1  0 19  0.0000000  0  7G07G20G32G28G17G04G11
 130692577.06047 101838355.18747  24869983.3784   24869986.5294   24869983.7654
        43.000          36.000
 115972316.81947  90368032.12547  22068804.1974   22068807.6814   22068805.2914
        53.000          47.000
 121544831.72147  94710240.05047  23129226.3064   23129230.2284   23129227.2464
        50.000          43.000
 104936426.46847  81768639.46647  19968740.1254   19968742.6744   19968740.9344
        54.000          51.000
 112018660.79747  87287259.54047  21316449.6924   21316452.4894   21316449.9314
        54.000          49.000
 120610998.28547  93982570.64247  22951528.6644   22951532.6544   22951528.8254
        50.000          44.000
 123040102.48347  95875390.13647  23413763.7494   23413766.2744   23413764.2904
        48.000          42.000
 11 10  1  0 19 30.0000000  0  7G07G20G32G28G17G04G11
 130794202.47047 101917543.80347  24889322.5404   24889325.1514   24889322.6404
        45.000          37.000
 115946037.14847  90347554.46447  22063803.5984   22063806.7714   22063804.5224
        53.000          47.000
 121537968.04047  94704891.74547  23127920.1364   23127923.8494   23127921.3694
        49.000          43.000
 104934718.24247  81767308.37847  19968415.0974   19968417.4464   19968415.8764
        54.000          51.000
 111981545.69247  87258338.67547  21309387.0104   21309389.7674   21309386.9314
        54.000          50.000
 120529500.51447  93919065.88347  22936020.3844   22936023.9534   22936020.6174
        50.000          44.000
 123119181.61247  95937010.23647  23428812.1594   23428814.4254   23428812.4844
        48.000          43.000
 11 10  1  0 20  0.0000000  0  7G07G20G32G28G17G04G11
 130895717.48847 101996646.38647  24908640.1784   24908642.4864   24908639.6114
        45.000          38.000
 115920244.90247  90327456.62347  22058895.2434   22058898.7004   22058896.2604
        52.000          47.000
 121531635.97247  94699957.66647  23126715.3264   23126719.2564   23126716.6564
        50.000          43.000
 104933531.19547  81766383.40147  19968189.3074   19968191.5274   19968190.2354
        55.000          51.000
 111944588.06547  87229540.53047  21302354.6634   21302356.9944   21302355.0484
        55.000          50.000
 120448259.52047  93855761.22147  22920560.8344   22920564.4504   22920561.4274
        50.000          44.000
 123198318.35747  95998675.22247  23443871.1504   23443873.9034   23443871.7534
        48.000          42.000
