     2.11           OBSERVATION DATA    G (GPS)             RINEX VERSION / TYPE
teqc  2016Apr1                          20160930 07:51:16UTCPGM / RUN BY / DATE
Linux 2.4.20-8|Pentium IV|gcc|Linux|486/DX+                 COMMENT
teqc  2016Apr1                          20160816 03:18:21UTCCOMMENT
teqc  2010Mar17     Mike Craymer        20111002 01:01:01UTCCOMMENT
Linux 2.4.20-8|Pentium IV|gcc -static|Linux|486/DX+         COMMENT
BIT 2 OF LLI FLAGS DATA COLLECTED UNDER A/S CONDITION       COMMENT
 SNR is mapped to RINEX snr flag value [0-9]                COMMENT
  L1 & L2: min(max(int(snr_dBHz/6), 0), 9)                  COMMENT
pseudorange smoothing corrections not applied               COMMENT
RESO                                                        MARKER NAME
40149M001                                                   MARKER NUMBER
MRC                 NRCan/GSD                               OBSERVER / AGENCY
402                 ASHTECH UZ-12       CK00                REC # / TYPE / VERS
468                 ASH700936A_M    NONE                    ANT # / TYPE
  -144107.5288 -1683119.7863  6129763.2447                  APPROX POSITION XYZ
        0.1000        0.0000        0.0000                  ANTENNA: DELTA H/E/N
     1     1                                                WAVELENGTH FACT L1/2
     7    L1    L2    C1    P2    P1    S1    S2            # / TYPES OF OBSERV
    30.0000                                                 INTERVAL
teqc windowed: start @ 2011 Oct  1 00:10:00.000             COMMENT
teqc windowed:  end  @ 2011 Oct  1 00:20:00.000             COMMENT
  2011    10     1     0    10    0.0000000     GPS         TIME OF FIRST OBS
                                                            END OF HEADER
 11 10  1  0 10  0.0000000  0 11G13G10G30G29G16G25G23G02G21G07G05
  -7209983.25547  -5553775.07846  22911980.8224   22911984.3754   22911980.3404
        46.0004         40.0004
 -13677357.51447 -10555497.35447  22545003.8504   22545005.4134   22545003.7514
        47.0004         42.0004
  -9476150.94047  -7247922.69646  23368264.8544   23368268.7164   23368264.6374
        45.0004         39.0004
 -22898228.40348 -17769890.36648  21046431.8514   21046434.4764   21046432.3794
        53.0004         48.0004
  -7815359.28447  -6017296.84446  23704690.9514   23704693.6624   23704690.6354
        44.0004         38.0004
   3476495.36646   2729131.34245  25300973.3714   25300981.2144   25300972.3894
        38.0004         35.0004
   1624067.13846   1284324.99246  24676966.4864   24676971.0254   24676966.5174
        38.0004         36.0004
 -16902830.86748 -13156280.47647  22239587.8854   22239588.2124   22239587.3404
        49.0004         44.0004
  -6940941.55047  -1520859.65846  24759308.1044   24759310.5244   24759308.1134
        42.0004         37.0004
  -1825366.96057                  24694743.8734                   24694746.0264
        42.0004
 -24994431.75448 -19397569.53348  21156950.2164   21156951.7844   21156950.8854
        53.0004         48.0004
 11 10  1  0 10 30.0000000  0 10G13G10G30G29G16G23G02G21G07G05
  -7143316.21347  -5501826.62646  22924666.8134   22924669.0914   22924667.3314
        46.0004         40.0004
 -13589112.61947 -10486735.32847  22561796.6094   22561798.2674   22561795.6454
        47.0004         42.0004
  -9378217.59447  -7171610.99046  23386901.1914   23386905.7414   23386900.1724
        45.0004         40.0004
 -22880917.62048 -17756401.19048  21049725.8254   21049728.4374   21049726.3394
        53.0004         48.0004
  -7894488.83747  -6078956.06646  23689632.7004   23689636.8624   23689631.5054
        44.0004         38.0004
   1722963.15246   1361386.79145  24695785.9634   24695788.8554   24695786.3154
        38.0004         35.0004
 -16816765.96148 -13089217.19847  22255965.9634   22255966.7014   22255965.1864
        48.0004         43.0004
  -7044111.06347  -1601251.38246  24739675.3994   24739679.3024   24739675.8804
        42.0004         37.0004
  -1921395.61656  -1133038.85755  24676472.6774   24676473.2234   24676474.4294
        41.0004         35.0004
 -25023428.23048 -19420164.33847  21151432.4494   21151434.1714   21151433.0984
        52.0004         47.0004
 11 10  1  0 11  0.0000000  0 10G13G10G30G29G16G23G02G21G07G05
  -7076106.52047  -5449455.70946  22937456.7714   22937459.9964   22937457.2104
        46.0004         40.0004
 -13500462.52147 -10417658.06847  22578666.5514   22578669.4334   22578666.5424
        47.0004         42.0004
  -9279910.33847  -7095007.86146  23405608.2384   23405612.5404   23405607.6954
        45.0004         40.0004
 -22863006.88948 -17742444.65448  21053134.0274   21053136.8114   21053134.5874
        53.0004         48.0004
  -7973170.32147  -6140266.09746  23674660.4284   23674663.3164   23674660.3914
        44.0004         38.0004
   1822142.72446   1438669.59845  24714659.5384   24714663.5494   24714659.9754
        38.0004         34.0004
 -16730336.27148 -13021869.66847  22272413.1164   22272413.6244   22272412.7174
        49.0004         43.0004
  -7147177.04547  -1681562.57946  24720062.6424   24720064.3474   24720061.5294
        42.0004         37.0004
  -2017124.53446  -1207632.46446  24658257.8814   24658259.0034   24658259.0074
        41.0004         36.0004
 -25051827.25948 -19442293.58548  21146028.4734   21146029.7624   21146028.9684
        52.0004         48.0004
 11 10  1  0 11 30.0000000  0 10G13G10G30G29G16G23G02G21G07G05
  -7008350.72847  -5396658.86546  22950350.1794   22950353.8854   22950351.8204
        47.0004         40.0004
 -13411404.32347 -10348262.52747  22595613.8344   22595615.2514   22595612.1804
        47.0004         42.0004
  -9181228.28647  -7018112.78146  23424387.2464   23424390.9404   23424385.8334
        45.0004         40.0004
 -22844492.21248 -17728017.56648  21056657.3264   21056659.9504   21056657.4684
        53.0004         48.0004
  -8051397.48247  -6201222.34446  23659774.6294   23659777.8544   23659773.9364
        44.0004         38.0004
   1921606.73646   1516173.41045  24733587.2414   24733593.5134   24733586.8374
        40.0004         35.0004
 -16643538.70448 -12954235.33247  22288930.3224   22288929.5724   22288930.6334
        49.0004         43.0004
  -7250133.03947  -1761787.69746  24700470.4574   24700475.0254   24700470.0914
        42.0004         37.0004
  -2112547.08446  -1281987.67146  24640100.3274   24640103.1744   24640100.7584
        41.0004         36.0004
 -25079623.71448 -19463953.18748  21140738.9634   21140740.8464   21140739.5474
        53.0004         49.0004
 11 10  1  0 12  0.0000000  0 10G13G10G30G29G16G23G02G21G07G05
  -6940054.02347  -5343440.78346  22963346.5854   22963349.2454   22963346.6424
        46.0004         39.0004
 -13321941.38747 -10278551.04047  22612638.0324   22612640.5414   22612637.1024
        46.0004         42.0004
  -9082176.15347  -6940929.53246  23443235.7594   23443240.4064   23443235.8784
        45.0004         40.0004
 -22825375.20748 -17713121.06748  21060294.9074   21060297.2154   21060295.3844
        53.0004         48.0004
  -8129168.40447  -6261823.04546  23644974.6384   23644979.7534   23644973.4724
        44.0004         39.0004
   2021352.21547   1593896.48246  24752569.1434   24752571.6474   24752568.6144
        43.0004         36.0004
 -16556377.07248 -12886317.24247  22305516.7344   22305516.4824   22305515.7954
        49.0004         43.0004
  -7352978.54046  -1841926.67446  24680898.7024   24680902.6044   24680898.4514
        41.0004         36.0004
  -2207661.24046  -1356102.40846  24621998.0294   24621999.3694   24621997.8754
        38.0004         36.0004
 -25106818.48848 -19485143.93148  21135563.9134   21135565.6674   21135564.4454
        53.0004         48.0004
 11 10  1  0 12 30.0000000  0 11G13G10G30G29G16G25G23G02G21G07G05
  -6871221.02047  -5289804.90146  22976445.2784   22976448.8794   22976444.3154
        46.0004         39.0004
 -13232084.66047 -10208534.91147  22629738.7864   22629742.0604   22629737.8884
        47.0004         42.0004
  -8982759.22747  -6863462.02146  23462154.5984   23462158.6754   23462154.7894
        45.0004         40.0004
 -22805659.24148 -17697757.85648  21064046.6654   21064049.1834   21064046.8754
        53.0004         48.0004
  -8206483.70647  -6322069.03646  23630262.1424   23630266.6674   23630261.8454
        44.0004         39.0004
   -220708.16157   -176802.73056  25411816.4214   25411826.0194   25411815.8074
        43.0004         37.0004
   2121372.47147   1671833.60245  24771602.9604   24771610.7424   24771603.3654
        44.0004         34.0004
 -16468856.25648 -12818119.26247  22322171.4714   22322171.4264   22322171.3104
        49.0004         43.0004
  -7455715.60047  -1921981.35646  24661348.7634   24661353.8374   24661347.8334
        42.0004         36.0004
  -2302467.76147                  24603958.1184                   24603961.5754
        44.0004
 -25133413.54348 -19505867.40548  21130503.0904   21130504.8104   21130503.8254
        53.0004         49.0004
 11 10  1  0 13  0.0000000  0 11G13G10G30G29G16G25G23G02G21G07G05
  -6801852.18447  -5235751.73946  22989646.2764   22989649.1894   22989645.6584
        46.0004         39.0004
 -13141824.59647 -10138201.94247  22646914.5954   22646917.5384   22646913.9774
        47.0004         42.0004
  -8882978.33347  -6785710.93646  23481142.4814   23481147.0104   23481141.3784
        44.0004         40.0004
 -22785342.44448 -17681926.50448  21067912.7984   21067914.9704   21067913.6264
        53.0004         48.0004
  -8283337.24147  -6381954.84946  23615637.6914   23615641.4164   23615636.8974
        43.0004         39.0004
   -104024.75847    -85880.80446  25434020.9934   25434026.9984   25434021.0254
        43.0004         37.0004
                                  24790688.780
        43.000
 -16380975.55548 -12749640.75847  22338894.3394   22338894.3244   22338894.6544
        49.0004         43.0004
  -7558339.80447  -2001948.33746  24641820.4174   24641822.3104   24641816.2354
        42.0004         36.0004
  -2396959.68246  -1503608.51046  24585977.6964   24585980.5684   24585978.9334
        39.0004         37.0004
 -25159405.68448 -19526121.19348  21125557.0974   21125559.2944   21125557.7204
        53.0004         49.0004
 11 10  1  0 13 30.0000000  0 12G13G10G30G29G16G25G23G02G21G07G05G26
  -6731949.40047  -5181282.54246  23002948.4894   23002952.1344   23002947.6744
        45.0004         39.0004
 -13051168.92547 -10067560.84647  22664165.3124   22664167.7274   22664164.2384
        46.0004         42.0004
  -8782836.25947  -6707678.28746  23500198.8784   23500202.7864   23500198.2024
        44.0004         39.0004
 -22764424.51048 -17665626.61148  21071893.1894   21071895.4694   21071893.6304
        53.0004         48.0004
  -8359727.50147  -6441479.79146  23601100.3144   23601105.4554   23601099.9194
        43.0004         39.0004
     12714.74847      5084.76546  25456235.6274   25456242.9164   25456235.8494
        44.0004         37.0004
   2322239.51547   1828352.59645  24809827.2784   24809826.9624   24809829.0434
        45.0004         34.0004
 -16292736.83148 -12680883.24247  22355685.6964   22355686.1704   22355686.0204
        48.0004         43.0004
  -7660849.19247  -2081825.44546  24622312.7394   24622317.9084   24622313.6164
        42.0004         36.0004
  -2491135.65547  -1576993.18346  24568056.8834   24568061.5414   24568058.6234
        44.0004         37.0004
 -25184794.21648 -19545904.78248  21120726.0664   21120728.1254   21120726.5464
        53.0004         48.0004
                                  25396229.548
        41.000
 11 10  1  0 14  0.0000000  0 11G13G10G30G29G16G25G23G02G21G07G05
  -6661512.56947  -5126396.66546  23016352.0974   23016354.7424   23016351.7564
        45.0004         39.0004
 -12960119.64247  -9996613.19646  22681491.6334   22681493.5784   22681490.4784
        47.0004         41.0004
  -8682335.22847  -6629365.92946  23519323.7364   23519329.1784   23519323.1004
        43.0004         39.0004
 -22742906.49648 -17648859.59148  21075988.1654   21075990.6054   21075988.6374
        53.0004         48.0004
  -8435649.93447  -6500639.91846  23586653.9424   23586656.1844   23586651.6584
        43.0004         39.0004
    129510.06047     96093.86545  25478461.2044   25478468.5744   25478461.1734
        43.0004         35.0004
   2423081.69847   1906931.12845  24829016.8104   24829017.4354   24829016.4104
        44.0004         35.0004
 -16204141.49048 -12611847.93947  22372544.7574   22372546.6344   22372544.8894
        49.0004         43.0004
  -7763241.76047  -2161612.18146  24602828.5974   24602831.3594   24602828.7254
        42.0004         36.0004
  -2584987.68557                  24550198.2214                   24550199.0994
        43.0004
 -25209576.43548 -19565215.46948  21116010.1814   21116012.0144   21116010.6884
        53.0004         48.0004
 11 10  1  0 14 30.0000000  0 11G13G10G30G29G16G25G23G02G21G07G05
  -6590551.24547  -5071101.92746  23029855.3154   23029858.9924   23029856.1994
        45.0004         39.0004
 -12868685.00347  -9925365.45646  22698890.7654   22698894.6584   22698890.2624
        46.0004         41.0004
  -8581484.24947  -6550780.87446  23538514.8814   23538519.5954   23538514.7544
        43.0004         39.0004
 -22720793.80348 -17631629.01948  21080196.1304   21080198.7274   21080196.7534
        53.0004         48.0004
  -8511108.67547  -6559438.47346  23572293.5804   23572299.8484   23572293.6474
        43.0004         39.0004
    246351.73647    187139.17245  25500695.5124   25500705.3464   25500695.8664
        44.0004         35.0004
   2524186.75447   1985714.71445  24848255.7584   24848258.4684   24848256.4394
        43.0004         35.0004
 -16115197.60748 -12542541.19347  22389470.4354   22389471.3684   22389470.9104
        48.0004         43.0004
  -7865521.27047  -2241310.83346  24583366.1394   24583370.3704   24583366.4964
        43.0004         37.0004
  -2678522.44046  -1723009.23956  24532397.9394   24532398.7114   24532397.9734
        41.0004         38.0004
 -25233758.77048 -19584058.86548  21111408.3814   21111410.2304   21111408.8444
        53.0004         48.0004
 11 10  1  0 15  0.0000000  0 11G13G10G30G29G16G25G23G02G21G07G05
  -6519062.57547  -5015396.19946  23043459.0704   23043462.0314   23043460.2674
        45.0004         39.0004
 -12776862.91547  -9853816.24346  22716364.5434   22716367.6474   22716364.2334
        47.0004         41.0004
  -8480280.53347  -6471920.57246  23557773.4214   23557778.0894   23557772.0284
        44.0004         39.0004
 -22698080.63448 -17613930.17848  21084518.1184   21084520.1934   21084518.4824
        53.0004         48.0004
  -8586095.76547  -6617869.78246  23558023.3844   23558027.7554   23558022.9404
        44.0004         39.0004
                    278223.72045  25522939.179    25522945.1414
        40.000          32.0004
   2625556.38047   2064704.07046  24867546.2384   24867551.1054   24867543.8144
        42.0004         36.0004
 -16025901.36648 -12472959.83747  22406462.9994   22406463.3444   22406462.3404
        49.0004         43.0004
  -7967680.74847  -2320916.15646  24563925.3184   24563928.9824   24563924.8494
        44.0004         37.0004
  -2771729.70247                  24514660.8754                   24514661.0224
        43.0004
 -25257335.10748 -19602430.32048  21106922.2004   21106923.8794   21106922.5124
        52.0004         48.0004
 11 10  1  0 15 30.0000000  0 11G13G10G30G29G16G25G23G02G21G07G05
  -6447050.10847  -4959282.36346  23057162.2334   23057166.4654   23057163.7604
        45.0004         39.0004
 -12684655.81747  -9781967.23646  22733911.3874   22733912.4674   22733910.3444
        46.0004         41.0004
  -8378728.09347  -6392788.47146  23577098.0574   23577102.3454   23577097.6034
        44.0004         39.0004
 -22674769.63148 -17595765.86948  21088954.1264   21088956.5224   21088954.4184
        52.0004         48.0004
  -8660608.90347  -6675931.75446  23543844.7024   23543849.0074   23543843.9194
        44.0004         39.0004
                                  25545192.136
        40.000
   2727188.48146   2143898.18546  24886886.1644   24886887.5714   24886886.2474
        41.0004         36.0004
 -15936255.07848 -12403105.69447  22423522.2774   22423522.7584   22423522.7114
        48.0004         43.0004
  -8069717.44847  -2400425.19746  24544508.9134   24544512.7484   24544507.8814
        44.0004         37.0004
  -2864610.07647                  24496982.9094                   24496983.3984
        42.0004
 -25280304.60948 -19620328.83048  21102551.2854   21102552.9744   21102551.7624
        53.0004         48.0004
 11 10  1  0 16  0.0000000  0 11G13G10G30G29G16G25G23G02G21G07G05
  -6374515.37547  -4902761.60046  23070964.9004   23070968.2104   23070966.1614
        45.0004         39.0004
 -12592064.85947  -9709818.39646  22751530.7464   22751533.2774   22751530.2314
        47.0004         41.0004
  -8276830.33347  -6313387.61946  23596488.3424   23596493.5904   23596487.8654
        43.0004         38.0004
 -22650860.56048 -17577135.48848  21093503.7864   21093506.1414   21093504.2514
        53.0004         48.0004
  -8734646.41147  -6733623.64546  23529755.5534   23529759.9774   23529755.3484
        44.0004         39.0004
                                  25567452.925
        37.000
   2829080.22245   2223294.67545  24906274.8404   24906276.8304   24906274.7834
        34.0004         34.0004
 -15846260.68348 -12332980.26047  22440647.7164   22440648.2174   22440646.9534
        49.0004         43.0004
  -8171629.91847  -2479837.25546  24525115.6314   24525119.1524   24525115.9864
        44.0004         37.0004
                  -1940127.21246  24479375.141    24479380.0954
        44.000          38.0004
 -25302666.43948 -19637753.97048  21098296.2924   21098298.2334   21098296.5744
        53.0004         48.0004
 11 10  1  0 16 30.0000000  0 10G13G10G30G29G16G25G02G21G07G05
  -6301462.71847  -4845837.47546  23084866.3574   23084870.2834   23084866.6644
        45.0004         39.0004
 -12499095.21847  -9637374.83946  22769222.3474   22769224.9934   22769221.6664
        47.0004         41.0004
  -8174591.30147  -6233720.58146  23615943.8764   23615947.4784   23615943.5164
        45.0004         39.0004
 -22626357.15148 -17558042.86848  21098167.4464   21098170.0224   21098167.8604
        53.0004         48.0004
  -8808205.80547  -6790942.66246  23515758.1174   23515761.1664   23515757.3464
        45.0004         40.0004
                                  25589721.967
        34.000
 -15755921.56448 -12262586.25147  22457838.6704   22457839.3534   22457838.3534
        48.0004         43.0004
  -8273418.59047  -2559153.06146  24505745.6494   24505749.6894   24505745.4384
        44.0004         37.0004
  -3049371.72647  -2011982.24646  24461825.8574   24461829.1504   24461827.9774
        43.0004         38.0004
 -25324421.88048 -19654706.63448  21094156.6614   21094158.5424   21094157.1014
        53.0004         48.0004
 11 10  1  0 17  0.0000000  0  9G13G10G30G29G16G02G21G07G05
  -6227892.99047  -4788510.04946  23098866.4644   23098868.9554   23098865.9804
        45.0004         39.0004
 -12405748.82147  -9564637.62946  22786986.0464   22786989.1674   22786985.9094
        46.0004         41.0004
  -8072013.59147  -6153789.79546  23635463.8074   23635467.2454   23635462.8274
        45.0004         38.0004
 -22601255.84248 -17538483.43848  21102944.1064   21102946.6614   21102944.3594
        52.0004         48.0004
  -8881283.98447  -6847886.50646  23501851.4934   23501856.3264   23501851.5414
        45.0004         40.0004
 -15665239.42048 -12191924.92847  22475094.8464   22475094.4854   22475094.8924
        48.0004         43.0004
  -8375080.74647  -2638370.18646  24486399.7524   24486403.5754   24486399.4424
        42.0004         38.0004
  -3141247.31847  -2083572.81546  24444343.2314   24444345.2264   24444343.1644
        42.0004         38.0004
 -25345569.14948 -19671185.25648  21090132.6624   21090135.1364   21090133.2274
        52.0004         48.0004
 11 10  1  0 17 30.0000000  0  9G13G10G30G29G16G02G21G07G05
  -6153811.34447  -4730784.02046  23112963.3704   23112967.8154   23112963.4394
        45.0004         39.0004
 -12312029.67547  -9491610.35346  22804820.6954   22804823.2244   22804819.4084
        46.0004         41.0004
  -7969101.92947  -6073598.72946  23655046.8464   23655051.4514   23655045.6654
        44.0004         38.0004
 -22575560.43448 -17518461.20048  21107833.9064   21107836.5384   21107834.2004
        53.0004         48.0004
  -8953880.47947  -6904455.11146  23488036.5004   23488041.1544   23488035.8844
        45.0004         40.0004
 -15574217.59248 -12120999.02447  22492415.9124   22492415.9304   22492415.4834
        48.0004         43.0004
  -8476615.57347  -2717487.69946  24467077.9274   24467081.8944   24467078.2124
        43.0004         38.0004
                                  24426922.652
        39.000
 -25366108.92748 -19687190.45848  21086224.0484   21086226.2594   21086224.7254
        53.0004         48.0004
 11 10  1  0 18  0.0000000  0  9G13G10G30G29G16G02G21G07G05
  -6079220.87847  -4672661.89546  23127158.1194   23127161.2754   23127158.2144
        46.0004         40.0004
 -12217939.79347  -9418293.83846  22822725.8424   22822729.1674   22822726.0794
        46.0004         41.0004
  -7865859.42847  -5993150.14146  23674693.1514   23674697.1404   23674692.8154
        44.0004         38.0004
 -22549271.00848 -17497975.78248  21112836.5194   21112839.0514   21112836.9994
        52.0004         48.0004
  -9025993.37047  -6960647.06946  23474314.0244   23474321.2564   23474313.5474
        45.0004         39.0004
 -15482857.85648 -12049809.85647  22509801.2064   22509802.6744   22509801.6774
        48.0004         43.0004
  -8578022.01347  -2796505.29046  24447780.5974   24447785.0734   24447779.8464
        42.0004         37.0004
  -4899403.38256                  24409568.7854                   24409568.7984
        41.0004
 -25386041.09848 -19702722.16448  21082431.0634   21082433.3914   21082432.1414
        53.0004         48.0004
 11 10  1  0 18 30.0000000  0 10G13G10G30G29G16G02G21G07G05G26
  -6004120.88547  -4614142.35046  23141449.0274   23141453.5454   23141447.9264
        46.0004         40.0004
 -12123480.11047  -9344688.97246  22840700.8204   22840704.0514   22840700.6424
        46.0004         41.0004
  -7762287.64447  -5912444.79546  23694402.2104   23694409.0364   23694402.5534
        44.0004         38.0004
 -22522387.63648 -17477027.57048  21117952.0644   21117954.9594   21117952.2294
        53.0004         48.0004
  -9097617.93947  -7016458.62946  23460684.6414   23460689.1494   23460684.5864
        45.0004         39.0004
 -15391160.72148 -11978357.71947  22527250.8414   22527251.1794   22527250.9814
        48.0004         43.0004
  -8679296.39647  -2875419.73346  24428507.8214   24428515.2014   24428506.9174
        42.0004         37.0004
                  -3524359.23256  24392282.749    24392289.3824
        41.000          36.0004
 -25405363.36848 -19717778.46148  21078754.2784   21078756.6704   21078754.7674
        53.0004         48.0004
                                  25145310.366
        42.000
 11 10  1  0 19  0.0000000  0  9G13G10G30G29G16G02G21G07G05
  -5928519.52147  -4555232.64746  23155835.6104   23155838.6694   23155835.7504
        45.0004         40.0004
 -12028658.61847  -9270802.41446  22858744.8444   22858749.1044   22858744.3854
        46.0004         41.0004
  -7658394.00047  -5831488.97146  23714173.1304   23714177.8414   23714172.0404
        43.0004         38.0004
 -22494915.15548 -17455620.46948  21123180.0054   21123182.7724   21123179.9414
        53.0004         48.0004
  -9168755.76047  -7071890.81146  23447148.1944   23447151.1404   23447147.3174
        45.0004         39.0004
 -15299132.84148 -11906647.83947  22544763.3594   22544763.9174   22544762.0634
        48.0004         43.0004
  -8780442.37947  -2954234.69046  24409260.8234   24409265.6874   24409261.0914
        42.0004         38.0004
  -5080763.11246                  24375059.1864                   24375059.4334
        41.0004
 -25424079.12748 -19732362.04148  21075192.6654   21075195.0204   21075193.2634
        53.0004         48.0004
 11 10  1  0 19 30.0000000  0 11G13G10G30G29G16G23G02G21G07G05G26
  -5852411.33347  -4495927.96846  23170319.0974   23170322.1394   23170319.1944
        45.0004         39.0004
 -11933469.29647  -9196628.94846  22876858.8964   22876861.7884   22876857.8604
        46.0004         41.0004
  -7554173.57547  -5750278.25246  23734005.0964   23734009.2714   23734004.7934
        43.0004         38.0004
 -22466846.97448 -17433749.30948  21128521.2624   21128523.9294   21128521.5544
        53.0004         48.0004
  -9239396.90947  -7126935.78046  23433704.7964   23433708.8264   23433704.5294
        44.0004         39.0004
                                  25043329.118
        43.000
 -15206768.54948 -11834675.86347  22562339.9654   22562341.3754   22562340.2444
        48.0004         43.0004
  -8881449.52347  -3032941.33446  24390039.9594   24390042.1844   24390039.8244
        43.0004         38.0004
  -5170913.94646  -3665132.41546  24357904.2054   24357910.2064   24357903.9574
        41.0004         37.0004
 -25442180.98048 -19746467.15048  21071747.8784   21071750.3204   21071748.6634
        53.0004         48.0004
  -1687097.74456  -1242834.66455  25095267.2604   25095272.0114   25095266.9544
        40.0004         35.0004
 11 10  1  0 20  0.0000000  0 12G13G10G30G29G16G25G23G02G21G07G05G26
  -5775804.74747  -4436235.16046  23184897.1244   23184900.4404   23184898.1754
        45.0004         39.0004
 -11837920.74647  -9122175.43446  22895040.9544   22895045.0914   22895040.9704
        46.0004         41.0004
  -7449635.24847  -5668819.66346  23753897.9244   23753903.6404   23753897.1634
        43.0004         38.0004
 -22438188.60748 -17411418.18648  21133974.9334   21133977.4584   21133975.3514
        53.0004         48.0004
  -9309545.03747  -7181596.69046  23420356.3274   23420359.1484   23420356.6414
        44.0004         39.0004
   -954239.81757   -771377.68556  25745778.7394   25745787.2144   25745779.0734
        42.0004         37.0004
   -983935.56857   -776124.23356  25063092.0064   25063093.5164   25063092.3664
        44.0004         36.0004
 -15114075.07547 -11762447.36347  22579978.8664   22579980.0354   22579978.7434
        47.0004         42.0004
  -8982322.57547  -3111543.72246  24370844.0994   24370846.6054   24370844.4564
        44.0004         38.0004
  -5260713.73247  -3735107.24246  24340817.7724   24340819.9134   24340818.3914
        43.0004         37.0004
 -25459673.73748 -19760097.69248  21068418.9954   21068421.1294   21068419.6724
        53.0004         48.0004
  -1818468.92646  -1345201.57245  25070267.3834   25070271.2624   25070268.4384
        41.0004         35.0004
