     2.11           OBSERVATION DATA    M (MIXED)           RINEX VERSION / TYPE
teqc  2016Apr1                          20160930 07:51:15UTCPGM / RUN BY / DATE
Linux 2.4.20-8|Pentium IV|gcc|Linux|486/DX+                 COMMENT
teqc  2016Apr1                          20160816 03:27:41UTCCOMMENT
TPS2RIN&BALRNX      RIGTC, GO PECNY     20111002 000202     COMMENT
GNSS DATA FROM STATION GOPE (RIGTC, GO PECNY)               COMMENT
GOPE                                                        MARKER NAME
11502M002                                                   MARKER NUMBER
PC GOPDL10          RIGTC, GO PECNY                         OBSERVER / AGENCY
01308               TPS NETG3           3.4 Dec,12,2009p2   REC # / TYPE / VERS
30161               TPSCR.G3        TPSH                    ANT # / TYPE
  3979316.4389  1050312.2534  4857066.9036                  APPROX POSITION XYZ
        0.1114        0.0000        0.0000                  ANTENNA: DELTA H/E/N
     1     1                                                WAVELENGTH FACT L1/2
     8    C1    P1    P2    C2    L1    L2    S1    S2      # / TYPES OF OBSERV
    30.0000                                                 INTERVAL
teqc windowed: start @ 2011 Oct  1 00:10:00.000             COMMENT
teqc windowed:  end  @ 2011 Oct  1 00:20:00.000             COMMENT
  2011    10     1     0    10    0.0000000     GPS         TIME OF FIRST OBS
    15                                                      LEAP SECONDS
                                                            END OF HEADER
 11 10  1  0 10  0.0000000  0 17G02G04G05G07G08G10G13G16G23R01R02R08
                                R10R11R12R17R18
  21907633.010    21907631.2274   21907628.6844                  115125404.310 7
  89708101.57245        49.000          35.000
  22763903.536    22763901.5364   22763902.0144                  119625146.005 7
  93214390.07043        45.000          29.000
  23367575.538    23367574.9644   23367574.0484   23367574.024   122797445.271 6
  95686322.16843        44.000          27.000
  20611549.802    20611548.7024   20611547.1824   20611547.621   108314451.012 8
  84400869.57346        50.000          43.000
  22261922.236    22261920.8714   22261920.8034                  116987203.013 7
  91158866.04945        48.000          35.000
  20117395.771    20117393.4984   20117393.1694                  105717656.709 8
  82377400.90946        51.000          42.000
  20727825.895    20727824.8514   20727822.9914                  108925498.738 8
  84877013.73646        52.000          40.000
  23327725.328    23327723.9044   23327722.9334                  122588050.823 6
  95523151.53942        41.000          24.000
  22471745.660    22471743.7184   22471741.1554                  118089856.653 7
  92018068.51244        47.000          31.000
  19594699.668    19594697.696    19594698.606                   104744949.115 8
  81468288.997 4        52.000          34.000
  20121053.039    20121051.415    20121051.433    20121051.706   107369825.691 8
  83509861.188 5        52.000          39.000
  23315888.583    23315889.840    23315886.192                   124855567.577 6
  97109901.323 4        41.000          31.000
  22732134.412    22732135.861    22732133.226    22732138.035   121175120.459 6
  94247290.350 4        43.000          30.000
  19407996.266    19407993.835    19407995.697    19407996.777   103710493.213 7
  80663713.452 5        49.000          35.000
  20740512.829    20740511.045    20740514.769    20740513.258   110792108.704 8
  86171655.388 5        50.000          37.000
  24231028.604    24231029.038                                   129665117.763 4
                        34.000
  23111789.333    23111787.700    23111789.799    23111787.360   123372290.013 6
  95956228.779 4        43.000          31.000
 11 10  1  0 10 30.0000000  0 17G02G04G05G07G08G10G13G16G23R01R02R08
                                R10R11R12R17R18
  21909225.975    21909224.4704   21909222.0774                  115133775.093 7
  89714624.24145        48.000          35.000
  22781309.281    22781309.1244   22781308.0244                  119716612.558 7
  93285662.67743        45.000          29.000
  23349113.130    23349112.1144   23349110.5514   23349112.343   122700422.219 6
  95610719.80943        43.000          28.000
  20603123.310    20603122.1704   20603120.8504   20603121.049   108270169.916 8
  84366364.83746        51.000          42.000
  22244444.214    22244442.7324   22244442.5124                  116895353.142 7
  91087294.73645        48.000          35.000
  20116575.601    20116573.5774   20116573.4664                  105713348.275 8
  82374043.68446        51.000          42.000
  20738351.623    20738351.0574   20738348.8904                  108980812.686 8
  84920115.51046        51.000          40.000
  23329957.426    23329956.0264   23329953.8694                  122599775.540 6
  95532287.69142        42.000          23.000
  22487570.111    22487569.1174   22487564.3474                  118173015.891 7
  92082867.90744        47.000          31.000
  19603273.671    19603271.565    19603272.958                   104790783.311 8
  81503937.801 4        51.000          34.000
  20107362.514    20107361.266    20107360.475    20107360.748   107296770.563 8
  83453040.536 5        52.000          39.000
  23337287.725    23337287.342    23337286.877                   124970164.917 5
  97199032.564 4        38.000          31.000
  22755039.286    22755039.709    22755039.158    22755041.670   121297214.296 6
  94342252.180 4        44.000          30.000
  19413400.486    19413398.117    19413399.202    19413399.397   103739369.280 8
  80686172.614 5        50.000          35.000
  20721184.319    20721182.240    20721185.405    20721184.646   110688856.466 8
  86091348.102 5        51.000          36.000
  24251258.085    24251258.329                                   129773379.939 5
                        35.000
  23118998.644    23118997.056    23118999.577    23118998.783   123410778.651 6
  95986164.392 4        42.000          31.000
 11 10  1  0 11  0.0000000  0 17G02G04G05G07G08G10G13G16G23R01R02R08
                                R10R11R12R17R18
  21910935.409    21910933.6994   21910930.7414                  115142757.070 7
  89721623.17345        47.000          35.000
  22798768.188    22798766.7114   22798767.0744                  119808361.986 7
  93357155.70843        45.000          28.000
  23330684.049    23330682.6004   23330681.3594   23330682.744   122603575.923 6
  95535255.20043        44.000          28.000
  20594795.454    20594794.2474   20594792.8004   20594793.104   108226406.790 8
  84332263.70846        50.000          43.000
  22227023.488    22227022.1344   22227022.0504                  116803808.603 7
  91015961.35545        48.000          35.000
  20115855.012    20115853.1114   20115853.0344                  105709563.205 8
  82371094.27146        51.000          42.000
  20748936.865    20748935.5194   20748933.7664                  109036436.354 8
  84963458.63446        51.000          40.000
  23332303.727    23332302.3014   23332300.9084                  122612111.643 6
  95541900.21142        41.000          23.000
  22503428.462    22503427.0134   22503423.4654                  118256350.328 7
  92147803.83844        46.000          30.000
  19611949.402    19611947.737    19611948.693                   104837160.440 8
  81540008.888 4        51.000          34.000
  20093745.095    20093743.752    20093743.551    20093743.874   107224106.430 8
  83396523.989 5        52.000          39.000
  23358722.745    23358722.490    23358720.639                   125084940.487 5
  97288302.447 4        39.000          31.000
  22777989.857    22777990.242    22777989.845    22777991.413   121419553.874 6
  94437405.225 4        43.000          30.000
  19418948.378    19418946.668    19418948.230    19418948.301   103769017.393 8
  80709232.270 5        50.000          35.000
  20701948.120    20701946.198    20701949.661    20701949.335   110586101.400 8
  86011427.519 5        51.000          37.000
  24271533.108    24271531.041                                   129881868.852 4
                        34.000
  23126342.758    23126340.078    23126341.682    23126342.929   123449978.954 6
  96016653.486 4        43.000          31.000
 11 10  1  0 11 30.0000000  0 17G02G04G05G07G08G10G13G16G23R01R02R08
                                R10R11R12R17R18
  21912760.465    21912759.0604   21912756.5114                  115152350.194 7
  89729098.33545        49.000          35.000
  22816281.483    22816280.0164   22816279.2164                  119900391.315 7
  93428866.85043        46.000          28.000
  23312288.572    23312287.4294   23312286.9604   23312287.309   122506908.357 6
  95459929.82943        43.000          27.000
  20586566.399    20586564.9484   20586563.7774   20586563.996   108183162.221 8
  84298566.66346        51.000          42.000
  22209661.685    22209659.9554   22209659.7964                  116712571.014 7
  90944867.14845        49.000          35.000
  20115234.708    20115232.4994   20115232.5584                  105706301.730 8
  82368552.86246        51.000          42.000
  20759580.486    20759579.2354   20759577.4144                  109092368.802 8
  85007042.35846        52.000          40.000
  23334767.517    23334766.0644   23334765.3184                  122625059.069 6
  95551989.12842        41.000          24.000
  22519319.292    22519317.0594   22519314.5784                  118339859.304 7
  92212875.74544        46.000          30.000
  19620726.908    19620725.119    19620727.053                   104884080.351 8
  81576502.138 4        51.000          34.000
  20080201.869    20080201.373    20080198.648    20080199.790   107151836.048 8
  83340313.704 5        52.000          39.000
  23380187.628    23380189.282    23380188.093                   125199892.992 5
  97377709.925 4        38.000          31.000
  22800986.030    22800986.568    22800986.880    22800987.678   121542135.456 6
  94532746.478 4        43.000          30.000
  19424640.256    19424637.490    19424640.247    19424641.027   103799435.402 8
  80732890.733 5        50.000          35.000
  20682805.268    20682802.877    20682806.293    20682805.339   110483846.649 8
  85931896.065 5        50.000          37.000
  24291850.638    24291849.610                                   129990580.400 4
                        33.000
  23133818.542    23133817.612    23133817.622    23133819.578   123489888.867 6
  96047694.541 4        43.000          31.000
 11 10  1  0 12  0.0000000  0 17G02G04G05G07G08G10G13G16G23R01R02R08
                                R10R11R12R17R18
  21914702.173    21914700.5644   21914698.0144                  115162553.492 7
  89737048.94345        48.000          35.000
  22833846.297    22833845.4464   22833845.6004                  119992697.313 7
  93500793.59043        46.000          29.000
  23293927.699    23293926.6704   23293924.9534   23293925.994   122410421.370 6
  95384745.18943        44.000          27.000
  20578436.095    20578434.9054   20578433.4514   20578433.754   108140437.271 8
  84265274.50746        51.000          43.000
  22192358.322    22192356.7644   22192356.7974                  116621642.283 7
  90874013.59745        48.000          35.000
  20114713.742    20114711.8884   20114711.6254                  105703564.485 8
  82366419.94246        52.000          42.000
  20770282.626    20770281.3744   20770279.6324                  109148608.548 8
  85050865.53746        53.000          40.000
  23337347.793    23337345.9984   23337344.8814                  122638617.538 6
  95562554.17842        40.000          24.000
  22535243.687    22535242.0934   22535238.5004                  118423541.610 7
  92278082.68944        46.000          30.000
  19629605.713    19629603.736    19629604.471                   104931542.799 8
  81613417.362 4        51.000          34.000
  20066732.803    20066731.566    20066730.542    20066730.810   107079962.228 8
  83284411.841 5        52.000          39.000
  23401687.735    23401687.077    23401685.197                   125315021.027 5
  97467253.896 4        38.000          31.000
  22824025.554    22824025.600    22824026.953    22824028.531   121664955.421 6
  94628273.096 4        42.000          30.000
  19430476.254    19430473.868    19430476.407    19430477.088   103830620.968 7
  80757146.177 5        49.000          35.000
  20663756.638    20663755.573    20663759.254    20663757.687   110382095.041 8
  85852755.930 5        50.000          37.000
  24312206.627    24312203.397                                   130099509.767 4
                        33.000
  23141428.112    23141426.886    23141428.726    23141427.465   123530505.465 6
  96079285.202 4        43.000          31.000
 11 10  1  0 12 30.0000000  0 18G02G04G05G07G08G10G13G16G23R01R02R08
                                R10R11R12R17R18R19
  21916759.639    21916758.0204   21916755.9654                  115173366.255 7
  89745474.46245        48.000          35.000
  22851463.143    22851462.0074   22851463.5364                  120085277.254 6
  93572933.77143        44.000          28.000
  23275601.020    23275600.2894   23275598.9534   23275599.912   122314116.959 6
  95309702.82843        44.000          28.000
  20570404.862    20570403.5014   20570402.0254   20570402.366   108098232.663 8
  84232387.81746        52.000          43.000
  22175114.303    22175112.7394   22175112.7954                  116531024.308 7
  90803402.22545        48.000          35.000
  20114292.805    20114290.7684   20114290.4784                  105701351.721 8
  82364695.70946        51.000          42.000
  20781042.610    20781041.6394   20781040.0604                  109205154.528 8
  85094927.33446        52.000          40.000
  23340043.131    23340042.2844   23340041.4684                  122652786.720 6
  95573595.13342        40.000          23.000
  22551200.511    22551200.2394   22551196.3924                  118507395.966 7
  92343423.73444        47.000          30.000
  19638586.071    19638584.443    19638585.181                   104979546.924 8
  81650753.884 4        51.000          34.000
  20053338.401    20053337.316    20053335.458    20053336.687   107008487.194 8
  83228820.158 5        52.000          39.000
  23423219.509    23423220.523    23423218.801                   125430322.480 6
  97556932.807 4        40.000          31.000
  22847109.271    22847111.018    22847108.214    22847111.916   121788009.718 6
  94723981.998 4        42.000          30.000
  19436455.405    19436453.456    19436454.989    19436456.217   103862572.039 7
  80781997.024 4        49.000          34.000
  20644803.864    20644802.347    20644805.280    20644804.703   110280849.652 8
  85774009.553 5        50.000          37.000
  24332598.916    24332596.553                                   130208652.001 4
                        32.000
  23149168.372    23149167.202    23149168.896    23149167.646   123571826.665 6
  96111423.905 4        43.000          31.000
  23829662.263    23829661.147                                   127472637.776 5
                        35.000
 11 10  1  0 13  0.0000000  0 18G02G04G05G07G08G10G13G16G23R01R02R08
                                R10R11R12R17R18R19
  21918933.051    21918931.4804   21918929.4284                  115184788.159 7
  89754374.63145        47.000          35.000
  22869133.180    22869132.4784   22869132.1104                  120178128.139 7
  93645285.07443        47.000          29.000
  23257310.761    23257309.9404   23257308.6974   23257308.766   122217997.717 6
  95234804.73543        44.000          28.000
  20562472.731    20562471.6124   20562469.9744   20562470.483   108056549.450 8
  84199907.40446        50.000          43.000
  22157929.678    22157928.6284   22157928.2934                  116440719.294 7
  90733034.68845        49.000          35.000
  20113971.758    20113969.6544   20113969.5744                  105699664.623 8
  82363381.08646        51.000          42.000
  20791861.235    20791860.3044   20791858.2924                  109262005.640 8
  85139226.90546        52.000          40.000
  23342856.901    23342855.3814   23342853.6204                  122667566.479 6
  95585111.83442        42.000          23.000
  22567189.836    22567188.7964   22567184.8234                  118591421.943 7
  92408898.50144        45.000          30.000
  19647667.322    19647664.893    19647667.603                   105028092.957 8
  81688511.893 4        50.000          34.000
  20040019.020    20040017.768    20040017.077    20040017.670   106937413.895 8
  83173540.926 5        52.000          39.000
  23444783.867    23444784.658    23444782.728                   125545795.834 5
  97646745.366 4        39.000          30.000
  22870238.054    22870237.996    22870236.778    22870238.570   121911294.527 6
  94819870.108 4        42.000          30.000
  19442577.898    19442575.680    19442577.814    19442577.630   103895286.397 8
  80807441.529 5        50.000          35.000
  20625946.254    20625944.568    20625947.891    20625946.671   110180113.760 8
  85695659.422 5        51.000          37.000
  24353038.937    24353036.687                                   130318003.293 4
                        32.000
  23157041.148    23157039.543    23157041.999    23157042.163   123613850.814 6
  96144109.325 4        43.000          31.000
  23819388.871    23819388.599                                   127417680.834 5
                        35.000
 11 10  1  0 13 30.0000000  0 18G02G04G05G07G08G10G13G16G23R01R02R08
                                R10R11R12R17R18R19
  21921222.650    21921221.1214   21921218.4274                  115196818.515 7
  89763748.93245        48.000          35.000
  22886852.641    22886851.3654   22886850.9994                  120271247.191 7
  93717845.35843        46.000          29.000
  23239055.302    23239053.6514   23239052.9224   23239053.723   122122065.365 6
  95160052.26543        44.000          28.000
  20554640.064    20554638.8554   20554637.3064   20554637.749   108015387.947 8
  84167833.52246        51.000          43.000
  22140805.409    22140803.4774   22140803.8404                  116350728.832 8
  90662912.28045        50.000          35.000
  20113751.051    20113748.7194   20113748.6414                  105698503.348 8
  82362476.19446        51.000          42.000
  20802737.434    20802736.5084   20802734.6254                  109319160.776 8
  85183763.36946        52.000          40.000
  23345785.289    23345783.0514   23345782.1244                  122682956.311 6
  95597103.92342        40.000          22.000
  22583212.924    22583211.4514   22583207.7754                  118675618.184 7
  92474505.94744        48.000          30.000
  19656850.499    19656848.265    19656850.428                   105077180.202 8
  81726690.846 4        51.000          34.000
  20026775.602    20026774.228    20026774.511    20026774.054   106866744.902 8
  83118576.161 5        52.000          39.000
  23466380.070    23466380.070                                   125661439.582 5
                        39.000
  22893409.251    22893409.460    22893409.137    22893410.628   122034806.246 6
  94915934.725 4        43.000          30.000
  19448842.393    19448840.558    19448841.106    19448842.368   103928761.851 8
  80833478.001 4        50.000          34.000
  20607184.383    20607182.441    20607185.564    20607184.959   110079890.069 8
  85617707.675 5        51.000          37.000
  24373507.988    24373508.394                                   130427558.533 4
                        33.000
  23165045.659    23165043.416    23165045.035    23165045.079   123656574.373 6
  96177338.761 4        44.000          31.000
  23809244.899    23809242.244                                   127363398.878 4
                        34.000
 11 10  1  0 14  0.0000000  0 18G02G04G05G07G08G10G13G16G23R01R02R08
                                R10R11R12R17R18R19
  21923627.659    21923626.1994   21923623.4024                  115209456.602 7
  89773596.78845        49.000          35.000
  22904623.372    22904621.7054   22904621.8064                  120364631.199 7
  93790612.08543        45.000          28.000
  23220836.779    23220834.8624   23220833.1594   23220834.175   122026321.900 6
  95085446.99543        44.000          29.000
  20546906.457    20546905.4744   20546903.9084   20546904.122   107974749.288 8
  84136167.04546        51.000          43.000
  22123740.817    22123739.5544   22123739.2954                  116261054.962 7
  90593036.55345        47.000          36.000
  20113630.011    20113627.7784   20113627.6834                  105697868.603 8
  82361981.58746        51.000          42.000
  20813671.384    20813670.3394   20813668.3954                  109376619.013 8
  85228536.02046        51.000          40.000
  23348829.979    23348828.8504   23348827.2784                  122698955.694 6
  95609570.96742        42.000          22.000
  22599266.835    22599265.2744   22599262.6974                  118759984.021 7
  92540245.53344        47.000          30.000
  19666134.279    19666132.465    19666134.095                   105126808.555 8
  81765290.659 4        51.000          34.000
  20013608.968    20013607.763    20013607.211    20013606.814   106796483.236 8
  83063928.207 5        53.000          39.000
  23488006.874    23488006.878                                   125777252.264 5
                        38.000
  22916621.417    22916622.382    22916621.200    22916623.568   122158541.253 6
  95012173.040 4        43.000          30.000
  19455248.729    19455246.342    19455249.013    19455248.523   103962995.888 8
  80860104.471 4        50.000          34.000
  20588519.174    20588517.425    20588519.720    20588518.873   109980181.713 8
  85540156.749 5        52.000          37.000
  24394019.174    24394017.195                                   130537315.164 4
                        33.000
  23173179.343    23173178.146    23173178.411    23173178.397   123699995.592 6
  96211110.815 4        43.000          31.000
  23799223.453    23799224.009                                   127309795.126 4
                        32.000
 11 10  1  0 14 30.0000000  0 18G02G04G05G07G08G10G13G16G23R01R02R08
                                R10R11R12R17R18R19
  21926147.610    21926146.3074   21926143.6434                  115222701.877 7
  89783917.76645        48.000          35.000
  22922443.617    22922441.7364   22922441.9884                  120458277.578 7
  93863583.26843        45.000          28.000
  23202653.406    23202652.3894   23202650.7674   23202650.656   121930769.741 6
  95010990.77843        44.000          28.000
  20539272.740    20539271.5634   20539270.2824   20539270.955   107934634.150 8
  84104908.50546        51.000          43.000
  22106737.370    22106735.8304   22106735.7984                  116171699.356 7
  90523408.84345        49.000          36.000
  20113609.696    20113607.4284   20113607.1964                  105697761.143 8
  82361897.85646        51.000          42.000
  20824662.828    20824661.6294   20824659.9334                  109434379.160 8
  85273543.92546        51.000          40.000
  23351991.190    23351988.9124   23351986.9234                  122715564.610 6
  95622512.99942        42.000          23.000
  22615353.755    22615352.4964   22615347.5224                  118844518.510 7
  92606116.54944        47.000          31.000
  19675518.977    19675516.861    19675519.701                   105176977.695 8
  81804311.084 4        50.000          34.000
  20000518.605    20000518.342    20000516.444    20000516.770   106726631.544 8
  83009599.120 5        52.000          39.000
  23509664.783    23509666.322    23509662.996                   125893231.851 5
  97916973.313 4        39.000          30.000
  22939875.466    22939875.839    22939875.557    22939876.668   122282495.670 6
  95108582.022 4        42.000          30.000
  19461796.508    19461793.986    19461795.905    19461796.398   103997986.626 8
  80887319.493 4        51.000          34.000
  20569950.274    20569948.304    20569951.423    20569950.389   109880991.682 8
  85463008.955 5        51.000          37.000
  24414566.461    24414565.527                                   130647266.460 4
                        33.000
  23181442.850    23181441.420    23181444.399    23181444.051   123744111.936 6
  96245423.534 4        42.000          31.000
  23789327.379    23789325.538                                   127256872.197 4
                        32.000
 11 10  1  0 15  0.0000000  0 18G02G04G05G07G08G10G13G16G23R01R02R08
                                R10R11R12R17R18R19
  21928784.016    21928782.3284   21928779.7224                  115236553.670 7
  89794711.36044        48.000          34.000
  22940312.942    22940312.4614   22940311.4974                  120552183.153 7
  93936756.41643        45.000          28.000
  23184506.831    23184506.9164   23184503.9454   23184505.829   121835411.101 7
  94936685.36343        45.000          29.000
  20531739.168    20531737.9554   20531736.2614   20531736.659   107895043.235 8
  84074058.45746        51.000          43.000
  22089793.984    22089792.5494   22089792.8044                  116082664.023 7
  90454030.67145        49.000          35.000
  20113689.543    20113687.3004   20113687.3664                  105698181.283 8
  82362225.23546        51.000          42.000
  20835711.597    20835710.4204   20835708.5884                  109492440.122 8
  85318786.23646        50.000          40.000
  23355267.887    23355266.1324   23355263.7644                  122732782.694 6
  95635929.67942        43.000          22.000
  22631470.863    22631469.6644   22631467.0174                  118929220.603 7
  92672118.15644        46.000          30.000
  19685005.763    19685004.121    19685005.732                   105227687.034 8
  81843751.664 4        51.000          34.000
  19987505.786    19987504.845    19987503.720    19987504.318   106657192.303 8
  82955590.833 5        52.000          39.000
  23531353.850    23531355.308    23531352.268                   126009377.145 5
  98007308.528 4        37.000          30.000
  22963169.171    22963168.755    22963169.536    22963169.636   122406665.859 6
  95205158.810 4        42.000          30.000
  19468486.285    19468483.896    19468485.969    19468486.426   104033731.693 8
  80915121.220 4        50.000          34.000
  20551479.184    20551477.416    20551480.725    20551478.764   109782323.012 8
  85386266.676 5        52.000          37.000
  24435148.733    24435147.198                                   130757408.909 3
                        29.000
  23189837.661    23189836.009    23189837.721    23189837.742   123788921.454 6
  96280275.338 4        42.000          31.000
  23779562.331    23779558.462                                   127204632.980 4
                        33.000
 11 10  1  0 15 30.0000000  0 18G02G04G05G07G08G10G13G16G23R01R02R08
                                R10R11R12R17R18R19
  21931535.006    21931533.1814   21931531.2064                  115251011.062 7
  89805976.84544        48.000          34.000
  22958231.575    22958231.1744   22958230.5514                  120646344.998 7
  94010129.24543        45.000          28.000
  23166397.326    23166396.7084   23166395.1864   23166396.822   121740247.759 6
  94862532.11543        44.000          29.000
  20524305.034    20524303.9364   20524302.2264   20524302.557   107855976.919 8
  84043617.18646        52.000          43.000
  22072912.798    22072911.2764   22072910.8844                  115993950.761 7
  90384903.47645        49.000          36.000
  20113869.898    20113867.7374   20113867.5854                  105699129.060 8
  82362963.75746        51.000          43.000
  20846816.527    20846815.6694   20846813.9714                  109550800.133 8
  85364261.55946        51.000          40.000
  23358659.393    23358658.3314   23358655.5904                  122750609.495 6
  95649820.69542        43.000          22.000
  22647621.613    22647620.3484   22647616.9954                  119014089.078 7
  92738249.40244        47.000          30.000
  19694592.024    19694589.645    19694591.894                   105278935.917 8
  81883611.893 4        50.000          34.000
  19974570.512    19974569.183    19974568.688    19974568.930   106588168.492 8
  82901905.652 5        52.000          39.000
  23553076.095    23553075.297                                   126125686.056 5
                        39.000
  22986502.826    22986502.564    22986502.890    22986499.979   122531047.768 6
  95301900.246 4        42.000          30.000
  19475315.782    19475313.253    19475314.664    19475315.451   104070228.455 8
  80943507.599 5        50.000          35.000
  20533106.063    20533104.193    20533107.240    20533106.635   109684178.456 8
  85309932.032 5        51.000          37.000
  24455767.663    24455766.796                                   130867739.956 4
                        30.000
  23198360.893    23198358.954    23198361.364    23198361.273   123834420.464 6
  96315663.452 4        42.000          31.000
  23769923.408    23769923.049                                   127153079.090 4
                        31.000
 11 10  1  0 16  0.0000000  0 18G02G04G05G07G08G10G13G16G23R01R02R08
                                R10R11R12R17R18R19
  21934401.982    21934399.8954   21934396.7724                  115266073.485 7
  89817713.79245        49.000          35.000
  22976198.532    22976197.4184   22976197.0224                  120740760.311 7
  94083699.61043        45.000          28.000
  23148326.337    23148324.6034   23148323.9274   23148323.796   121645282.647 6
  94788533.35443        44.000          29.000
  20516971.181    20516970.1554   20516968.2864   20516968.856   107817436.440 8
  84013585.65646        51.000          43.000
  22056092.721    22056091.1554   22056090.9944                  115905561.511 7
  90316028.76045        49.000          36.000
  20114150.833    20114148.7734   20114148.7074                  105700605.442 8
  82364114.18646        50.000          42.000
  20857979.037    20857978.1484   20857976.2914                  109609459.043 8
  85409969.79546        51.000          40.000
  23362168.753    23362165.8134   23362164.8994                  122769044.648 6
  95664185.76342        43.000          23.000
  22663803.117    22663801.1154   22663798.7324                  119099123.413 7
  92804509.89944        46.000          30.000
  19704280.532    19704278.619    19704280.646                   105330724.370 8
  81923891.781 4        51.000          34.000
  19961714.076    19961712.592    19961711.636    19961711.935   106519562.845 8
  82848545.710 5        52.000          39.000
  23574822.462    23574823.481                                   126242157.004 5
                        37.000
  23009875.927    23009876.581    23009876.066    23009873.790   122655638.369 6
  95398804.003 4        43.000          30.000
  19482285.854    19482283.547    19482286.129    19482285.727   104107474.823 8
  80972477.004 4        50.000          34.000
  20514832.071    20514830.288    20514833.124    20514832.443   109586561.022 8
  85234007.370 5        51.000          37.000
  24476418.259    24476418.688                                   130978252.374 4
                        30.000
  23207013.255    23207012.945    23207014.936    23207015.576   123880606.850 6
  96351586.194 4        42.000          30.000
  23760417.406    23760416.239                                   127102213.378 4
                        32.000
 11 10  1  0 16 30.0000000  0 18G02G04G05G07G08G10G13G16G23R01R02R08
                                R10R11R12R17R18R19
  21937382.431    21937381.2974   21937378.5564                  115281739.997 7
  89829921.45145        49.000          35.000
  22994211.897    22994211.0624   22994211.3554                  120835426.009 6
  94157465.05843        44.000          27.000
  23130293.389    23130292.0204   23130290.8984   23130290.466   121550516.835 7
  94714689.87743        45.000          29.000
  20509737.124    20509735.8874   20509734.0554   20509734.345   107779422.019 8
  83983964.04446        51.000          43.000
  22039334.827    22039333.4824   22039333.1824                  115817497.988 7
  90247407.85045        48.000          36.000
  20114532.431    20114530.3574   20114530.3464                  105702610.805 8
  82365676.80346        51.000          42.000
  20869198.140    20869197.2674   20869195.4734                  109668415.280 8
  85455909.71645        50.000          39.000
  23365791.658    23365789.8314   23365787.5404                  122788087.087 6
  95679024.00142        43.000          23.000
  22680015.313    22680014.2134   22680010.1764                  119184322.336 7
  92870898.63243        46.000          29.000
  19714069.913    19714067.817    19714069.801                   105383051.347 8
  81964590.518 4        50.000          34.000
  19948936.316    19948935.143    19948933.636    19948934.804   106451377.671 8
  82795512.798 5        52.000          39.000
  23596605.017    23596605.509    23596603.908                   126358788.497 5
  98279072.853 4        37.000          30.000
  23033286.782    23033286.607    23033286.987    23033288.222   122780433.421 6
  95495866.762 4        43.000          30.000
  19489396.011    19489393.946    19489395.786    19489395.706   104145468.020 8
  81002027.271 5        50.000          35.000
  20496657.208    20496655.780    20496658.942    20496657.899   109489473.739 8
  85158495.060 5        51.000          37.000
  24497106.241    24497103.534                                   131088943.493 4
                        32.000
  23215794.528    23215791.312    23215793.665    23215794.244   123927478.313 6
  96388041.718 4        43.000          30.000
  23751035.950    23751036.546                                   127052038.444 4
                        33.000
 11 10  1  0 17  0.0000000  0 18G02G04G05G07G08G10G13G16G23R01R02R08
                                R10R11R12R17R18R19
  21940478.852    21940477.5324   21940474.3024                  115298009.688 7
  89842599.13145        48.000          35.000
  23012274.634    23012272.5674   23012272.3834                  120930339.336 7
  94231423.46443        45.000          27.000
  23112298.427    23112297.2054   23112295.7534   23112296.555   121455953.005 7
  94641003.80543        45.000          29.000
  20502603.346    20502602.4064   20502600.8174   20502601.288   107741934.354 8
  83954752.88746        51.000          43.000
  22022638.843    22022637.1714   22022637.8184                  115729762.034 7
  90179042.19845        49.000          36.000
  20115014.592    20115012.4304   20115012.4594                  105705145.770 8
  82367652.10146        50.000          42.000
  20880473.794    20880472.5814   20880471.1384                  109727668.106 8
  85502080.74145        52.000          39.000
  23369531.166    23369528.9024   23369527.3504                  122807737.192 6
  95694335.76842        42.000          23.000
  22696259.207    22696257.5554   22696255.3814                  119269685.090 7
  92937415.03743        45.000          29.000
  19723959.569    19723957.617    19723958.942                   105435916.870 8
  82005708.131 4        51.000          34.000
  19936237.597    19936235.707    19936234.944    19936235.834   106383616.039 8
  82742809.312 5        52.000          39.000
  23618414.798    23618414.775    23618414.281                   126475578.997 5
  98369909.884 4        39.000          30.000
  23056735.728    23056736.751    23056735.079    23056738.422   122905429.208 6
  95593085.709 4        42.000          30.000
  19496645.008    19496642.193    19496645.197    19496645.068   104184205.860 7
  81032156.701 4        49.000          34.000
  20478581.258    20478579.479    20478583.135    20478582.230   109392919.502 8
  85083397.333 5        51.000          37.000
  24517823.641    24517819.803                                   131199807.522 3
                        28.000
  23224702.504    23224702.398    23224702.831    23224703.637   123975032.496 6
  96425028.333 4        42.000          31.000
  23741787.420    23741785.980                                   127002556.309 5
                        35.000
 11 10  1  0 17 30.0000000  0 18G02G04G05G07G08G10G13G16G23R01R02R08
                                R10R11R12R17R18R19
  21943689.143    21943687.8194   21943685.5924                  115314881.809 7
  89855746.21445        48.000          35.000
  23030382.200    23030380.3924   23030381.6194                  121025497.272 6
  94305572.48943        44.000          27.000
  23094342.032    23094341.1934   23094339.8164   23094340.534   121361593.370 6
  94567476.81844        44.000          30.000
  20495570.335    20495569.3144   20495567.2474   20495567.708   107704974.330 8
  83925952.88246        51.000          43.000
  22006006.043    22006004.8614   22006004.5264                  115642355.464 7
  90110933.20045        48.000          36.000
  20115597.750    20115595.8684   20115595.7564                  105708210.586 8
  82370040.26546        50.000          42.000
  20891805.333    20891804.0374   20891802.4614                  109787216.088 8
  85548481.76645        52.000          39.000
  23373384.365    23373383.3414   23373381.5944                  122827993.632 6
  95710120.01642        40.000          23.000
  22712534.984    22712534.0154   22712528.7634                  119355210.605 7
  93004058.27843        46.000          29.000
  19733949.513    19733947.550    19733948.985                   105489320.412 8
  82047244.204 4        51.000          34.000
  19923619.285    19923618.199    19923618.030    19923617.334   106316280.642 8
  82690437.337 5        53.000          39.000
  23640254.398    23640254.945    23640251.662                   126592526.903 5
  98460869.328 4        36.000          30.000
  23080221.683    23080221.041    23080221.446                   123030622.333 6
  95690458.113 4        40.000          30.000
  19504033.376    19504030.950    19504031.498    19504033.311   104223685.672 8
  81062863.225 5        50.000          35.000
  20460606.762    20460604.761    20460608.277    20460607.448   109296901.041 8
  85008716.328 5        51.000          37.000
  24538569.723    24538568.443                                   131310842.199 3
                        29.000
  23233738.552    23233735.710    23233740.036    23233739.134   124023266.189 6
  96462543.410 4        41.000          31.000
  23732666.696    23732665.030                                   126953769.680 4
                        34.000
 11 10  1  0 18  0.0000000  0 18G02G04G05G07G08G10G13G16G23R01R02R08
                                R10R11R12R17R18R19
  21947014.754    21947013.1284   21947010.4874                  115332355.580 7
  89869362.13545        48.000          35.000
  23048535.390    23048534.5684   23048533.9154                  121120896.803 6
  94379909.75443        44.000          27.000
  23076425.535    23076424.6604   23076424.0204   23076423.898   121267439.638 7
  94494110.30644        45.000          30.000
  20488637.521    20488636.3734   20488634.6304   20488635.282   107668542.514 8
  83897564.46546        52.000          43.000
  21989436.178    21989434.8874   21989434.7394                  115555280.247 8
  90043082.40045        50.000          36.000
  20116281.922    20116279.8854   20116279.7744                  105711805.607 8
  82372841.58146        51.000          42.000
  20903192.784    20903191.4524   20903189.8014                  109847057.714 8
  85595111.60145        51.000          39.000
  23377354.859    23377353.2484   23377352.5374                  122848856.038 6
  95726376.44342        42.000          22.000
  22728840.892    22728839.1954   22728836.4564                  119440898.022 7
  93070827.65843        47.000          29.000
  19744040.533    19744038.451    19744040.044                   105543261.183 8
  82089198.119 4        51.000          34.000
  19911080.734    19911079.397    19911078.423    19911078.909   106249373.880 8
  82638398.749 5        53.000          39.000
  23662122.446    23662121.547    23662120.952                   126709630.153 5
  98551949.619 4        37.000          30.000
  23103743.968    23103743.665    23103742.959    23103747.334   123156009.104 6
  95787981.143 4        40.000          30.000
  19511560.068    19511557.682    19511560.145    19511559.886   104263905.124 8
  81094145.030 4        50.000          34.000
  20442732.976    20442731.145    20442733.938    20442733.095   109201421.356 8
  84934454.366 5        51.000          37.000
  24559351.194    24559351.432                                   131422042.412 4
                        31.000
  23242900.189    23242898.443    23242901.172    23242901.171   124072176.498 6
  96500584.748 4        41.000          31.000
  23723675.085    23723675.737                                   126905680.689 5
                        35.000
 11 10  1  0 18 30.0000000  0 18G02G04G05G07G08G10G13G16G23R01R02R08
                                R10R11R12R17R18R19
  21950454.141    21950452.6574   21950449.9904                  115350430.276 7
  89883446.30045        48.000          35.000
  23066734.737    23066735.0354   23066733.8944                  121216535.333 6
  94454433.27443        44.000          26.000
  23058548.264    23058547.4694   23058545.7324   23058546.710   121173494.361 7
  94420906.19744        45.000          30.000
  20481805.246    20481804.1754   20481802.3614   20481802.938   107632639.480 8
  83869588.08946        50.000          43.000
  21972929.564    21972928.2484   21972928.2814                  115468537.923 8
  89975491.00045        50.000          36.000
  20117067.237    20117065.1294   20117065.0254                  105715931.682 8
  82376056.70646        51.000          42.000
  20914635.834    20914635.1664   20914633.3384                  109907192.774 8
  85641970.08445        50.000          39.000
  23381440.657    23381438.8724   23381436.5294                  122870324.158 6
  95743104.85742        41.000          22.000
  22745176.554    22745175.7994   22745172.4584                  119526746.504 7
  93137722.56444        46.000          30.000
  19754231.676    19754229.465    19754231.076                   105597738.849 8
  82131569.617 4        51.000          34.000
  19898623.523    19898621.648    19898621.849    19898621.699   106182898.723 8
  82586695.856 6        52.000          40.000
  23684016.660    23684019.757    23684018.529                   126826887.645 5
  98643149.840 4        35.000          30.000
  23127301.779    23127303.522    23127301.904    23127302.862   123281585.801 6
  95885651.885 4        40.000          30.000
  19519224.470    19519222.002    19519223.391    19519224.245   104304861.808 8
  81126000.241 4        50.000          34.000
  20424960.488    20424958.095    20424961.415    20424960.702   109106483.304 8
  84860613.668 5        51.000          37.000
  24580162.549    24580159.541                                   131533404.029 4
                        30.000
  23252189.449    23252188.987    23252190.802    23252190.993   124121761.709 6
  96539151.008 4        41.000          31.000
  23714812.932    23714812.887                                   126858291.591 5
                        36.000
 11 10  1  0 19  0.0000000  0 18G02G04G05G07G08G10G13G16G23R01R02R08
                                R10R11R12R17R18R19
  21954007.377    21954005.7584   21954003.5244                  115369104.302 7
  89897997.48144        47.000          34.000
  23084979.423    23084979.0374   23084978.1124                  121312409.275 6
  94529140.21143        44.000          27.000
  23040711.401    23040710.5734   23040708.6724   23040709.774   121079759.712 7
  94347866.23844        46.000          31.000
  20475073.743    20475072.5204   20475070.9854   20475071.350   107597265.273 8
  83842023.79246        52.000          43.000
  21956487.085    21956485.3724   21956485.4264                  115382130.285 7
  89908160.39645        49.000          37.000
  20117953.432    20117951.4604   20117951.1384                  105720588.532 8
  82379685.41946        51.000          42.000
  20926135.049    20926133.9074   20926132.1244                  109967619.633 8
  85689055.94345        51.000          39.000
  23385640.773    23385639.4994   23385637.2764                  122892397.165 6
  95760304.61542        41.000          23.000
  22761544.221    22761543.0844   22761539.5034                  119612754.874 7
  93204742.04544        46.000          30.000
  19764522.717    19764520.714    19764523.149                   105652752.679 8
  82174358.129 4        50.000          34.000
  19886247.214    19886246.593    19886244.907    19886245.531   106116857.770 8
  82535330.679 5        53.000          39.000
  23705944.174    23705943.943    23705944.412                   126944297.484 5
  98734468.570 4        35.000          30.000
  23150894.986    23150895.122    23150895.641                   123407348.978 5
  95983467.588 4        39.000          30.000
  19527026.121    19527023.468    19527024.811    19527025.353   104346552.728 8
  81158426.518 4        50.000          34.000
  20407289.768    20407287.689    20407291.395    20407289.929   109012089.501 8
  84787196.282 5        52.000          37.000
  24601001.936    24601003.139                                   131644921.481 4
                        30.000
  23261605.528    23261603.674    23261606.681    23261604.533   124172018.042 6
  96578239.233 4        42.000          31.000
  23706088.029    23706086.055                                   126811604.905 4
                        33.000
 11 10  1  0 19 30.0000000  0 18G02G04G05G07G08G10G13G16G23R01R02R08
                                R10R11R12R17R18R19
  21957674.826    21957673.6974   21957670.8634                  115388377.342 7
  89913015.41744        47.000          34.000
  23103267.992    23103266.5154   23103266.8194                  121408516.182 6
  94604028.68343        43.000          27.000
  23022914.483    23022913.2034   23022911.9784   23022913.040   120986237.599 7
  94274991.87144        46.000          31.000
  20468443.121    20468441.9624   20468440.3274   20468440.748   107562421.361 8
  83814872.70446        52.000          43.000
  21940107.859    21940106.4114   21940106.2464                  115296059.175 7
  89841092.00945        49.000          37.000
  20118940.397    20118938.6484   20118938.3694                  105725776.924 8
  82383728.32046        51.000          42.000
  20937688.968    20937687.9714   20937686.3004                  110028337.195 8
  85736368.32645        51.000          39.000
  23389956.196    23389955.1784   23389953.0944                  122915074.755 6
  95777975.45142        41.000          23.000
  22777941.432    22777939.6374   22777936.8884                  119698922.519 7
  93271885.64043        46.000          29.000
  19774914.704    19774912.662    19774914.832                   105708302.269 8
  82217563.342 4        51.000          34.000
  19873952.948    19873951.739    19873950.311    19873951.238   106051253.912 8
  82484305.459 5        52.000          39.000
  23727896.750    23727897.157                                   127061857.469 4
                        34.000
  23174523.446    23174523.140                                   123533294.889 6
                        40.000
  19534964.876    19534962.490    19534964.352    19534964.128   104388975.769 8
  81191422.222 4        50.000          34.000
  20389721.284    20389719.513    20389722.854    20389722.163   108918242.901 8
  84714204.497 5        51.000          38.000
  24621865.679    24621868.734                                   131756591.451 3
                        27.000
  23271144.617    23271141.260    23271146.839    23271146.325   124222943.051 6
  96617847.549 4        41.000          31.000
  23697493.859    23697492.102                                   126765622.858 5
                        36.000
 11 10  1  0 20  0.0000000  0 17G02G04G05G07G08G10G13G16G23R01R02R08
                                R10R11R12R18R19
  21961456.427    21961454.7294   21961452.1464                  115408248.158 7
  89928499.16144        47.000          34.000
  23121600.242    23121599.2454   23121599.6724                  121504852.729 7
  94679096.09543        45.000          26.000
  23005157.959    23005157.7134   23005156.0194   23005156.831   120892930.206 7
  94202284.83144        45.000          30.000
  20461913.278    20461912.2184   20461910.7644   20461911.083   107528107.528 8
  83788134.66546        51.000          43.000
  21923793.634    21923791.9394   21923791.9294                  115210326.118 7
  89774287.05545        49.000          37.000
  20120029.450    20120027.3334   20120026.9594                  105731496.807 8
  82388185.36746        51.000          43.000
  20949298.155    20949297.3344   20949295.4294                  110089344.023 8
  85783906.10745        51.000          39.000
  23394386.201    23394384.6894   23394382.5224                  122938355.403 6
  95796116.20842        42.000          23.000
  22794367.949    22794367.5294   22794362.8074                  119785247.947 7
  93339152.17243        45.000          29.000
  19785406.523    19785404.434    19785406.300                   105764386.921 8
  82261184.711 4        50.000          34.000
  19861741.589    19861740.205    19861738.046    19861739.423   105986089.566 8
  82433622.086 6        53.000          40.000
  23749879.336    23749880.493                                   127179566.515 5
                        36.000
  23198183.417    23198183.104    23198183.684    23198183.373   123659419.594 6
  96179522.492 4        40.000          30.000
  19543040.267    19543037.532    19543039.412    19543040.583   104432127.837 8
  81224984.950 4        50.000          34.000
  20372255.999    20372254.014    20372257.699    20372256.865   108824946.375 8
  84641640.544 5        52.000          38.000
  23280809.813    23280807.748    23280809.324    23280810.406   124274534.407 6
  96657974.153 4        41.000          31.000
  23689028.586    23689026.628                                   126720347.391 5
                        37.000
