     2.11           OBSERVATION DATA    G (GPS)             RINEX VERSION / TYPE
teqc  2016Apr1                          20160930 07:51:16UTCPGM / RUN BY / DATE
Linux 2.4.20-8|Pentium IV|gcc|Linux|486/DX+                 COMMENT
teqc  2016Apr1                          20160816 03:21:03UTCCOMMENT
teqc  2010Mar17     gpsops              20111002 00:06:20UTCCOMMENT
Linux 2.4.21-27.ELsmp|Opteron|gcc -static|Linux x86_64|=+   COMMENT
BIT 2 OF LLI FLAGS DATA COLLECTED UNDER A/S CONDITION       COMMENT
                                                            COMMENT
This data is provided as a public service by NASA/JPL.      COMMENT
No warranty is expressed or implied regarding suitability   COMMENT
for use.  For further information, contact:                 COMMENT
Dave Stowers, NASA/JPL m/s 238-600                          COMMENT
4800 Oak Grove Drive, Pasadena CA 91109 USA                 COMMENT
                                                            COMMENT
Forced Modulo Decimation to 30 seconds                      COMMENT
 SNR is mapped to RINEX snr flag value [0-9]                COMMENT
  L1 & L2: min(max(int(snr_dBHz/6), 0), 9)                  COMMENT
pseudorange smoothing corrections not applied               COMMENT
TIDB                                                        MARKER NAME
50103M108                                                   MARKER NUMBER
GGN                 JPL                                     OBSERVER / AGENCY
UC2200524011        ASHTECH UZ-12       CQ00                REC # / TYPE / VERS
205                 AOAD/M_T        JPLA                    ANT # / TYPE
 -4460996.4047  2682557.0885 -3674443.3930                  APPROX POSITION XYZ
        0.0614        0.0000        0.0000                  ANTENNA: DELTA H/E/N
     1     1                                                WAVELENGTH FACT L1/2
     7    L1    L2    P1    P2    C1    S1    S2            # / TYPES OF OBSERV
    30.0000                                                 INTERVAL
teqc windowed: start @ 2011 Oct  1 00:10:00.000             COMMENT
teqc windowed:  end  @ 2011 Oct  1 00:20:00.000             COMMENT
  2011    10     1     0    10    0.0000000     GPS         TIME OF FIRST OBS
                                                            END OF HEADER
 11 10  1  0 10  0.0000000  0 10G14G06G09G32G22G19G03G11G18G31
 -21722945.67449 -16876327.26348  20169056.9464   20169062.0324   20169057.1364
        55.0004         51.0004
    330108.69947    300798.25146  24005140.6434   24005149.6544   24005139.6794
        45.0004         40.0004
   4128795.06446   3242201.86846  25532162.7024   25532171.6514   25532162.3814
        40.0004         36.0004
  -5128395.38147  -3959273.16446  24118078.8954   24118087.0064   24118079.2014
        43.0004         39.0004
 -18535348.67349 -14387907.75148  21146613.0244   21146617.0034   21146613.6254
        54.0004         49.0004
 -12971667.64748 -10060420.91047  22223657.0104   22223662.3784   22223657.5164
        51.0004         47.0004
  -9730323.14147  -7536332.30646  23289137.0424   23289146.4474   23289136.7854
        44.0004         40.0004
  -8518428.58947  -6593625.56547  23187160.6254   23187166.8804   23187160.9514
        47.0004         43.0004
  -1022575.37247   -733583.17046  24210606.1594   24210614.8834   24210606.7654
        43.0004         39.0004
  -7416720.16248  -5764496.52147  23444556.8214   23444564.4434   23444556.1044
        48.0004         43.0004
 11 10  1  0 10 30.0000000  0 10G14G06G09G32G22G19G03G11G18G31
 -21692375.47649 -16852506.36248  20174874.2904   20174879.4774   20174874.8404
        55.0004         51.0004
    426052.75847    375559.65346  24023397.2964   24023406.5774   24023397.5294
        44.0004         40.0004
   4207029.65046   3303163.82446  25547048.4354   25547059.0764   25547047.4774
        41.0004         37.0004
  -5207972.28647  -4021281.11446  24102935.6544   24102943.5384   24102936.5694
        44.0004         39.0004
 -18492577.99249 -14354579.99648  21154751.8404   21154756.1784   21154752.4614
        54.0004         50.0004
 -12928973.32548 -10027152.66947  22231781.0964   22231786.6434   22231781.7874
        51.0004         47.0004
  -9654690.21447  -7477397.70646  23303530.3794   23303538.7784   23303529.3544
        44.0004         40.0004
  -8600098.40448  -6657264.35947  23171618.7264   23171624.7064   23171619.2094
        48.0004         43.0004
   -940841.03947   -669894.23146  24226159.5344   24226168.3894   24226160.0074
        43.0004         39.0004
  -7521110.99648  -5845839.84647  23424691.5004   23424698.9214   23424691.5724
        48.0004         44.0004
 11 10  1  0 11  0.0000000  0 10G14G06G09G32G22G19G03G11G18G31
 -21661331.06149 -16828315.94248  20180781.9684   20180787.0624   20180781.6434
        55.0004         51.0004
    522007.12847    450329.08746  24041656.6364   24041666.9944   24041656.4734
        44.0004         39.0004
   4285558.23046   3364354.79446  25561994.0124   25561999.7994   25561991.6184
        40.0004         36.0004
  -5287525.61947  -4083270.70246  24087797.4614   24087805.1714   24087798.0584
        44.0004         40.0004
 -18449609.26949 -14321097.92348  21162928.8504   21162933.0894   21162929.3854
        54.0004         50.0004
 -12885780.01448  -9993495.60447  22240001.1744   22240006.3814   22240001.7744
        51.0004         46.0004
  -9578921.12347  -7418357.02746  23317948.7864   23317958.3104   23317947.7934
        44.0004         40.0004
  -8681487.23647  -6720684.21447  23156130.8384   23156137.2974   23156131.1414
        47.0004         43.0004
   -859063.02747   -606171.22546  24241720.6994   24241729.0454   24241721.0384
        42.0004         37.0004
  -7625401.07748  -5927104.66747  23404845.9174   23404853.0354   23404845.1274
        48.0004         44.0004
 11 10  1  0 11 30.0000000  0 10G14G06G09G32G22G19G03G11G18G31
 -21629814.14449 -16803757.34648  20186779.7154   20186784.5574   20186779.7144
        55.0004         51.0004
    617968.58747    525104.05446  24059917.6844   24059928.3964   24059918.4204
        44.0004         40.0004
   4364378.72746   3425773.33446  25576989.8814   25577001.0004   25576989.2984
        40.0004         36.0004
  -5367055.22647  -4145241.80146  24072664.5194   24072671.7634   24072664.0444
        44.0004         40.0004
 -18406442.48549 -14287461.51648  21171142.9384   21171147.1944   21171143.5404
        54.0004         49.0004
 -12842089.86348  -9959451.39347  22248314.9694   22248320.1654   22248315.8904
        51.0004         46.0004
  -9503018.95347  -7359212.63946  23332392.0714   23332401.0534   23332391.1484
        44.0004         40.0004
  -8762592.65848  -6783883.22447  23140697.1964   23140703.6214   23140697.8074
        48.0004         43.0004
   -777241.02247   -542413.95646  24257292.6754   24257301.3644   24257291.2824
        42.0004         38.0004
  -7729587.21448  -6008288.48347  23385019.6584   23385027.2934   23385019.8134
        48.0004         44.0004
 11 10  1  0 12  0.0000000  0 10G14G06G09G32G22G19G03G11G18G31
 -21597826.83649 -16778832.21348  20192866.5514   20192871.6824   20192866.3464
        55.0004         51.0004
    713934.35247    599882.35346  24078179.5984   24078189.3384   24078179.7284
        44.0004         40.0004
   4443488.77346   3487417.46546  25592043.3894   25592053.2264   25592044.1544
        40.0004         36.0004
  -5446560.90047  -4207194.26546  24057534.2464   24057542.2084   24057534.9654
        44.0004         40.0004
 -18363077.86349 -14253670.95548  21179394.8194   21179399.2274   21179395.6284
        54.0004         49.0004
 -12797905.52848  -9925022.11447  22256723.1954   22256728.3394   22256723.8724
        50.0004         46.0004
  -9426986.27347  -7299966.54646  23346860.2494   23346869.0894   23346860.6364
        44.0004         39.0004
  -8843412.36247  -6846859.59447  23125317.8834   23125323.8804   23125318.4884
        47.0004         43.0004
   -695375.35547   -478622.67846  24272870.5214   24272878.2744   24272871.1394
        43.0004         39.0004
  -7833666.44248  -6089388.99747  23365214.3604   23365221.7004   23365214.2034
        48.0004         44.0004
 11 10  1  0 12 30.0000000  0 10G14G06G09G32G22G19G03G11G18G31
 -21565371.14549 -16753542.10848  20199042.7404   20199047.7604   20199042.8574
        55.0004         51.0004
    809901.34247    674661.61846  24096441.8704   24096452.7034   24096441.9444
        44.0004         40.0004
   4522886.21646   3549285.48846  25607154.3674   25607164.0924   25607155.9304
        40.0004         36.0004
  -5526042.42847  -4269127.89546  24042409.8564   24042416.9264   24042408.8474
        44.0004         40.0004
 -18319515.48549 -14219726.29148  21187684.7924   21187688.7904   21187685.6184
        54.0004         49.0004
 -12753229.00048  -9890209.30247  22265224.6994   22265230.3464   22265225.4524
        50.0004         46.0004
  -9350826.22347  -7240621.22446  23361353.6554   23361363.8284   23361353.7784
        44.0004         40.0004
  -8923944.16947  -6909611.62947  23109993.5074   23109998.7964   23109992.8174
        47.0004         43.0004
   -613465.79647   -414797.21446  24288457.1204   24288463.4694   24288457.2634
        42.0004         38.0004
  -7937635.62448  -6170403.74247  23345429.7294   23345436.7634   23345429.0884
        48.0004         44.0004
 11 10  1  0 13  0.0000000  0 10G14G06G09G32G22G19G03G11G18G31
 -21532448.84349 -16727888.41148  20205307.7164   20205312.6744   20205307.7524
        55.0004         51.0004
    905866.71147    749439.62446  24114703.5774   24114714.4224   24114703.8154
        44.0004         40.0004
   4602568.71446   3611375.73946  25622317.1234   25622328.0214   25622318.3274
        40.0004         36.0004
  -5605499.68647  -4331042.62346  24027289.3104   24027297.2164   24027288.9814
        44.0004         40.0004
 -18275755.23349 -14185627.44348  21196012.2794   21196016.5764   21196012.7914
        54.0004         49.0004
 -12708062.74848  -9855014.89147  22273820.0834   22273824.9594   22273820.3274
        50.0004         46.0004
  -9274541.54247  -7181178.78846  23375871.3314   23375881.0084   23375870.9054
        44.0004         40.0004
  -9004185.60547  -6972137.40947  23094723.4284   23094729.6744   23094723.9704
        47.0004         43.0004
   -531513.02847   -350938.04846  24304052.2084   24304060.5754   24304051.4934
        42.0004         38.0004
  -8041491.87348  -6251330.50747  23325666.2484   23325673.3414   23325665.7654
        49.0004         44.0004
 11 10  1  0 13 30.0000000  0 10G14G06G09G32G22G19G03G11G18G31
 -21499062.04249 -16701872.77048  20211660.6614   20211665.9934   20211660.9014
        55.0004         51.0004
   1001827.32747    824213.92046  24132964.5384   24132974.4834   24132963.4154
        44.0004         39.0004
   4682534.22346   3673686.44145  25637535.3254   25637544.1214   25637533.8714
        40.0004         35.0004
  -5684932.40747  -4392938.22746  24012174.2384   24012182.0924   24012174.3194
        44.0004         40.0004
 -18231797.29349 -14151374.55948  21204376.8974   21204381.2654   21204377.4694
        54.0004         49.0004
 -12662409.13848  -9819440.73347  22282507.4794   22282513.0214   22282508.0624
        50.0004         46.0004
  -9198135.49447  -7121641.78446  23390408.9254   23390420.2034   23390409.5024
        44.0004         40.0004
  -9084134.38347  -7034435.15747  23079509.5734   23079516.0184   23079510.2384
        47.0004         43.0004
   -449517.09847   -287045.27546  24319655.8584   24319665.0124   24319655.9254
        43.0004         38.0004
  -8145232.20648  -6332166.95247  23305925.1554   23305931.8054   23305924.2274
        49.0004         44.0004
 11 10  1  0 14  0.0000000  0 10G14G06G09G32G22G19G03G11G18G31
 -21465212.26749 -16675496.37048  20218102.4134   20218107.4294   20218102.2184
        55.0004         51.0004
   1097780.43947    898982.35246  24151224.0434   24151234.5904   24151223.8924
        43.0004         39.0004
   4762780.26946   3736215.74445  25652804.7134   25652814.7394   25652803.8364
        39.0004         35.0004
  -5764340.56547  -4454814.69346  23997063.5344   23997071.5244   23997063.0864
        44.0004         40.0004
 -18187642.21549 -14116968.04648  21212779.6964   21212783.8414   21212780.0724
        54.0004         49.0004
 -12616270.51548  -9783488.64647  22291287.5504   22291292.7674   22291287.8444
        50.0004         46.0004
  -9121610.90747  -7062012.40546  23404972.0534   23404981.8844   23404971.6814
        44.0004         40.0004
  -9163788.19047  -7096503.03147  23064352.0814   23064358.3684   23064352.6964
        47.0004         43.0004
   -367478.22647   -223119.09646  24335268.1364   24335276.5654   24335266.7474
        42.0004         38.0004
  -8248853.28948  -6412910.48447  23286206.6304   23286212.8964   23286205.5564
        49.0004         44.0004
 11 10  1  0 14 30.0000000  0 10G14G06G09G32G22G19G03G11G18G31
 -21430901.72549 -16648760.93448  20224631.3154   20224636.4804   20224631.4604
        55.0004         51.0004
   1193723.20747    973742.71646  24169481.3354   24169492.3844   24169480.5434
        43.0004         39.0004
   4843304.99046   3798962.19946  25668126.6854   25668135.9624   25668129.6184
        40.0004         36.0004
  -5843723.72847  -4516671.69246  23981955.7584   23981963.6494   23981956.6494
        45.0004         40.0004
 -18143289.46549 -14082407.51148  21221219.7444   21221223.9104   21221220.0624
        54.0004         49.0004
 -12569649.37148  -9747160.56347  22300159.0014   22300164.4494   22300159.3774
        50.0004         46.0004
  -9044970.54847  -7002292.83246  23419555.8494   23419565.3744   23419555.7874
        44.0004         40.0004
  -9243144.89847  -7158339.42147  23049252.1424   23049256.9954   23049251.3924
        47.0004         43.0004
   -285396.26347   -159159.23446  24350886.8234   24350893.7144   24350886.4844
        42.0004         38.0004
  -8352352.22148  -6493558.86247  23266510.6914   23266517.9774   23266510.5954
        49.0004         44.0004
 11 10  1  0 15  0.0000000  0 10G14G06G09G32G22G19G03G11G18G31
 -21396132.65349 -16621668.19848  20231247.7734   20231252.9484   20231247.7424
        55.0004         51.0004
   1289652.56447   1048492.65146  24187736.3354   24187747.4364   24187736.2454
        44.0004         39.0004
   4924105.84346   3861923.82545  25683504.0374   25683515.5794   25683504.9634
        40.0004         35.0004
  -5923081.80347  -4578509.13546  23966853.9734   23966863.4764   23966855.5814
        45.0004         40.0004
 -18098739.47249 -14047693.28148  21229697.4984   21229701.8314   21229698.0574
        54.0004         49.0004
 -12522547.65748  -9710457.99647  22309122.4494   22309128.1554   22309123.2844
        50.0004         46.0004
  -8968217.73747  -6942485.63046  23434160.2794   23434171.9074   23434161.1444
        44.0004         40.0004
  -9322202.23047  -7219942.52647  23034207.4924   23034212.7174   23034207.1454
        47.0004         43.0004
   -203271.45347    -95165.98446  24366516.1924   24366525.9254   24366516.3884
        42.0004         38.0004
  -8455726.05548  -6574109.74947  23246839.0474   23246846.3114   23246838.8134
        49.0004         44.0004
 11 10  1  0 15 30.0000000  0 10G14G06G09G32G22G19G03G11G18G31
 -21360906.53849 -16594219.32348  20237951.1004   20237956.3304   20237951.2504
        55.0004         51.0004
   1385565.65547   1123229.91146  24205988.8544   24205999.0604   24205987.7794
        44.0004         39.0004
   5005180.72046   3925098.90445  25698932.2924   25698943.7314   25698928.7094
        39.0004         34.0004
  -6002414.57747  -4640326.87046  23951758.1034   23951767.1044   23951758.7614
        45.0004         40.0004
 -18053992.45049 -14012825.52248  21238212.4354   21238216.5994   21238212.7754
        54.0004         50.0004
 -12474968.12648  -9673383.11447  22318176.6744   22318182.0034   22318177.2934
        50.0004         46.0004
  -8891355.13347  -6882592.88646  23448787.7254   23448797.7734   23448788.7624
        44.0004         40.0004
  -9400957.87347  -7281310.54447  23019220.7144   23019226.9224   23019220.8674
        47.0004         43.0004
   -121103.99547    -31139.65446  24382150.0934   24382160.6974   24382150.3774
        42.0004         38.0004
  -8558971.81948  -6654560.84647  23227191.7404   23227199.0224   23227191.2304
        49.0004         44.0004
 11 10  1  0 16  0.0000000  0 10G14G06G09G32G22G19G03G11G18G31
 -21325225.74649 -16566416.15048  20244741.1164   20244746.3334   20244741.0804
        55.0004         51.0004
   1481459.80247   1197952.40046  24224236.6764   24224246.8854   24224237.0654
        43.0004         39.0004
   5086527.52946   3988486.02445  25714411.8304   25714422.4154   25714412.7914
        39.0004         35.0004
  -6081721.81247  -4702124.69746  23936666.9704   23936674.6064   23936667.0034
        45.0004         40.0004
 -18009048.28749 -13977804.15348  21246765.2394   21246769.2984   21246765.8254
        54.0004         50.0004
 -12426913.27448  -9635937.86247  22327320.9174   22327326.4104   22327321.9234
        50.0004         46.0004
  -8814385.52347  -6822616.72846  23463436.5364   23463446.2824   23463436.5844
        44.0004         40.0004
  -9479409.54447  -7342441.70447  23004291.3644   23004297.1704   23004291.4674
        47.0004         43.0004
    -38893.97247     32919.91946  24397794.9354   24397804.4774   24397795.9784
        43.0004         39.0004
  -8662086.07648  -6734909.47947  23207570.1414   23207576.1954   23207569.0354
        49.0004         44.0004
 11 10  1  0 16 30.0000000  0 10G14G06G09G32G22G19G03G11G18G31
 -21289092.31249 -16538260.26848  20251617.0374   20251622.0834   20251617.0494
        55.0004         51.0004
   1577331.62147   1272657.47246  24242481.0304   24242491.9184   24242481.3644
        43.0004         39.0004
   5168143.61646   4052082.97246  25729944.4414   25729954.7864   25729944.3814
        40.0004         36.0004
  -6161003.42647  -4763902.56346  23921578.7534   23921588.3804   23921579.3994
        44.0004         40.0004
 -17963907.34549 -13942629.45048  21255355.2094   21255359.5944   21255355.7274
        54.0004         50.0004
 -12378385.45948  -9598124.06747  22336555.3314   22336561.8494   22336555.2634
        50.0004         46.0004
  -8737311.98047  -6762559.63446  23478101.3714   23478111.3424   23478101.4694
        44.0004         39.0004
  -9557555.12647  -7403334.35347  22989420.8714   22989426.5574   22989421.1004
        47.0004         43.0004
     43358.37247     97012.54846  24413449.3164   24413455.9234   24413448.8374
        43.0004         38.0004
  -8765066.14248  -6815153.58147  23187974.4744   23187980.6854   23187972.7794
        49.0004         45.0004
 11 10  1  0 17  0.0000000  0 10G14G06G09G32G22G19G03G11G18G31
 -21252508.02549 -16509753.06848  20258578.7044   20258583.9774   20258578.9354
        55.0004         51.0004
   1673178.70347   1347343.27946  24260719.5234   24260730.5884   24260719.0384
        43.0004         38.0004
   5250027.14746   4115888.13145  25745527.3464   25745535.6994   25745524.8034
        40.0004         35.0004
  -6240258.89447  -4825660.05646  23906498.4114   23906507.5994   23906498.8404
        45.0004         40.0004
 -17918569.29349 -13907301.15148  21263982.6964   21263987.0564   21263983.3094
        54.0004         50.0004
 -12329387.00648  -9559943.53247  22345880.0494   22345885.3754   22345880.4704
        50.0004         46.0004
  -8660137.18647  -6702423.60946  23492787.7274   23492796.7244   23492787.9334
        44.0004         40.0004
  -9635391.99147  -7463986.43047  22974609.4094   22974614.9024   22974609.0434
        47.0004         43.0004
    125653.13147    161138.18446  24429106.8534   24429116.9674   24429107.6204
        42.0004         37.0004
  -8867908.59648  -6895290.43647  23168403.5684   23168409.9764   23168402.5204
        49.0004         45.0004
 11 10  1  0 17 30.0000000  0 10G14G06G09G32G22G19G03G11G18G31
 -21215474.86649 -16480896.09648  20265626.0504   20265631.1784   20265625.9964
        55.0004         51.0004
   1768997.85147   1422007.31746  24278953.5874   24278964.8774   24278954.3924
        43.0004         39.0004
   5332175.68446   4179899.81845  25761155.5064   25761166.6554   25761159.7734
        39.0004         35.0004
  -6319488.39747  -4887397.31646  23891420.8614   23891429.1714   23891421.1884
        45.0004         40.0004
 -17873034.76549 -13871819.75748  21272647.6184   21272651.9304   21272648.1194
        54.0004         49.0004
 -12279920.82848  -9521398.54847  22355293.1274   22355298.9564   22355293.7364
        50.0004         46.0004
  -8582864.29347  -6642211.15846  23507492.8764   23507502.8144   23507493.6654
        44.0004         39.0004
  -9712918.09247  -7524396.36847  22959856.8184   22959861.5014   22959856.6024
        47.0004         43.0004
    207989.82847    225296.45246  24444777.2204   24444785.2124   24444776.4014
        42.0004         38.0004
  -8970610.61948  -6975317.86447  23148860.1764   23148866.3304   23148858.4774
        49.0004         45.0004
 11 10  1  0 18  0.0000000  0 10G14G06G09G32G22G19G03G11G18G31
 -21177995.01749 -16451691.05448  20272758.3334   20272763.5044   20272758.1964
        55.0004         51.0004
   1864786.36847   1496647.49246  24297182.2234   24297192.8534   24297182.1544
        43.0004         39.0004
   5414586.46346   4244115.94746  25776840.6694   25776850.0724   25776838.6794
        40.0004         37.0004
  -6398691.36347  -4949113.89546  23876349.0954   23876357.7914   23876349.7214
        45.0004         40.0004
 -17827303.31749 -13836184.92048  21281350.2894   21281354.3864   21281350.4364
        54.0004         50.0004
 -12229989.05848  -9482490.76147  22364794.9264   22364800.6284   22364795.2834
        50.0004         46.0004
  -8505496.31347  -6581924.60946  23522215.4164   23522224.8224   23522215.5684
        44.0004         39.0004
  -9790131.10747  -7584562.33347  22945163.3704   22945169.5334   22945163.1684
        47.0004         43.0004
    290368.71047    289487.64146  24460451.8804   24460461.6244   24460451.9884
        43.0004         39.0004
  -9073169.21048  -7055233.54247  23129343.5454   23129350.4324   23129342.0324
        49.0004         45.0004
 11 10  1  0 18 30.0000000  0 10G14G06G09G32G22G19G03G11G18G31
 -21140070.40549 -16422139.44148  20279975.1604   20279980.3604   20279975.2264
        55.0004         51.0004
   1960541.53647   1571261.65246  24315402.2704   24315414.2844   24315402.9404
        43.0004         38.0004
   5497257.65446   4308534.94846  25792569.2434   25792580.6714   25792570.5924
        41.0004         36.0004
  -6477867.67147  -5010809.70146  23861281.6584   23861290.1944   23861282.2894
        45.0004         40.0004
 -17781375.38649 -13800396.98148  21290090.1054   21290094.4024   21290090.5474
        54.0004         49.0004
 -12179594.48848  -9443222.34547  22374384.6324   22374390.1844   22374385.3634
        50.0004         46.0004
  -8428036.10447  -6521566.19646  23536955.4784   23536965.5004   23536956.2824
        43.0004         39.0004
  -9867028.93048  -7644482.69447  22930530.0984   22930535.7084   22930529.5474
        48.0004         43.0004
    372789.28247    353711.25946  24476136.7044   24476144.6114   24476137.4124
        42.0004         38.0004
  -9175581.37948  -7135035.12147  23109854.8114   23109861.3744   23109854.4984
        49.0004         45.0004
 11 10  1  0 19  0.0000000  0  9G14G06G32G22G19G03G11G18G31
 -21101703.17649 -16392242.93248  20287276.3674   20287281.3874   20287276.1084
        55.0004         51.0004
   2056260.39347   1645847.52646  24333618.2324   24333628.5654   24333617.6674
        42.0004         38.0004
  -6557016.95347  -5072484.44846  23846220.4594   23846229.5094   23846221.1974
        45.0004         40.0004
 -17735250.81549 -13764455.81548  21298867.4524   21298871.3584   21298867.8134
        54.0004         49.0004
 -12128739.56048  -9403595.20647  22384061.8494   22384067.9674   22384062.1674
        50.0004         46.0004
  -8350486.52647  -6461138.14446  23551714.2264   23551724.3354   23551713.5914
        43.0004         39.0004
  -9943609.11548  -7704155.56047  22915957.8264   22915963.6124   22915957.3424
        48.0004         43.0004
    455251.89147    417967.73646  24491829.0074   24491837.4154   24491829.4204
        42.0004         38.0004
  -9277843.67348  -7214719.91847  23090394.5814   23090401.5014   23090394.3134
        49.0004         45.0004
 11 10  1  0 19 30.0000000  0  9G14G06G32G22G19G03G11G18G31
 -21062895.50149 -16362003.21948  20294661.0784   20294666.1214   20294661.1304
        55.0004         51.0004
   2151940.09447   1720402.89546  24351825.3234   24351835.5194   24351825.7364
        42.0004         38.0004
  -6636139.11647  -5134138.05946  23831163.8124   23831172.4924   23831164.7574
        45.0004         41.0004
 -17688929.86549 -13728361.62548  21307682.1974   21307686.2824   21307682.5584
        54.0004         49.0004
 -12077426.55348  -9363611.11747  22393827.1204   22393831.9594   22393827.6484
        50.0004         46.0004
  -8272850.22247  -6400642.52746  23566487.9354   23566496.5704   23566487.5804
        43.0004         39.0004
 -10019869.50248  -7763579.22547  22901445.8564   22901451.6624   22901445.0394
        48.0004         44.0004
    537756.19347    482256.69246  24507528.3674   24507537.5364   24507528.2174
        43.0004         39.0004
  -9379953.08148  -7294285.57447  23070964.3314   23070970.5194   23070963.4434
        49.0004         45.0004
 11 10  1  0 20  0.0000000  0  9G14G06G32G22G19G03G11G18G31
 -21023649.22249 -16331421.73748  20302129.5704   20302134.6034   20302129.2484
        55.0004         51.0004
   2247577.61447   1794925.40046  24370024.1434   24370035.6614   24370024.2314
        42.0004         38.0004
  -6715233.89647  -5195770.33546  23816112.7754   23816121.7804   23816113.4534
        45.0004         41.0004
 -17642412.67348 -13692114.52348  21316533.8884   21316538.2934   21316534.3614
        53.0004         49.0004
 -12025658.74548  -9323272.65147  22403677.9944   22403683.0684   22403678.4904
        50.0004         46.0004
  -8195130.58747  -6340081.97346  23581276.9534   23581287.3664   23581276.8884
        43.0004         38.0004
 -10095807.84948  -7822751.95647  22886994.7124   22887000.8154   22886995.2264
        48.0004         44.0004
    620301.87247    546577.79646  24523238.4524   24523246.1494   24523238.3634
        42.0004         38.0004
  -9481906.68048  -7373729.84147  23051562.3314   23051569.6824   23051562.2624
        49.0004         44.0004
