     2.11           OBSERVATION DATA    G (GPS)             RINEX VERSION / TYPE
teqc  2016Apr1                          20160930 07:51:15UTCPGM / RUN BY / DATE
Linux 2.4.20-8|Pentium IV|gcc|Linux|486/DX+                 COMMENT
teqc  2016Apr1                          20160816 03:10:25UTCCOMMENT
teqc  2010Mar17     gpsops              20111008 00:07:52UTCCOMMENT
Linux 2.4.21-27.ELsmp|Opteron|gcc -static|Linux x86_64|=+   COMMENT
BIT 2 OF LLI FLAGS DATA COLLECTED UNDER A/S CONDITION       COMMENT
                                                            COMMENT
This data is provided as a public service by NASA/JPL.      COMMENT
No warranty is expressed or implied regarding suitability   COMMENT
for use.  For further information, contact:                 COMMENT
Dave Stowers, NASA/JPL m/s 238-600                          COMMENT
4800 Oak Grove Drive, Pasadena CA 91109 USA                 COMMENT
                                                            COMMENT
Forced Modulo Decimation to 30 seconds                      COMMENT
 SNR is mapped to RINEX snr flag value [0-9]                COMMENT
  L1 & L2: min(max(int(snr_dBHz/6), 0), 9)                  COMMENT
pseudorange smoothing corrections not applied               COMMENT
IISC                                                        MARKER NAME
22306M002                                                   MARKER NUMBER
GGN                 C-MMACS                                 OBSERVER / AGENCY
ZR520013802         ASHTECH UZ-12       CQ00                REC # / TYPE / VERS
CR6200548032        ASH701945E_M    NONE                    ANT # / TYPE
  1337936.4550  6070317.1261  1427876.7852                  APPROX POSITION XYZ
        0.0780        0.0000        0.0000                  ANTENNA: DELTA H/E/N
     1     1                                                WAVELENGTH FACT L1/2
     7    L1    L2    P1    P2    C1    S1    S2            # / TYPES OF OBSERV
    30.0000                                                 INTERVAL
teqc windowed: start @ 2011 Oct  1 00:10:00.000             COMMENT
teqc windowed:  end  @ 2011 Oct  1 00:20:00.000             COMMENT
  2011    10     1     0    10    0.0000000     GPS         TIME OF FIRST OBS
                                                            END OF HEADER
 11 10  1  0 10  0.0000000  0 10G16G20G11G07G06G32G23G13G03G19
   2821614.07048   2209816.24347  22110188.2304   22110189.7944   22110188.7874
        50.0004         45.0004
 -15694575.73648 -12144643.07947  21454386.1984   21454386.4494   21454387.0494
        52.0004         47.0004
  -3814370.44747  -2967883.07546  24617419.5744   24617421.4554   24617419.7414
        43.0004         38.0004
  -4467207.27847  -3461872.72046  23883320.7344   23883320.4454   23883320.2924
        46.0004         41.0004
 -11379917.90548  -8853308.75847  22575918.7364   22575921.3854   22575919.6614
        48.0004         44.0004
 -14609636.57348 -11350404.60247  22261366.0834   22261367.7704   22261366.3534
        50.0004         45.0004
 -20918726.62549 -16154275.70748  20735266.8594   20735265.7354   20735267.0104
        54.0004         49.0004
 -14573466.94648 -11318764.43047  22155205.5844   22155206.8664   22155206.2344
        48.0004         43.0004
 -18530979.69048 -14414953.67747  21203540.8234   21203543.4194   21203541.1254
        52.0004         47.0004
 -14512432.96148 -11272130.27547  21941857.6394   21941857.4254   21941858.1964
        51.0004         46.0004
 11 10  1  0 10 30.0000000  0 10G16G20G11G07G06G32G23G13G03G19
   2910941.17348   2279421.76747  22127186.9384   22127189.5104   22127187.7564
        50.0004         45.0004
 -15634990.33248 -12098212.90247  21465725.4214   21465725.6994   21465726.3944
        52.0004         47.0004
  -3839129.31047  -2987175.68546  24612710.0574   24612707.7424   24612710.4914
        43.0004         38.0004
  -4492388.64147  -3481494.53846  23878528.0184   23878529.2434   23878528.6784
        46.0004         41.0004
 -11351916.93448  -8831489.84447  22581247.9224   22581248.9234   22581247.4834
        48.0004         44.0004
 -14529836.55648 -11288222.77547  22276550.6774   22276553.4054   22276552.3484
        50.0004         45.0004
 -20972816.04749 -16196423.31648  20724973.8434   20724973.2394   20724974.5884
        54.0004         49.0004
 -14653766.08148 -11381335.19947  22139925.4664   22139927.1864   22139925.9584
        48.0004         43.0004
 -18532424.40448 -14416079.44547  21203266.4314   21203268.4264   21203267.3924
        52.0004         47.0004
 -14568097.73948 -11315505.44047  21931266.2794   21931265.3964   21931268.1594
        51.0004         47.0004
 11 10  1  0 11  0.0000000  0 10G16G20G11G07G06G32G23G13G03G19
   3000468.80748   2349183.53147  22144223.6254   22144225.4444   22144223.8854
        50.0004         45.0004
 -15575092.14748 -12051539.00247  21477122.9964   21477124.1044   21477124.4864
        52.0004         47.0004
  -3864159.88547  -3006680.01246  24607945.1644   24607946.2894   24607946.0774
        43.0004         38.0004
  -4517601.82347  -3501141.14546  23873730.3034   23873731.3274   23873728.1554
        46.0004         41.0004
 -11323439.69348  -8809299.80947  22586665.6924   22586667.6884   22586666.3354
        48.0004         43.0004
 -14449832.90948 -11225882.28247  22291775.5754   22291776.6564   22291776.6684
        50.0004         45.0004
 -21026600.90249 -16238333.60448  20714738.5874   20714737.7084   20714739.2804
        54.0004         49.0004
 -14733986.85248 -11443844.89747  22124658.8204   22124661.0454   22124659.0244
        48.0004         43.0004
 -18533329.84548 -14416784.99147  21203094.9994   21203096.3184   21203095.0344
        52.0004         47.0004
 -14623476.87848 -11358658.02247  21920727.1074   21920727.3084   21920728.2984
        51.0004         47.0004
 11 10  1  0 11 30.0000000  0 10G16G20G11G07G06G32G23G13G03G19
   3090190.96148   2419096.87247  22161297.5234   22161299.0664   22161298.9574
        50.0004         45.0004
 -15514886.95648 -12004625.86147  21488578.9414   21488580.6264   21488580.2214
        52.0004         47.0004
  -3889464.53947  -3026397.93146  24603129.9494   24603129.8734   24603131.0774
        43.0004         38.0004
  -4542851.43147  -3520816.14646  23868925.8964   23868926.4524   23868925.3784
        46.0004         41.0004
 -11294489.62848  -8786741.34347  22592175.7434   22592177.7684   22592175.4034
        48.0004         43.0004
 -14369631.55848 -11163387.72947  22307037.5514   22307039.5824   22307038.0684
        50.0004         45.0004
 -21080081.44749 -16280006.76448  20704561.8784   20704560.8484   20704562.3524
        54.0004         49.0004
 -14814129.87448 -11506294.02447  22109410.0544   22109410.6854   22109408.7574
        48.0004         43.0004
 -18533698.26248 -14417072.09047  21203024.1834   21203025.9504   21203024.4264
        52.0004         47.0004
 -14678570.47648 -11401588.12347  21910242.7484   21910243.7814   21910243.6204
        51.0004         47.0004
 11 10  1  0 12  0.0000000  0 10G16G20G11G07G06G32G23G13G03G19
   3180110.45048   2489163.97347  22178408.5054   22178410.4514   22178408.3034
        50.0004         45.0004
 -15454371.67548 -11957471.11947  21500095.5374   21500096.9954   21500096.4564
        52.0004         47.0004
  -3915036.71747  -3046324.29746  24598263.9014   24598264.1934   24598264.2694
        43.0004         38.0004
  -4568132.59847  -3540515.70446  23864114.7734   23864113.7104   23864114.3604
        45.0004         40.0004
 -11265060.77148  -8763809.80647  22597776.0704   22597776.7074   22597776.3274
        48.0004         43.0004
 -14289229.29848 -11100736.61847  22322336.6534   22322338.4294   22322337.8194
        50.0004         45.0004
 -21133249.23949 -16321436.22348  20694444.5044   20694443.2454   20694444.8324
        54.0004         49.0004
 -14894187.08448 -11568676.26347  22094174.9344   22094176.2484   22094175.2164
        48.0004         43.0004
 -18533522.41948 -14416935.09147  21203057.9994   21203059.9934   21203058.6164
        52.0004         47.0004
 -14733369.98648 -11444289.06847  21899814.2534   21899816.0254   21899815.6144
        51.0004         47.0004
 11 10  1  0 12 30.0000000  0 10G16G20G11G07G06G32G23G13G03G19
   3270218.89348   2559378.32647  22195554.9764   22195556.2304   22195556.2014
        50.0004         45.0004
 -15393554.88348 -11910081.41247  21511668.2584   21511669.3974   21511669.4494
        52.0004         47.0004
  -3940881.48847  -3066463.09046  24593346.4834   24593346.6794   24593347.1114
        43.0004         38.0004
  -4593452.01147  -3560245.10046  23859295.7574   23859297.1954   23859294.6294
        45.0004         40.0004
 -11235159.02548  -8740509.75847  22603464.8394   22603468.4094   22603465.0254
        48.0004         43.0004
 -14208634.53848 -11037935.51947  22337674.4664   22337676.5624   22337675.4204
        50.0004         45.0004
 -21186107.37749 -16362624.39148  20684385.4854   20684384.2274   20684386.4684
        54.0004         49.0004
 -14974161.48848 -11630993.98847  22078956.6064   22078957.3604   22078957.2424
        48.0004         43.0004
 -18532807.18048 -14416377.77247  21203193.7084   21203195.7314   21203194.2144
        52.0004         47.0004
 -14787877.91048 -11486762.79747  21889442.0374   21889443.2754   21889443.5754
        51.0004         46.0004
 11 10  1  0 13  0.0000000  0 10G16G20G11G07G06G32G23G13G03G19
   3360516.61148   2629740.15247  22212738.5054   22212739.6204   22212738.9124
        49.0004         45.0004
 -15332435.85448 -11862456.20447  21523299.1334   21523300.6584   21523300.0474
        52.0004         47.0004
  -3966994.50847  -3086810.88346  24588376.6534   24588377.1004   24588376.9244
        42.0004         37.0004
  -4618807.42947  -3580002.49146  23854473.1364   23854472.5484   23854472.7384
        45.0004         40.0004
 -11204780.79248  -8716838.44347  22609245.0304   22609247.5654   22609245.1334
        48.0004         43.0004
 -14127846.53148 -10974983.82947  22353047.5064   22353049.9224   22353047.5504
        50.0004         45.0004
 -21238649.38549 -16403566.23048  20674387.6504   20674386.4274   20674388.2974
        54.0004         49.0004
 -15054047.29848 -11693242.67147  22063754.6564   22063755.1514   22063754.8834
        48.0004         44.0004
 -18531547.83648 -14415396.48247  21203433.0184   21203435.7594   21203433.7774
        51.0004         47.0004
 -14842087.82448 -11529004.30747  21879126.8114   21879126.5894   21879127.9724
        51.0004         47.0004
 11 10  1  0 13 30.0000000  0 10G16G20G11G07G06G32G23G13G03G19
   3450999.46848   2700246.25347  22229957.0014   22229957.2524   22229957.3124
        49.0004         45.0004
 -15271018.78748 -11814598.74947  21534986.3854   21534987.6504   21534987.6154
        52.0004         47.0004
  -3993376.16547  -3107368.03946  24583356.1344   24583357.1774   24583356.8784
        42.0004         38.0004
  -4644201.51347  -3599790.06346  23849638.3464   23849639.2974   23849636.7164
        45.0004         40.0004
 -11173927.66648  -8692797.08147  22615116.8264   22615119.8454   22615117.7674
        48.0004         43.0004
 -14046869.12048 -10911884.55847  22368457.4334   22368460.1144   22368457.6594
        50.0004         45.0004
 -21290874.08949 -16444260.81948  20664449.3524   20664448.3114   20664449.6914
        54.0004         49.0004
 -15133843.09348 -11755421.22147  22048570.0784   22048570.7704   22048569.9504
        48.0004         43.0004
 -18529744.96748 -14413991.67247  21203776.5284   21203779.2754   21203776.9304
        52.0004         47.0004
 -14895997.98948 -11571012.23747  21868867.9684   21868868.0664   21868869.8704
        51.0004         47.0004
 11 10  1  0 14  0.0000000  0 10G16G20G11G07G06G32G23G13G03G19
   3541664.74948   2770894.48847  22247210.3424   22247210.6414   22247211.2204
        49.0004         45.0004
 -15209305.48048 -11766510.46847  21546730.1594   21546731.1954   21546731.1344
        52.0004         47.0004
  -4020025.29747  -3128133.59146  24578285.5074   24578284.0254   24578286.3544
        42.0004         38.0004
  -4669634.57547  -3619608.01446  23844799.4724   23844798.9264   23844798.0174
        45.0004         40.0004
 -11142598.97548  -8668385.16147  22621078.7654   22621081.4624   22621080.1574
        48.0004         43.0004
 -13965704.60748 -10848639.50747  22383902.7964   22383904.3434   22383903.5904
        50.0004         45.0004
 -21342777.95749 -16484705.39948  20654572.5144   20654571.3454   20654573.4034
        54.0004         49.0004
 -15213545.66548 -11817527.13347  22033402.9644   22033403.8224   22033403.3074
        48.0004         44.0004
 -18527396.97548 -14412162.07347  21204222.8374   21204225.7454   21204223.2084
        52.0004         47.0004
 -14949604.82648 -11612783.81547  21858666.9974   21858667.0014   21858668.3244
        51.0004         47.0004
 11 10  1  0 14 30.0000000  0 10G16G20G11G07G06G32G23G13G03G19
   3632509.99148   2841682.93847  22264497.3914   22264498.3774   22264498.1794
        49.0004         45.0004
 -15147298.87048 -11718193.62347  21558529.8304   21558530.8614   21558531.2804
        52.0004         47.0004
  -4046941.14947  -3149107.00246  24573162.8304   24573164.0034   24573162.8724
        42.0004         37.0004
  -4695107.91447  -3639457.36146  23839952.3884   23839951.5724   23839952.9524
        45.0004         40.0004
 -11110794.89148  -8643602.78347  22627131.2824   22627133.5034   22627132.1524
        48.0004         44.0004
 -13884355.53948 -10785250.64247  22399383.0694   22399385.1714   22399383.8614
        50.0004         45.0004
 -21394358.23649 -16524897.84348  20644756.9894   20644756.2894   20644757.3424
        54.0004         49.0004
 -15293152.53348 -11879558.47047  22018254.7774   22018255.1614   22018255.1604
        48.0004         44.0004
 -18524502.81948 -14409906.92247  21204773.3424   21204776.5484   21204774.2114
        52.0004         47.0004
 -15002905.61448 -11654316.92147  21848523.8264   21848524.6434   21848524.6244
        52.0004         47.0004
 11 10  1  0 15  0.0000000  0 10G16G20G11G07G06G32G23G13G03G19
   3723531.54148   2912608.78747  22281818.5234   22281819.3354   22281818.2844
        49.0004         45.0004
 -15085002.29948 -11669650.84647  21570384.5054   21570385.3334   21570384.8534
        52.0004         47.0004
  -4074123.57847  -3170288.14846  24567991.1414   24567990.2894   24567991.3814
        42.0004         37.0004
  -4720623.26547  -3659339.42046  23835095.5714   23835098.3184   23835095.6524
        45.0004         41.0004
 -11078516.05348  -8618450.47747  22633272.5264   22633274.8454   22633272.8744
        48.0004         43.0004
 -13802825.17448 -10721720.50047  22414896.6794   22414899.1114   22414897.6514
        49.0004         44.0004
 -21445613.05449 -16564836.67948  20635003.4174   20635002.7594   20635003.8664
        54.0004         49.0004
 -15372661.76848 -11941513.72747  22003125.7314   22003125.6464   22003125.3934
        49.0004         44.0004
 -18521062.39048 -14407226.09547  21205429.2974   21205431.8954   21205429.9594
        52.0004         47.0004
 -15055897.32848 -11695609.18847  21838440.0044   21838440.9704   21838441.2014
        52.0004         47.0004
 11 10  1  0 15 30.0000000  0 10G16G20G11G07G06G32G23G13G03G19
   3814726.67448   2983669.90047  22299172.0254   22299172.4234   22299172.5614
        49.0004         45.0004
 -15022418.62548 -11620884.35347  21582294.0824   21582294.3254   21582294.9454
        52.0004         47.0004
  -4101571.75247  -3191676.34646  24562767.2824   24562768.4914   24562766.5534
        42.0004         37.0004
  -4746181.90247  -3679255.21846  23830234.0984   23830233.7564   23830234.2984
        46.0004         41.0004
 -11045762.80648  -8592928.51047  22639506.8374   22639508.6314   22639506.6604
        48.0004         43.0004
 -13721116.32648 -10658051.28347  22430445.5294   22430448.0434   22430446.3524
        49.0004         45.0004
 -21496539.71449 -16604519.80948  20625312.8884   20625311.5194   20625313.2904
        54.0004         50.0004
 -15452071.36048 -12003391.34447  21988013.4424   21988014.0704   21988013.3014
        49.0004         44.0004
 -18517074.77348 -14404118.89447  21206188.0754   21206189.6144   21206188.2744
        52.0004         47.0004
 -15108577.45348 -11736658.66547  21828415.3744   21828415.8404   21828416.5784
        52.0004         47.0004
 11 10  1  0 16  0.0000000  0 10G16G20G11G07G06G32G23G13G03G19
   3906092.57648   3054864.08447  22316557.7404   22316559.1244   22316558.7434
        49.0004         45.0004
 -14959550.39048 -11571896.11947  21594256.6494   21594257.9024   21594257.4944
        51.0004         47.0004
  -4129284.69747  -3213270.88546  24557493.2654   24557492.8754   24557493.1724
        42.0004         37.0004
  -4771784.50347  -3699205.24946  23825359.5894   23825360.8964   23825358.1044
        46.0004         41.0004
 -11012534.89548  -8567036.65947  22645830.5874   22645831.2034   22645830.2054
        48.0004         43.0004
 -13639231.43148 -10594244.88847  22446027.7424   22446031.0834   22446029.0294
        49.0004         45.0004
 -21547135.16949 -16643944.85048  20615684.6144   20615683.6664   20615685.3114
        54.0004         49.0004
 -15531377.72348 -12065188.51647  21972922.0854   21972922.4134   21972922.1254
        49.0004         44.0004
 -18512538.63048 -14400584.25247  21207050.7814   21207053.3774   21207051.1214
        52.0004         47.0004
 -15160942.83648 -11777462.90147  21818450.3284   21818450.5094   21818451.9024
        52.0004         47.0004
 11 10  1  0 16 30.0000000  0 10G16G20G11G07G06G32G23G13G03G19
   3997626.47648   3126189.15847  22333976.5664   22333978.6804   22333976.8774
        49.0004         45.0004
 -14896399.83248 -11522687.89447  21606272.9944   21606276.2044   21606274.3084
        51.0004         47.0004
  -4157261.14747  -3235070.75646  24552170.0874   24552171.9814   24552169.8874
        42.0004         37.0004
  -4797431.72347  -3719190.07946  23820480.3644   23820480.9594   23820479.6954
        46.0004         41.0004
 -10978832.38248  -8540774.99947  22652242.4024   22652244.7744   22652242.6134
        48.0004         43.0004
 -13557172.75848 -10530303.08047  22461643.3784   22461646.3514   22461644.2784
        49.0004         45.0004
 -21597396.28349 -16683109.36448  20606120.1694   20606119.1234   20606120.8604
        54.0004         49.0004
 -15610577.99548 -12126903.04247  21957851.2044   21957850.5824   21957851.3474
        49.0004         44.0004
 -18507452.78148 -14396621.27847  21208018.1714   21208020.5174   21208018.7504
        52.0004         47.0004
 -15212989.88448 -11818019.06247  21808546.8964   21808546.5394   21808547.9334
        52.0004         47.0004
 11 10  1  0 17  0.0000000  0 10G16G20G11G07G06G32G23G13G03G19
   4089324.93948   3197642.46647  22351425.7624   22351427.9144   22351425.9844
        49.0004         45.0004
 -14832970.90848 -11473262.77247  21618344.0274   21618345.8864   21618344.6414
        51.0004         47.0004
  -4185501.33747  -3257076.14346  24546796.5424   24546797.3824   24546796.5084
        42.0004         37.0004
  -4823126.24047  -3739211.74347  23815590.1664   23815592.6554   23815591.8204
        46.0004         42.0004
 -10944656.49548  -8514144.48347  22658745.9734   22658748.8874   22658746.9084
        48.0004         43.0004
 -13474944.10748 -10466228.82947  22477290.9574   22477292.8614   22477291.9924
        49.0004         44.0004
 -21647321.61349 -16722012.24248  20596619.7944   20596619.1424   20596620.3244
        54.0004         49.0004
 -15689670.68248 -12188533.72547  21942800.3564   21942800.2374   21942800.2924
        49.0004         44.0004
 -18501817.53548 -14392230.19947  21209091.4304   21209093.0514   21209091.5194
        52.0004         47.0004
 -15264716.90248 -11858325.85447  21798703.3364   21798702.6674   21798703.9594
        51.0004         47.0004
 11 10  1  0 17 30.0000000  0 10G16G20G11G07G06G32G23G13G03G19
   4181186.20048   3269222.62547  22368906.9114   22368908.9724   22368907.2504
        49.0004         45.0004
 -14769264.96848 -11423621.77647  21630465.7654   21630468.6874   21630466.7364
        51.0004         47.0004
  -4214002.70547  -3279285.02546  24541373.2594   24541372.7814   24541374.3264
        42.0004         37.0004
  -4848866.95947  -3759269.44047  23810692.2184   23810693.2024   23810692.9434
        46.0004         42.0004
 -10910005.75648  -8487143.94347  22665338.8054   22665343.2404   22665340.2604
        48.0004         43.0004
 -13392546.56848 -10402022.98347  22492971.4104   22492972.3364   22492971.3994
        49.0004         44.0004
 -21696906.69149 -16760649.98448  20587183.9304   20587183.4324   20587184.3084
        54.0004         49.0004
 -15768651.58848 -12250077.30147  21927770.1394   21927771.4354   21927770.2114
        49.0004         44.0004
 -18495630.35248 -14387409.04847  21210268.2784   21210270.3924   21210268.9314
        52.0004         47.0004
 -15316119.36548 -11898379.74547  21788921.6494   21788921.5974   21788921.9974
        51.0004         47.0004
 11 10  1  0 18  0.0000000  0 10G16G20G11G07G06G32G23G13G03G19
   4273205.38948   3340925.86147  22386418.3854   22386418.8904   22386417.7724
        49.0004         45.0004
 -14705286.79348 -11373768.65347  21642640.9424   21642642.9904   21642641.4064
        51.0004         47.0004
  -4242766.42547  -3301698.30746  24535898.6084   24535898.1724   24535900.9344
        42.0004         37.0004
  -4874657.13847  -3779365.64647  23805784.1444   23805785.5964   23805784.4274
        46.0004         42.0004
 -10874882.53247  -8459775.24147  22672023.4694   22672026.5554   22672023.5864
        47.0004         43.0004
 -13309984.72448 -10337689.09147  22508681.3324   22508683.3344   22508682.7844
        49.0004         44.0004
 -21746150.85949 -16799022.07648  20577813.2024   20577812.3734   20577814.0614
        54.0004         49.0004
 -15847520.62748 -12311533.71047  21912761.5694   21912762.7494   21912761.9404
        49.0004         44.0004
 -18488892.75548 -14382158.99847  21211550.3984   21211552.7534   21211550.9034
        52.0004         47.0004
 -15367196.17848 -11938179.87247  21779201.6964   21779201.9774   21779202.7414
        52.0004         47.0004
 11 10  1  0 18 30.0000000  0 10G16G20G11G07G06G32G23G13G03G19
   4365382.49748   3412752.14247  22403959.2294   22403959.6314   22403958.9354
        49.0004         45.0004
 -14641036.41748 -11323703.44047  21654867.9864   21654868.8694   21654868.4044
        51.0004         46.0004
  -4271789.19047  -3324313.51746  24530376.4414   24530378.1354   24530378.2174
        42.0004         37.0004
  -4900495.35747  -3799499.32747  23800867.6384   23800868.9314   23800868.1894
        47.0004         42.0004
 -10839284.28348  -8432036.38247  22678797.2404   22678800.8134   22678798.7464
        48.0004         43.0004
 -13227258.73048 -10273227.30847  22524424.1144   22524425.8404   22524425.1394
        49.0004         44.0004
 -21795048.87349 -16837124.44048  20568508.1834   20568506.8794   20568508.9454
        54.0004         49.0004
 -15926271.81048 -12372898.26247  21897775.9034   21897776.5424   21897776.8244
        49.0004         44.0004
 -18481601.36448 -14376477.41447  21212937.8794   21212939.8334   21212938.3304
        51.0004         47.0004
 -15417942.02748 -11977722.11847  21769545.2974   21769546.0294   21769546.1914
        52.0004         47.0004
 11 10  1  0 19  0.0000000  0 10G16G20G11G07G06G32G23G13G03G19
   4457712.45648   3484697.52847  22421528.7924   22421529.7894   22421529.4824
        49.0004         45.0004
 -14576518.77748 -11273429.96947  21667144.5624   21667145.7384   21667145.5574
        51.0004         46.0004
  -4301072.16647  -3347131.43646  24524803.9644   24524805.6144   24524802.7044
        42.0004         37.0004
  -4926385.16247  -3819673.19047  23795941.2324   23795942.7104   23795941.6844
        46.0004         42.0004
 -10803213.70248  -8403929.47847  22685661.4374   22685664.5054   22685662.4304
        48.0004         43.0004
 -13144373.35348 -10208641.32147  22540197.0004   22540198.3524   22540197.2864
        49.0004         44.0004
 -21843600.19349 -16874956.65748  20559269.2444   20559267.8104   20559269.7904
        54.0004         49.0004
 -16004904.96748 -12434170.85247  21882812.3974   21882812.9604   21882813.3534
        49.0004         45.0004
 -18473757.58548 -14370365.40747  21214430.5184   21214432.8844   21214430.8484
        51.0004         47.0004
 -15468356.10148 -12017005.84947  21759952.0864   21759952.7254   21759952.8014
        52.0004         47.0004
 11 10  1  0 19 30.0000000  0 10G16G20G11G07G06G32G23G13G03G19
   4550193.17248   3556760.39347  22439128.2544   22439127.9524   22439128.3824
        49.0004         44.0004
 -14511736.10348 -11222949.97747  21679473.3844   21679473.4544   21679474.4634
        51.0004         47.0004
  -4330613.79246  -3370150.93546  24519181.4094   24519183.1904   24519183.8764
        41.0004         37.0004
  -4952326.32747  -3839887.03047  23791004.9274   23791005.2524   23791006.1604
        46.0004         42.0004
 -10766670.42848  -8375454.24147  22692616.2884   22692618.6894   22692616.4754
        48.0004         43.0004
 -13061330.83948 -10143932.87247  22555998.5864   22556001.7894   22555999.8214
        49.0004         44.0004
 -21891801.44049 -16912516.07948  20550096.3214   20550095.3054   20550097.1914
        54.0004         49.0004
 -16083417.06248 -12495349.11847  21867872.6744   21867872.5784   21867872.2654
        49.0004         45.0004
 -18465359.74048 -14363821.66747  21216028.9074   21216031.0714   21216029.2444
        52.0004         47.0004
 -15518434.56548 -12056028.06047  21750422.0914   21750422.6754   21750423.7134
        52.0004         47.0004
 11 10  1  0 20  0.0000000  0 10G16G20G11G07G06G32G23G13G03G19
   4642818.50348   3628935.93147  22456752.7904   22456753.9064   22456753.5314
        49.0004         44.0004
 -14446694.15948 -11172267.96047  21691850.7124   21691851.1144   21691851.5074
        51.0004         47.0004
  -4360416.00547  -3393373.47946  24513510.8864   24513511.0354   24513512.2664
        42.0004         37.0004
  -4978323.15547  -3860144.27247  23786058.6314   23786058.6564   23786058.5144
        46.0004         42.0004
 -10729657.68848  -8346613.17247  22699659.7324   22699662.0934   22699660.0254
        48.0004         43.0004
 -12978136.45048 -10079106.09047  22571830.3544   22571832.8504   22571832.0274
        49.0004         44.0004
 -21939652.94249 -16949802.98148  20540991.0094   20540990.1504   20540991.8554
        54.0004         49.0004
 -16161808.17148 -12556433.11047  21852954.1964   21852956.2314   21852953.5314
        50.0004         45.0004
 -18456410.50548 -14356848.25747  21217732.1304   21217734.3404   21217732.0964
        52.0004         47.0004
 -15568177.84648 -12094789.09247  21740956.8444   21740957.6944   21740957.6834
        52.0004         47.0004
