     2.11           OBSERVATION DATA    G (GPS)             RINEX VERSION / TYPE
teqc  2016Apr1                          20160930 07:51:17UTCPGM / RUN BY / DATE
Linux 2.4.20-8|Pentium IV|gcc|Linux|486/DX+                 COMMENT
teqc  2016Apr1                          20160816 03:23:02UTCCOMMENT
teqc  2010Mar17                         20111002 00:12:25UTCCOMMENT
BIT 2 OF LLI FLAGS DATA COLLECTED UNDER A/S CONDITION       COMMENT
                                                            COMMENT
This data is provided as a public service by Regional GPS   COMMENT
Data Acquisition/Analysis Center (RDAAC), Moscow, RUSSIA.   COMMENT
No warranty is expressed or implied regarding suitability   COMMENT
for use. For further information, contact:                  COMMENT
Grigory M. Steblov (steblov@gps.gsras.ru)                   COMMENT
                                                            COMMENT
 SNR is mapped to RINEX snr flag value [0-9]                COMMENT
  L1 & L2: min(max(int(snr_dBHz/6), 0), 9)                  COMMENT
pseudorange smoothing corrections not applied               COMMENT
YSSK                                                        MARKER NAME
12329M003                                                   MARKER NUMBER
ESG                 RDAAC                                   OBSERVER / AGENCY
LP03066             ASHTECH Z-XII3      CC00                REC # / TYPE / VERS
CRN1009040133       ASH701933B_M    DOME                    ANT # / TYPE
 -3465320.8500  2638269.3800  4644085.4900                  APPROX POSITION XYZ
        0.0798        0.0000        0.0000                  ANTENNA: DELTA H/E/N
     1     1                                                WAVELENGTH FACT L1/2
     5    L1    L2    C1    P2    P1                        # / TYPES OF OBSERV
    30.0000                                                 INTERVAL
teqc windowed: start @ 2011 Oct  1 00:10:00.000             COMMENT
teqc windowed:  end  @ 2011 Oct  1 00:20:00.000             COMMENT
  2011    10     1     0    10    0.0000000     GPS         TIME OF FIRST OBS
                                                            END OF HEADER
 11 10  1  0 10  0.0000000  0 10G13G19G29G16G23G21G03G31G06G30
  -9008415.17447  -6312977.02845  23034012.4894   23034019.1104   23034011.9654
  -2929037.12546  -2228249.67543  25035115.2894   25035120.8274   25035113.1324
  -9849792.94547  -7636359.83245  23606301.7984   23606310.3424   23606301.6774
 -22792815.26048 -17726564.36047  21076081.8414   21076087.3954   21076081.4224
 -17084203.00548 -13283365.62246  22365834.7564   22365839.9124   22365834.6854
 -13905561.33948 -10785420.09946  23049493.9204   23049500.1324   23049493.8474
 -16680175.22848 -12970396.90846  21821307.7474   21821315.2054   21821307.3734
 -17430099.71048 -13550263.13347  21702555.5654   21702561.3834   21702556.0134
 -18529677.77948 -14385005.91947  21201006.9354   21201013.8324   21201006.5894
 -10176982.15347  -7909576.57245  22947571.7504   22947579.8324   22947571.4574
 11 10  1  0 10 30.0000000  0 10G13G19G29G16G23G21G03G31G06G30
  -9051182.28047  -6346302.06245  23025873.9494   23025880.9894   23025873.8594
  -3045582.34446  -2319063.94643  25012937.4294   25012944.1444   25012935.5354
  -9750928.75547  -7559322.92745  23625115.0544   23625122.7844   23625115.7234
 -22840497.50048 -17763719.35247  21067008.1764   21067014.0844   21067007.8144
 -17075570.79348 -13276639.25646  22367477.4094   22367482.9154   22367477.8474
 -13947574.93048 -10818157.93246  23041499.0784   23041505.1294   23041499.0424
 -16778047.68348 -13046661.11646  21802683.3044   21802690.0824   21802682.9774
 -17354424.04448 -13491295.14447  21716956.3564   21716962.2734   21716956.6944
 -18596275.74748 -14436900.43147  21188333.7854   21188340.5334   21188333.8224
 -10085014.26847  -7837913.35945  22965072.8154   22965080.5344   22965072.5014
 11 10  1  0 11  0.0000000  0 10G13G19G29G16G23G21G03G31G06G30
  -9093357.15247  -6379165.60045  23017848.3154   23017855.6054   23017848.2354
  -3162053.99246  -2409820.90143  24990773.5754   24990781.3674   24990773.0484
  -9651898.19947  -7482156.38945  23643959.9394   23643967.7114   23643960.0774
 -22887894.44648 -17800652.03547  21057988.8714   21057994.4234   21057988.7084
 -17066326.74248 -13269436.15346  22369236.5394   22369241.2484   22369237.1794
 -13989170.99548 -10850570.42046  23033583.6434   23033589.9374   23033582.8724
 -16875609.60048 -13122683.36946  21784117.8664   21784125.2954   21784117.7894
 -17278389.47848 -13432047.48947  21731425.3134   21731431.1704   21731425.4874
 -18662455.67648 -14488469.19047  21175740.1424   21175747.0934   21175740.3804
  -9992894.79247  -7766132.01945  22982602.7194   22982610.9274   22982602.3854
 11 10  1  0 11 30.0000000  0 10G13G19G29G16G23G21G03G31G06G30
  -9134937.79447  -6411566.10745  23009935.6564   23009943.1004   23009936.1134
  -3278449.81646  -2500518.84143  24968624.0774   24968630.8634   24968622.6424
  -9552703.25347  -7404861.75745  23662836.0284   23662844.8394   23662836.6294
 -22935005.09848 -17837361.63947  21049024.0174   21049029.3494   21049023.6544
 -17056470.89048 -13261756.31646  22371112.1484   22371117.0834   22371112.2014
 -14030346.99648 -10882655.59246  23025747.9634   23025753.9734   23025747.3474
 -16972858.96248 -13198462.05346  21765611.8484   21765619.3204   21765611.1214
 -17201996.73848 -13372520.72847  21745962.2754   21745968.5554   21745962.1244
 -18728216.34248 -14539711.25647  21163226.4014   21163232.9494   21163226.1134
  -9900624.30547  -7694233.01145  23000161.2594   23000168.6904   23000160.7504
 11 10  1  0 12  0.0000000  0 10G13G19G29G16G23G21G03G31G06G30
  -9175923.24147  -6443502.82945  23002136.2624   23002143.8484   23002136.6524
  -3394768.33846  -2591156.54943  24946489.2084   24946495.9594   24946487.9464
  -9453346.50347  -7327441.04345  23681742.9704   23681751.8664   23681743.3104
 -22981829.25848 -17873847.99647  21040113.7404   21040119.0964   21040113.4034
 -17046004.29648 -13253600.56946  22373103.8634   22373108.1114   22373104.5024
 -14071101.51348 -10914412.33746  23017992.5714   23017997.8454   23017991.9264
 -17069793.82648 -13273995.67846  21747165.6794   21747172.9684   21747164.9514
 -17125247.33548 -13312716.06347  21760567.1864   21760573.2634   21760567.7124
 -18793556.69048 -14590625.80847  21150792.3714   21150799.4114   21150792.3414
  -9808204.00947  -7622217.27345  23017748.3504   23017756.3674   23017747.7154
 11 10  1  0 12 30.0000000  0 10G13G19G29G16G23G21G03G31G06G30
  -9216312.15547  -6474974.74745  22994450.6744   22994457.9004   22994451.8324
  -3511007.80146  -2681732.70643  24924369.4704   24924376.4614   24924367.0704
  -9353830.52547  -7249896.26145  23700680.4064   23700689.7224   23700681.0204
 -23028366.59048 -17910110.85147  21031257.9014   21031263.3404   21031257.1444
 -17034928.13948 -13244969.82446  22375211.6444   22375215.7754   22375211.3244
 -14111433.37748 -10945839.74546  23010317.5424   23010324.3954   23010316.4894
 -17166412.91548 -13349283.24846  21728779.7054   21728787.0244   21728779.1894
 -17048142.79248 -13252634.66347  21775239.8304   21775246.0574   21775240.1254
 -18858476.18648 -14641212.42647  21138438.5924   21138445.5854   21138438.6434
  -9715634.95147  -7550085.64445  23035363.7074   23035370.4594   23035362.4404
 11 10  1  0 13  0.0000000  0 10G13G19G29G16G23G21G03G31G06G30
  -9256103.95147  -6505981.34345  22986878.6954   22986885.0474   22986879.3154
  -3627166.81446  -2772246.19244  24902264.7204   24902272.8824   24902263.6724
  -9254158.00247  -7172229.49445  23719647.7884   23719656.2024   23719648.7094
 -23074617.30848 -17946150.37647  21022456.6464   21022462.2674   21022456.2864
 -17023243.38848 -13235864.86346  22377435.1974   22377439.4454   22377435.3644
 -14151341.37748 -10976936.88546  23002723.2634   23002729.4784   23002723.5864
 -17262714.78548 -13424323.64046  21710453.9684   21710462.0734   21710453.9554
 -16970685.08948 -13192278.07347  21789979.6344   21789985.8034   21789980.1714
 -18922974.20048 -14691470.61347  21126165.1144   21126172.1404   21126165.2604
  -9622918.67847  -7477839.31045  23053007.0954   23053014.8284   23053005.8564
 11 10  1  0 13 30.0000000  0 10G13G19G29G16G23G21G03G31G06G30
  -9295296.17147  -6536520.73445  22979420.6344   22979428.7864   22979420.2984
  -3743242.53346  -2862694.80044  24880176.1254   24880183.6204   24880175.3834
  -9154330.01247  -7094441.59445  23738644.6704   23738653.2194   23738645.1184
 -23120580.04248 -17981965.48447  21013710.2044   21013715.4664   21013709.7814
 -17010950.23648 -13226285.81246  22379774.5494   22379778.7104   22379773.6254
 -14190823.41348 -11007702.08746  22995210.1694   22995215.9984   22995210.2474
 -17358697.09748 -13499115.01046  21692188.9984   21692196.9724   21692188.2014
 -16892874.61348 -13131646.58447  21804786.5214   21804792.6604   21804786.8604
 -18987048.97648 -14741399.00447  21113972.1264   21113979.1584   21113972.1914
  -9530055.23647  -7405478.29645  23070678.0014   23070687.1884   23070677.4824
 11 10  1  0 14  0.0000000  0 10G13G19G29G16G23G21G03G31G06G30
  -9333887.14347  -6566591.64345  22972077.0434   22972084.0264   22972077.0624
  -3859232.85946  -2953076.86744  24858103.7074   24858113.0434   24858102.8044
  -9054349.03847  -7016534.46145  23757670.9154   23757678.8024   23757671.4164
 -23166254.49348 -18017555.97047  21005018.6014   21005024.0274   21005018.2584
 -16998049.07048 -13216232.98546  22382229.4764   22382234.0734   22382229.7354
 -14229877.35848 -11038133.72546  22987778.5534   22987784.4124   22987778.5724
 -17454357.75248 -13573655.74146  21673985.3374   21673993.4304   21673985.1624
 -16814712.22248 -13070740.88547  21819660.3254   21819666.2824   21819660.7034
 -19050699.11948 -14790996.50447  21101860.0274   21101866.7984   21101859.5574
  -9437045.29947  -7333003.13545  23088377.3114   23088386.3634   23088376.6294
 11 10  1  0 14 30.0000000  0 10G13G19G29G16G23G21G03G31G06G30
  -9371876.73647  -6596193.94245  22964847.9004   22964855.0544   22964847.8974
  -3975137.08646  -3043391.88644  24836047.7004   24836055.4514   24836046.9824
  -8954218.32147  -6938510.64945  23776725.2534   23776733.2754   23776725.6854
 -23211640.85948 -18052921.96847  20996381.8634   20996387.5024   20996381.3284
 -16984541.75148 -13205707.84346  22384799.8534   22384804.6934   22384800.1854
 -14268502.55048 -11068231.26646  22980428.5324   22980433.9714   22980428.4104
 -17549696.09748 -13647945.31946  21655842.9974   21655850.4714   21655842.7724
 -16736200.60748 -13009563.06547  21834600.6614   21834606.7364   21834601.1004
 -19113924.76648 -14840263.24347  21089828.4574   21089835.5724   21089828.4364
  -9343890.80147  -7260415.31545  23106104.1094   23106112.3764   23106104.1374
 11 10  1  0 15  0.0000000  0 10G13G19G29G16G23G21G03G31G06G30
  -9409262.90347  -6625326.03145  22957733.5984   22957740.8744   22957733.5224
  -4090951.92146  -3133637.24744  24814008.5704   24814017.8514   24814008.1004
  -8853938.80447  -6860370.91545  23795807.8074   23795815.4664   23795807.8054
 -23256737.99548 -18088062.59247  20987800.1504   20987805.6274   20987799.7394
 -16970428.63348 -13194710.67446  22387485.5784   22387489.6384   22387485.2164
 -14306697.01648 -11097993.18346  22973160.4484   22973165.6604   22973159.6724
 -17644709.71548 -13721981.87646  21637762.6114   21637770.5344   21637762.2594
 -16657340.16548 -12948113.43247  21849607.4934   21849613.5184   21849608.0514
 -19176724.06048 -14889197.75347  21077878.0804   21077885.0314   21077877.8094
  -9250591.95247  -7187715.00245  23123858.5134   23123867.2644   23123858.7464
 11 10  1  0 15 30.0000000  0 10G13G19G29G16G23G21G03G31G06G30
  -9446045.53247  -6653987.82245  22950734.0734   22950741.7564   22950734.3874
  -4206676.40146  -3223812.15644  24791987.1224   24791995.5344   24791987.3544
  -8753513.81447  -6782117.81045  23814918.0404   23814925.5604   23814918.2554
 -23301545.95648 -18122977.88547  20979273.4134   20979279.1024   20979273.0124
 -16955711.22348 -13183242.59846  22390286.3724   22390290.7444   22390286.7774
 -14344459.50448 -11127418.50246  22965974.5344   22965979.5364   22965974.0974
 -17739397.53648 -13795764.55246  21619744.1594   21619751.4804   21619744.2234
 -16578133.20448 -12886393.78247  21864680.1324   21864686.1774   21864680.7174
 -19239096.83648 -14937799.91047  21066008.8564   21066015.7244   21066008.6964
  -9157150.20847  -7114903.34745  23141640.0564   23141647.4324   23141640.5164
 11 10  1  0 16  0.0000000  0 10G13G19G29G16G23G21G03G31G06G30
  -9482221.65347  -6682177.04045  22943850.0544   22943857.6044   22943849.9834
  -4322307.83946  -3313914.53644  24769983.3194   24769991.4524   24769982.2884
  -8652944.54247  -6703752.29545  23834055.7594   23834063.9504   23834055.2974
 -23346063.49648 -18157666.88547  20970801.9764   20970807.7344   20970801.6564
 -16940389.41848 -13171303.57646  22393202.0644   22393206.5674   22393202.3194
 -14381787.55948 -11156505.30646  22958871.1054   22958877.4464   22958870.5154
 -17833756.62348 -13869291.07046  21601788.0734   21601795.8464   21601787.8534
 -16498579.72548 -12824404.12647  21879818.5424   21879824.9304   21879818.8874
 -19301040.98348 -14986068.07147  21054221.2524   21054228.2434   21054221.3364
  -9063565.59647  -7041980.35545  23159448.8714   23159455.6064   23159448.1284
 11 10  1  0 16 30.0000000  0 10G13G19G29G16G23G21G03G31G06G30
  -9517790.34647  -6709892.92045  22937081.5024   22937088.3774   22937081.6894
  -4437844.16346  -3403942.83844  24747997.6294   24748006.4984   24747997.1884
  -8552233.23647  -6625276.08345  23853220.7854   23853228.8814   23853221.6884
 -23390290.56448 -18192129.54647  20962385.8314   20962391.5124   20962385.4634
 -16924464.27548 -13158894.41646  22396232.5184   22396236.9114   22396232.8314
 -14418679.76248 -11185252.49046  22951850.7794   22951856.8454   22951850.5454
 -17927785.46848 -13942560.26546  21583895.0904   21583902.7404   21583894.5614
 -16418681.48248 -12762145.82647  21895022.6694   21895029.0664   21895023.1914
 -19362556.00348 -15034001.84547  21042515.3524   21042522.2384   21042515.3104
  -8969839.26047  -6968946.94545  23177284.3824   23177291.7104   23177284.1904
 11 10  1  0 17  0.0000000  0 10G13G19G29G16G23G21G03G31G06G30
  -9552750.21647  -6737134.40345  22930428.8914   22930435.6034   22930429.4144
  -4553283.48146  -3493895.49844  24726030.5294   24726037.9224   24726030.6154
  -8451382.05347  -6546690.87945  23872412.3304   23872420.9634   23872412.6634
 -23434225.99448 -18226364.94947  20954025.1354   20954030.9024   20954024.8804
 -16907936.75048 -13146015.87446  22399377.7194   22399381.8344   22399377.6244
 -14455134.53948 -11213658.83446  22944913.6024   22944920.0654   22944913.8574
 -18021482.20948 -14015570.67246  21566065.0944   21566072.2594   21566064.3744
 -16338439.59148 -12699619.74147  21910292.2574   21910298.3834   21910292.7304
 -19423640.68448 -15081600.29147  21030891.3594   21030898.0964   21030891.1574
  -8875971.85247  -6895803.59245  23195146.8244   23195154.5364   23195146.1844
 11 10  1  0 17 30.0000000  0 10G13G19G29G16G23G21G03G31G06G30
  -9587100.93647  -6763901.20745  22923892.2744   22923898.6694   22923892.5894
  -4668624.70946  -3583771.71544  24704081.7774   24704089.0994   24704080.9814
  -8350393.55547  -6467998.69245  23891629.9554   23891638.3724   23891630.4984
 -23477870.63448 -18260373.76847  20945719.9804   20945725.6624   20945719.6104
 -16890808.44948 -13132669.18346  22402637.2574   22402641.6264   22402636.3984
 -14491151.04948 -11241723.66246  22938059.8394   22938065.2734   22938059.8524
 -18114845.80648 -14088321.48547  21548298.6514   21548306.2714   21548298.1644
 -16257856.11348 -12636827.48947  21925626.8824   21925633.1864   21925626.9344
 -19484294.77148 -15128863.20747  21019349.2684   21019356.5354   21019349.1474
  -8781964.94047  -6822551.54644  23213035.6874   23213044.2554   23213035.8204
 11 10  1  0 18  0.0000000  0 10G13G19G29G16G23G21G03G31G06G30
  -9620840.79947  -6790192.01445  22917471.5814   22917478.6744   22917472.2944
  -4783864.71946  -3673569.04044  24682152.2164   24682160.2414   24682150.8334
  -8249269.30847  -6389200.69945  23910873.3714   23910881.8134   23910872.8874
 -23521222.98248 -18294154.82447  20937470.2674   20937475.9964   20937470.0114
 -16873079.44348 -13118854.42946  22406010.9674   22406016.3254   22406011.0714
 -14526726.97548 -11269445.17246  22931290.0684   22931295.9154   22931289.7884
 -18207873.79948 -14160810.78747  21530595.9954   21530603.2514   21530595.7794
 -16176931.74248 -12573769.60847  21941026.1644   21941032.7394   21941026.6134
 -19544516.41648 -15175789.15347  21007889.4554   21007896.3974   21007889.1614
  -8687818.56447  -6749190.84345  23230951.4184   23230959.1164   23230950.9674
 11 10  1  0 18 30.0000000  0 10G13G19G29G16G23G21G03G31G06G30
  -9653968.56747  -6816005.87745  22911167.5754   22911174.9854   22911168.1084
  -4899002.47946  -3763286.70244  24660242.1584   24660249.9624   24660241.1604
  -8148012.13147  -6310299.14745  23930142.0534   23930150.9274   23930141.3584
 -23564282.99148 -18327708.08847  20929276.2744   20929282.1234   20929276.1444
 -16854751.42748 -13104572.91346  22409498.7924   22409504.2644   22409498.4374
 -14561861.21948 -11296822.51946  22924604.3314   22924611.1544   22924604.2374
 -18300565.08948 -14233037.73147  21512957.3794   21512964.5754   21512957.2204
 -16095668.52148 -12510447.69347  21956490.0484   21956496.7094   21956490.6284
 -19604305.18248 -15222377.79547  20996512.0464   20996519.0204   20996511.9774
  -8593534.12847  -6675722.58045  23248893.2324   23248901.4534   23248892.1374
 11 10  1  0 19  0.0000000  0 10G13G19G29G16G23G21G03G31G06G30
  -9686482.63247  -6841341.53745  22904980.3254   22904988.0024   22904979.8824
  -5014035.30346  -3852922.58544  24638351.8224   24638359.1914   24638350.4354
  -8046623.10847  -6231294.86045  23949435.6654   23949443.5374   23949435.5814
 -23607049.43848 -18361032.60347  20921138.1264   20921143.5994   20921137.9184
 -16835824.69848 -13089824.85746  22413100.4284   22413104.8834   22413100.7434
 -14596551.53748 -11323853.95446  22918003.0084   22918008.7784   22918003.3164
 -18392917.15948 -14305000.34247  21495383.3774   21495391.1404   21495382.9064
 -16014066.73248 -12446861.96047  21972018.4824   21972025.2954   21972018.8884
 -19663659.57348 -15268627.96748  20985217.3044   20985224.0884   20985217.4164
  -8499111.81847  -6602146.85145  23266861.1874   23266870.1154   23266861.4274
 11 10  1  0 19 30.0000000  0 10G13G19G29G16G23G21G03G31G06G30
  -9718383.91547  -6866199.68445  22898909.8464   22898917.6954   22898910.3744
  -5128962.67746  -3942476.30744  24616481.7874   24616489.8794   24616481.0554
  -7945106.41947  -6152191.08345  23968753.8244   23968761.3634   23968753.7574
 -23649523.52748 -18394129.30247  20913055.5664   20913060.9284   20913055.1234
 -16816302.02748 -13074612.43346  22416815.4134   22416820.4814   22416814.7224
 -14630798.42748 -11350539.83846  22911486.0894   22911491.8824   22911485.4394
 -18484929.74948 -14376698.41747  21477873.9054   21477881.2974   21477873.4084
 -15932129.59548 -12383014.90347  21987610.7564   21987617.3794   21987611.0644
 -19722580.46149 -15314540.33748  20974005.0174   20974011.8724   20974004.7894
  -8404554.35047  -6528465.83445  23284854.9104   23284862.8864   23284855.1204
 11 10  1  0 20  0.0000000  0 10G13G19G29G16G23G21G03G31G06G30
  -9749669.63647  -6890578.19145  22892956.4904   22892963.0614   22892957.2454
  -5243781.62446  -4031945.58844  24594632.6124   24594640.8184   24594630.9214
  -7843462.24547  -6072987.97045  23988096.1894   23988105.2424   23988096.2474
 -23691703.58748 -18426996.89048  20905029.0214   20905034.5514   20905028.7204
 -16796183.03948 -13058935.34846  22420643.9434   22420648.6994   22420644.3614
 -14664598.84548 -11376877.82946  22905054.1414   22905059.8154   22905053.9014
 -18576599.97748 -14448129.72447  21460429.6234   21460436.9284   21460429.3844
 -15849856.87248 -12318906.34847  22003266.7794   22003272.9134   22003267.2454
 -19781065.34048 -15360112.96348  20962875.7674   20962882.5274   20962875.6234
  -8309860.71547  -6454678.68345  23302874.6554   23302881.7684   23302874.8054
