     2.11           OBSERVATION DATA    M (MIXED)           RINEX VERSION / TYPE
teqc  2016Apr1                          20160930 07:51:15UTCPGM / RUN BY / DATE
Linux 2.4.20-8|Pentium IV|gcc|Linux|486/DX+                 COMMENT
teqc  2016Apr1                          20160816 03:29:37UTCCOMMENT
teqc  2010Mar17     gpsops              20111002 00:11:28UTCCOMMENT
Linux 2.4.21-27.ELsmp|Opteron|gcc -static|Linux x86_64|=+   COMMENT
BIT 2 OF LLI FLAGS DATA COLLECTED UNDER A/S CONDITION       COMMENT
                                                            COMMENT
This data is provided as a public service by NASA/JPL.      COMMENT
No warranty is expressed or implied regarding suitability   COMMENT
for use.  For further information, contact:                 COMMENT
Dave Stowers, NASA/JPL m/s 238-600                          COMMENT
4800 Oak Grove Drive, Pasadena CA 91109 USA                 COMMENT
                                                            COMMENT
Forced Modulo Decimation to 30 seconds                      COMMENT
 SNR is mapped to RINEX snr flag value [0-9]                COMMENT
  L1 & L2: min(max(int(snr_dBHz/6), 0), 9)                  COMMENT
pseudorange smoothing corrections not applied               COMMENT
KOKV                                                        MARKER NAME
40424M004                                                   MARKER NUMBER
GGN                 JPL                                     OBSERVER / AGENCY
2329                JPS EGGDT           2.7.0               REC # / TYPE / VERS
CR6200342010        ASH701945G_M    NONE                    ANT # / TYPE
 -5543838.3609 -2054586.6103  2387810.1225                  APPROX POSITION XYZ
        0.0614        0.0000        0.0000                  ANTENNA: DELTA H/E/N
     1     1                                                WAVELENGTH FACT L1/2
     7    L1    L2    P1    P2    C1    S1    S2            # / TYPES OF OBSERV
    30.0000                                                 INTERVAL
teqc windowed: start @ 2011 Oct  1 00:10:00.000             COMMENT
teqc windowed:  end  @ 2011 Oct  1 00:20:00.000             COMMENT
  2011    10     1     0    10    0.0000000     GPS         TIME OF FIRST OBS
    15                                                      LEAP SECONDS
                                                            END OF HEADER
 11 10  1  0 10  0.0000000  0 15R09G18G31G30R16G05R18G12G06G21R19G29
                                G25G22R20
 107207588.403 8  83383696.573 7  20076533.334    20076543.662    20076533.156
        51.000          47.000
 118277669.684 7  92164463.38545  22507462.890    22507475.456    22507463.135
        46.000          31.0004
 115014290.455 8  89621536.51746  21886492.917    21886502.052    21886492.740
        49.000          39.0004
 105266549.748 8  82025917.63847  20031549.585    20031557.466    20031550.168
        53.000          44.0004
 110603064.614 8  86024608.055 7  20705136.854    20705150.177    20705136.912
        48.000          45.000
 132489590.112 5 103238682.05142  25211912.419    25211924.158    25211912.187
        35.000          17.0004
 122041660.251 6  94921312.034 6  22862512.193    22862525.834    22862512.538
        41.000          39.000
 125319926.520 6  97651851.27744  23847633.336    23847649.318    23847631.973
        40.000          27.0004
 130873629.326 5                                                  24904420.670
        35.000
 109015673.598 8  84947347.73847  20744960.741    20744967.589    20744961.429
        51.000          43.0004
 113099860.337 7  87966605.043 7  21142804.821    21142812.993    21142805.331
        45.000          42.000
 115424616.930 8  89941252.46246  21964561.014    21964568.464    21964560.983
        49.000          37.0004
 111863192.853 8  87166124.92847  21286865.724    21286877.069    21286866.051
        52.000          43.0004
 129698525.920 6 101063812.28943  24680814.721    24680835.398    24680815.927
        38.000          19.0004
 121179752.819 6  94250923.384 6  22661218.693    22661234.597    22661220.661
        36.000          38.000
 11 10  1  0 10 30.0000000  0 15R09G18G31G30R16G05R18G12G06G21R19G29
                                G25G22R20
 107199505.531 8  83377409.842 7  20075019.634    20075030.238    20075019.752
        51.000          46.000
 118205973.156 7  92108596.17545  22493819.523    22493831.491    22493819.581
        45.000          31.0004
 115023980.044 8  89629086.74546  21888336.628    21888346.012    21888336.731
        50.000          39.0004
 105260842.662 8  82021470.53947  20030463.775    20030471.473    20030464.489
        53.000          43.0004
 110707141.960 8  86105556.835 7  20724620.491    20724634.411    20724620.466
        48.000          44.000
 132554675.176 5 103289397.64842  25224297.003    25224308.332    25224297.015
        34.000          16.0004
 122094543.001 6  94962442.973 6  22872418.345    22872432.581    22872419.507
        41.000          39.000
 125401619.587 6  97715507.79244  23863179.239    23863194.399    23863179.405
        40.000          26.0004
 130821428.431 6                                                  24894488.485
        36.000
 109019353.443 8  84950215.17247  20745660.922    20745667.505    20745661.594
        51.000          42.0004
 113117805.935 7  87980562.718 7  21146159.803    21146168.065    21146160.062
        46.000          42.000
 115453544.860 8  89963793.68046  21970065.561    21970073.288    21970065.598
        48.000          37.0004
 111911992.639 8  87204150.63347  21296151.949    21296163.655    21296152.554
        52.000          42.0004
 129606748.153 6 100992296.94943  24663349.923    24663371.264    24663350.862
        38.000          19.0004
 121148837.145 5  94226877.986 6  22655436.323    22655452.793    22655438.417
        35.000          38.000
 11 10  1  0 11  0.0000000  0 16R09G18G31G30R16G05R18G12G06G21R19G29
                                G25G22R05R20
 107192220.435 8  83371743.598 7  20073655.360    20073665.960    20073655.380
        51.000          47.000
 118134435.282 7  92052852.61445  22480206.269    22480218.103    22480206.704
        46.000          32.0004
 115034174.095 8  89637030.05846  21890276.768    21890285.832    21890276.350
        48.000          39.0004
 105255649.204 8  82017423.67147  20029475.643    20029483.195    20029476.061
        52.000          44.0004
 110811660.629 8  86186848.870 7  20744186.681    20744200.775    20744186.127
        48.000          44.000
 132620144.860 5 103340413.02442  25236754.341    25236766.238    25236754.242
        34.000          15.0004
 122147296.092 6  95003473.060 6  22882300.488    22882315.117    22882300.527
        41.000          39.000
 125483569.831 6  97779364.73844  23878773.840    23878790.112    23878774.282
        40.000          26.0004
 130769229.879 6                                                  24884554.784
        36.000
 109023418.955 8  84953383.12047  20746434.482    20746441.026    20746435.324
        52.000          43.0004
 113135753.006 7  87994521.538 7  21149515.127    21149523.030    21149515.097
        46.000          42.000
 115482478.405 8  89986339.25946  21975571.667    21975579.676    21975571.895
        48.000          38.0004
 111961213.830 8  87242504.70547  21305518.752    21305530.048    21305519.507
        53.000          42.0004
 129514831.037 6 100920673.06943  24645858.058    24645880.113    24645857.556
        36.000          19.0004
 125527365.085 5  97632411.086 5  23482485.647    23482514.142    23482486.116
        35.000          31.000
 121118030.789 5  94202917.609 6  22649675.870    22649692.008    22649677.511
        35.000          38.000
 11 10  1  0 11 30.0000000  0 15R09G18G31G30R16R18G12G06G21R19G29G25
                                G22R05R20
 107185732.811 8  83366697.610 7  20072440.608    20072450.959    20072440.661
        51.000          46.000
 118063059.492 7  91997235.31045  22466623.905    22466635.573    22466624.866
        47.000          31.0004
 115044871.636 8  89645365.70446  21892312.575    21892321.469    21892312.589
        49.000          39.0004
 105250970.538 8  82013777.93447  20028585.202    20028592.719    20028585.823
        52.000          44.0004
 110916615.663 8  86268480.292 7  20763834.274    20763848.272    20763834.063
        48.000          43.000
 122199919.908 7  95044402.588 6  22892160.433    22892173.471    22892160.611
        42.000          39.000
 125565776.265 6  97843421.26744  23894417.650    23894434.312    23894417.183
        41.000          27.0004
 130717032.542 6                                                  24874621.604
        37.000
 109027869.466 8  84956851.07047  20747281.247    20747287.855    20747281.639
        51.000          42.0004
 113153700.299 7  88008480.525 7  21152869.784    21152878.198    21152870.457
        46.000          42.000
 115511417.612 7  90008889.25646  21981078.575    21981086.019    21981078.495
        47.000          37.0004
 112010856.202 8  87281186.96446  21314965.017    21314976.486    21314965.558
        52.000          41.0004
 129422776.921 6 100848942.42743  24628341.062    24628363.025    24628341.858
        38.000          20.0004
 125417035.230 5  97546599.022 5  23461846.672    23461875.622    23461845.684
        32.000          32.000
 121087331.266 6  94179040.346 6  22643935.119    22643950.069    22643935.998
        36.000          38.000
 11 10  1  0 12  0.0000000  0 15R09G18G31G30R16R18G12G06G21R19G29G25
                                G22R05R20
 107180042.589 8  83362271.823 7  20071375.097    20071385.610    20071375.429
        51.000          47.000
 117991848.237 7  91941746.23045  22453072.744    22453084.618    22453073.588
        46.000          32.0004
 115056071.480 8  89654092.74746  21894443.886    21894453.094    21894443.690
        48.000          39.0004
 105246807.702 8  82010534.14847  20027792.977    20027800.693    20027793.632
        52.000          44.0004
 111022002.837 8  86350447.824 7  20783563.295    20783577.379    20783563.425
        48.000          44.000
 122252413.986 7  95085231.224 6  22901993.868    22902006.176    22901993.959
        42.000          38.000
 125648237.556 7  97907676.37944  23910110.226    23910126.524    23910110.042
        42.000          27.0004
 130664836.116 6                                                  24864690.052
        36.000
 109032703.782 8  84960618.08947  20748201.368    20748207.817    20748202.133
        49.000          43.0004
 113171646.161 7  88022438.415 7  21156224.688    21156233.459    21156225.557
        45.000          43.000
 115540362.440 8  90031443.63746  21986586.504    21986594.666    21986586.365
        48.000          38.0004
 112060919.415 8  87320197.15147  21324491.972    21324503.575    21324492.336
        52.000          42.0004
 129330587.704 6 100777106.47743  24610797.721    24610819.924    24610800.942
        37.000          20.0004
 125306585.847 6  97460694.042 5  23441185.662    23441213.682    23441186.488
        36.000          33.000
 121056737.125 6  94155245.037 6  22638214.623    22638229.038    22638214.826
        36.000          39.000
 11 10  1  0 12 30.0000000  0 16R09G18G31G30R16R10R18G12G06G21R19G29
                                G25G22R05R20
 107175149.695 8  83358466.170 7  20070458.786    20070469.327    20070458.644
        51.000          46.000
 117920804.395 7  91886387.58445  22439553.124    22439565.080    22439553.470
        46.000          31.0004
 115067772.452 7  89663210.28346  21896670.416    21896679.805    21896670.236
        47.000          39.0004
 105243161.900 8  82007693.23547  20027099.350    20027106.862    20027100.287
        52.000          44.0004
 111127817.235 8  86432747.631 7  20803372.626    20803386.366    20803372.775
        48.000          44.000
 122372635.966 6  95178727.627 4  22956794.603    22956807.553    22956796.283
        37.000          25.000
 122304778.986 7  95125959.463 6  22911804.473    22911817.160    22911805.188
        42.000          38.000
 125730952.561 6  97972129.20644  23925850.774    23925867.157    23925850.457
        41.000          27.0004
 130612639.627 5                                                  24854756.562
        35.000
 109037920.429 8  84964683.02647  20749194.024    20749200.405    20749194.925
        52.000          42.0004
 113189589.606 7  88036394.421 7  21159578.751    21159588.082    21159579.705
        45.000          43.000
 115569313.033 7  90054002.49846  21992095.448    21992103.452    21992095.780
        47.000          37.0004
 112111403.071 8  87359534.96147  21334098.541    21334110.206    21334099.406
        51.000          42.0004
 129238265.392 6 100705166.82743  24593230.516    24593251.631    24593232.661
        37.000          19.0004
 125196020.534 6  97374698.923 5  23420501.957    23420528.863    23420501.411
        37.000          33.000
 121026246.959 6  94131530.610 6  22632511.891    22632528.110    22632510.741
        36.000          40.000
 11 10  1  0 13  0.0000000  0 16R09G18G31G30R16R10R18G12G06G21R19G29
                                G25G22R05R20
 107171053.897 8  83355280.495 7  20069692.144    20069702.222    20069692.397
        51.000          47.000
 117849930.161 7  91831161.11645  22426065.975    22426077.981    22426066.239
        46.000          31.0004
 115079973.188 8  89672717.24546  21898992.308    21899001.424    21898992.279
        50.000          38.0004
 105240034.087 8  82005255.95747  20026503.902    20026511.775    20026504.499
        51.000          44.0004
 111234054.509 8  86515376.336 7  20823261.106    20823274.638    20823261.271
        48.000          44.000
 122274048.318 6  95102048.404 4  22938299.431    22938311.596    22938300.554
        36.000          26.000
 122357015.606 6  95166587.817 6  22921588.419    22921602.104    22921589.319
        40.000          39.000
 125813920.069 7  98036778.77544  23941639.044    23941655.618    23941639.257
        42.000          27.0004
 130560442.442 6                                                  24844824.534
        36.000
 109043518.335 8  84969045.05047  20750259.211    20750265.770    20750259.678
        51.000          43.0004
 113207529.465 7  88050347.632 7  21162932.635    21162941.341    21162933.428
        45.000          42.000
 115598269.433 8  90076565.89146  21997606.100    21997613.931    21997606.128
        49.000          38.0004
 112162306.838 8  87399200.12947  21343785.471    21343797.057    21343786.087
        51.000          42.0004
 129145812.720 6 100633125.63443  24575637.079    24575658.781    24575638.469
        37.000          18.0004
 125085343.150 6  97288616.691 5  23399797.477    23399823.168    23399797.616
        38.000          33.000
 120995858.991 6  94107895.647 6  22626828.770    22626844.400    22626828.957
        36.000          39.000
 11 10  1  0 13 30.0000000  0 16R09G18G31G30R16R10R18G12G06G21R19G29
                                G25G22R05R20
 107167755.313 8  83352714.873 7  20069074.401    20069084.759    20069074.923
        51.000          46.000
 117779228.560 7  91776069.14945  22412611.881    22412623.221    22412612.701
        46.000          31.0004
 115092672.628 8  89682612.80946  21901409.263    21901418.207    21901409.570
        49.000          38.0004
 105237425.427 8  82003223.20947  20026007.714    20026015.323    20026008.460
        53.000          43.0004
 111340709.865 8  86598330.216 7  20843226.824    20843240.973    20843226.355
        48.000          43.000
 122175946.796 6  95025747.260 4  22919896.344    22919909.035    22919896.855
        37.000          27.000
 122409123.160 6  95207115.795 6  22931350.215    22931364.185    22931350.378
        40.000          38.000
 125897139.022 7  98101624.26444  23957475.457    23957491.665    23957475.935
        42.000          27.0004
 130508243.875 5                                                  24834889.830
        33.000
 109049496.017 8  84973703.01047  20751396.945    20751403.523    20751397.332
        49.000          43.0004
 113225464.425 7  88064297.042 7  21166284.893    21166294.162    21166285.392
        45.000          42.000
 115627232.226 8  90099134.26946  22003117.884    22003125.497    22003117.848
        49.000          38.0004
 112213630.445 8  87439192.44446  21353552.151    21353563.752    21353553.230
        52.000          41.0004
 129053231.795 6 100560984.53642  24558020.135    24558042.102    24558021.754
        38.000          17.0004
 124974557.808 6  97202450.532 5  23379071.722    23379099.435    23379070.255
        37.000          33.000
 120965571.539 6  94084338.856 6  22621165.313    22621180.797    22621164.573
        36.000          39.000
 11 10  1  0 14  0.0000000  0 16R09G18G31G30R16R10R18G12G06G21R19G29
                                G25G22R05R20
 107165253.159 8  83350768.685 7  20068605.912    20068616.164    20068605.969
        51.000          47.000
 117708701.885 7  91721113.49945  22399190.830    22399202.449    22399191.469
        46.000          31.0004
 115105869.646 7  89692896.09646  21903920.303    21903929.528    21903920.255
        47.000          39.0004
 105235336.856 8  82001595.72447  20025610.165    20025618.027    20025610.937
        53.000          43.0004
 111447778.906 8  86681605.826 7  20863270.408    20863285.007    20863270.526
        48.000          44.000
 122078335.063 5  94949827.061 4  22901580.370    22901596.851    22901578.719
        34.000          27.000
 122461102.480 6  95247544.040 6  22941088.665    22941101.918    22941089.939
        41.000          38.000
 125980608.011 7  98166664.60444  23973359.479    23973375.338    23973359.682
        42.000          26.0004
 130456043.155 5                                                  24824955.968
        32.000
 109055852.415 8  84978656.06747  20752606.732    20752613.306    20752607.210
        50.000          44.0004
 113243393.255 7  88078241.675 7  21169636.818    21169645.919    21169637.272
        45.000          42.000
 115656201.040 8  90121707.33146  22008630.572    22008637.967    22008630.597
        49.000          37.0004
 112265373.333 9  87479511.47047  21363398.824    21363410.206    21363399.592
        54.000          42.0004
 128960524.131 6 100488744.63143  24540378.633    24540400.140    24540379.841
        38.000          18.0004
 124863667.928 6  97116203.128 5  23358328.267    23358354.159    23358328.299
        38.000          34.000
 120935383.272 6  94060859.220 6  22615519.896    22615534.715    22615519.100
        37.000          39.000
 11 10  1  0 14 30.0000000  0 16R09G18G31G30R16R10R18G12G06G21R19G29
                                G25G22R05R20
 107163547.521 8  83349442.012 7  20068286.117    20068296.760    20068285.967
        51.000          46.000
 117638353.315 7  91666296.61145  22385803.906    22385815.556    22385805.003
        46.000          32.0004
 115119562.855 8  89703566.02346  21906526.312    21906535.596    21906526.479
        49.000          39.0004
 105233769.620 8  82000374.47647  20025311.830    20025319.687    20025312.505
        52.000          43.0004
 111555256.990 7  86765199.590 7  20883390.782    20883405.452    20883390.380
        47.000          43.000
 121981216.827 5  94874290.738 4  22883362.801    22883377.990    22883363.547
        34.000          28.000
 122512953.830 6  95287872.791 6  22950802.972    22950814.426    22950802.444
        41.000          38.000
 126064326.184 7  98231899.10744  23989290.777    23989307.494    23989291.861
        42.000          27.0004
 130403839.790 5                                                  24815020.386
        31.000
 109062586.638 8  84983903.53547  20753888.102    20753894.729    20753888.794
        51.000          43.0004
 113261314.921 7  88092180.724 7  21172987.666    21172996.096    21172987.812
        46.000          42.000
 115685176.217 8  90144285.35246  22014144.345    22014151.804    22014144.454
        49.000          37.0004
 112317535.284 8  87520157.03447  21373324.844    21373336.435    21373325.629
        52.000          42.0004
 128867692.558 6 100416408.15343  24522713.442    24522734.402    24522714.949
        38.000          19.0004
 124752677.389 6  97029877.445 5  23337564.468    23337590.567    23337565.963
        38.000          35.000
 120905292.162 6  94037455.123 6  22609891.908    22609907.557    22609890.011
        36.000          39.000
 11 10  1  0 15  0.0000000  0 16R09G18G31G30R16R10R18G12G06G21R19G29
                                G25G22R05R20
 107162637.865 8  83348734.435 7  20068116.192    20068126.311    20068116.229
        51.000          47.000
 117568185.278 7  91611620.40745  22372451.212    22372462.777    22372451.678
        46.000          32.0004
 115133750.871 7  89714621.51346  21909226.209    21909235.355    21909225.927
        46.000          39.0004
 105232724.413 8  81999560.00347  20025113.099    20025120.644    20025113.899
        53.000          44.0004
 111663139.243 8  86849107.711 7  20903587.175    20903601.341    20903586.758
        48.000          44.000
 121884595.652 5  94799140.987 4  22865238.065    22865251.266    22865238.697
        35.000          29.000
 122564677.757 6  95328102.410 6  22960491.640    22960504.899    22960491.811
        40.000          38.000
 126148292.294 6  98297326.80844  24005269.362    24005286.249    24005269.307
        41.000          27.0004
 130351632.811 5                                                  24805086.452
        31.000
 109069696.788 8  84989443.92147  20755240.885    20755247.582    20755241.588
        50.000          44.0004
 113279228.050 7  88106113.139 7  21176336.664    21176344.919    21176337.255
        46.000          42.000
 115714158.183 8  90166868.66446  22019659.422    22019666.782    22019659.348
        48.000          37.0004
 112370115.668 8  87561128.65247  21383330.793    21383342.319    21383331.584
        51.000          42.0004
 128774738.933 6 100343976.61243  24505025.382    24505045.980    24505026.709
        39.000          19.0004
 124641589.487 6  96943476.072 5  23316784.648    23316808.199    23316784.464
        38.000          35.000
 120875296.783 6  94014125.494 6  22604283.038    22604298.619    22604284.689
        37.000          39.000
 11 10  1  0 15 30.0000000  0 16R09G18G31G30R16R10R18G12G06G21R19G29
                                G25G22R05R20
 107162523.838 8  83348645.682 7  20068094.672    20068105.161    20068094.357
        51.000          45.000
 117498200.411 7  91557086.93445  22359133.267    22359144.760    22359134.030
        46.000          31.0004
 115148432.359 7  89726061.52446  21912020.061    21912029.200    21912020.101
        47.000          38.0004
 105232202.556 8  81999153.33047  20025013.920    20025021.563    20025014.699
        53.000          43.0004
 111771421.585 7  86933326.996 7  20923858.117    20923871.856    20923858.009
        47.000          43.000
 121788475.361 5  94724380.818 4  22847206.636    22847219.383    22847207.331
        35.000          28.000
 122616273.929 6  95368232.661 6  22970156.333    22970170.596    22970157.989
        39.000          37.000
 126232505.532 6  98362947.04644  24021294.844    24021311.973    24021295.032
        41.000          26.0004
 130299421.823 5                                                  24795151.166
        31.000
 109077182.216 8  84995276.73547  20756665.156    20756671.737    20756665.507
        49.000          42.0004
 113297131.451 7  88120038.015 7  21179682.495    21179691.854    21179682.566
        45.000          42.000
 115743146.924 8  90189457.26546  22025175.915    22025183.362    22025176.358
        50.000          37.0004
 112423114.190 8  87602426.08146  21393416.150    21393427.670    21393416.959
        52.000          41.0004
 128681665.586 6 100271451.75843  24487313.937    24487335.389    24487315.690
        41.000          20.0004
 124530408.597 6  96857002.418 6  23295984.685    23296009.797    23295985.745
        37.000          36.000
 120845394.808 6  93990868.525 6  22598691.256    22598706.475    22598692.896
        37.000          40.000
 11 10  1  0 16  0.0000000  0 16R09G18G31G30R16R10R18G12G06G21R19G29
                                G25G22R05R20
 107163204.878 8  83349175.313 7  20068222.230    20068233.147    20068222.226
        51.000          47.000
 117428401.545 7  91502698.38845  22345851.198    22345862.434    22345851.981
        46.000          32.0004
 115163606.247 7  89737885.22046  21914907.486    21914916.920    21914907.535
        47.000          39.0004
 105232204.736 8  81999155.00647  20025014.099    20025021.991    20025014.822
        53.000          43.0004
 111880098.821 7  87017853.415 7  20944203.091    20944217.113    20944203.015
        47.000          43.000
 121692859.762 5  94650013.229 4  22829268.559    22829284.945    22829269.648
        32.000          29.000
 122667742.611 6  95408263.719 6  22979800.080    22979813.943    22979800.550
        41.000          38.000
 126316963.762 7  98428758.21544  24037366.761    24037384.031    24037367.019
        42.000          26.0004
 130247205.968 5 101491326.87642  24785214.912    24785232.668    24785215.511
        34.000          13.0004
 109085041.449 8  85001400.82747  20758160.880    20758167.267    20758161.582
        49.000          43.0004
 113315023.946 7  88133954.393 7  21183027.702    21183037.063    21183028.350
        45.000          43.000
 115772142.480 8  90212051.15946  22030693.575    22030701.238    22030693.323
        48.000          37.0004
 112476530.330 8  87644048.93047  21403580.958    21403592.463    21403581.348
        52.000          42.0004
 128588474.534 6 100198835.18143  24469580.058    24469601.577    24469580.707
        40.000          21.0004
 124419138.486 6  96770459.400 6  23275169.806    23275194.114    23275170.506
        37.000          36.000
 120815584.994 6  93967683.211 6  22593116.584    22593131.693    22593115.558
        37.000          40.000
 11 10  1  0 16 30.0000000  0 16R09G18G31G30R16R10R18G12G06G21R19G29
                                G25G22R05R20
 107164680.656 8  83350323.074 7  20068498.605    20068509.147    20068498.659
        50.000          45.000
 117358791.305 7  91448456.81545  22332604.441    22332615.992    22332605.323
        47.000          32.0004
 115179270.958 8  89750091.37046  21917888.318    21917897.964    21917888.141
        48.000          38.0004
 105232731.944 8  81999565.79147  20025114.510    20025122.344    20025115.388
        53.000          43.0004
 111989166.583 8  87102683.581 7  20964621.033    20964635.562    20964621.351
        48.000          43.000
 121597752.753 5  94576041.110 4  22811427.291    22811441.459    22811427.195
        35.000          27.000
 122719084.756 6  95448196.378 6  22989417.608    22989431.703    22989417.764
        41.000          38.000
 126401666.293 7  98494759.73044  24053485.446    24053503.180    24053486.104
        43.000          27.0004
 130194984.582 5 101450635.05242  24775277.625    24775293.817    24775277.488
        35.000          14.0004
 109093273.297 8  85007815.26347  20759727.251    20759733.651    20759727.835
        50.000          43.0004
 113332904.753 7  88147861.669 7  21186370.507    21186379.205    21186370.991
        46.000          42.000
 115801145.209 8  90234650.66246  22036212.838    22036220.178    22036212.880
        49.000          37.0004
 112530363.600 8  87685996.80547  21413825.247    21413837.096    21413825.282
        51.000          42.0004
 128495168.146 6 100126128.75243  24451824.437    24451846.297    24451825.145
        39.000          21.0004
 124307782.708 6  96683849.793 6  23254336.018    23254362.140    23254336.167
        36.000          37.000
 120785865.621 6  93944568.254 6  22587558.584    22587574.282    22587558.745
        38.000          40.000
 11 10  1  0 17  0.0000000  0 16R09G18G31G30R16R10R18G12G06G21R19G29
                                G25G22R05R20
 107166950.564 8  83352088.494 7  20068923.822    20068934.530    20068923.761
        51.000          47.000
 117289372.219 7  91394364.19545  22319393.766    22319405.804    22319394.866
        46.000          32.0004
 115195425.295 8  89762679.05346  21920962.628    21920971.881    21920962.633
        49.000          39.0004
 105233785.151 8  82000386.44247  20025315.111    20025322.808    20025315.928
        53.000          44.0004
 112098620.342 7  87187813.958 7  20985110.962    20985125.982    20985111.297
        47.000          44.000
 121503157.455 5  94502467.028 4  22793681.891    22793693.404    22793683.711
        32.000          26.000
 122770300.868 7  95488030.996 6  22999013.650    22999025.584    22999014.925
        42.000          38.000
 126486611.762 6  98560950.56744  24069651.016    24069667.927    24069652.195
        41.000          27.0004
 130142757.021 6 101409938.37142  24765339.064    24765356.323    24765339.667
        37.000          17.0004
 109101876.471 8  85014519.04047  20761364.526    20761370.784    20761365.333
        50.000          43.0004
 113350772.420 7  88161758.727 7  21189710.912    21189719.331    21189711.720
        46.000          42.000
 115830155.352 7  90257255.93046  22041732.894    22041740.413    22041733.042
        47.000          37.0004
 112584613.583 8  87728269.39947  21424148.720    21424160.743    21424148.795
        50.000          42.0004
 128401748.781 6 100053334.26743  24434047.445    24434069.267    24434048.167
        40.000          22.0004
 124196345.484 6  96597176.900 6  23233488.781    23233516.135    23233489.364
        37.000          37.000
 120756235.321 6  93921522.568 6  22582016.855    22582033.201    22582018.100
        37.000          41.000
 11 10  1  0 17 30.0000000  0 16R09G18G31G30R16R10R18G12G06G21R19G29
                                G25G22R05R20
 107170014.128 8  83354471.196 7  20069497.532    20069507.871    20069497.434
        51.000          46.000
 117220147.107 7  91340422.72345  22306220.743    22306232.629    22306221.664
        46.000          32.0004
 115212067.847 8  89775647.16246  21924129.668    21924138.977    21924129.554
        48.000          38.0004
 105235365.288 8  82001617.69247  20025615.667    20025623.583    20025616.199
        53.000          43.0004
 112208455.505 7  87273240.968 7  21005672.805    21005688.181    21005672.667
        47.000          43.000
 121409077.959 5  94429294.109 4  22776034.436    22776047.180    22776034.093
        35.000          28.000
 122821390.797 6  95527767.528 6  23008583.382    23008596.999    23008583.914
        41.000          38.000
 126571799.205 7  98627329.92444  24085862.141    24085879.313    24085862.078
        43.000          27.0004
 130090522.656 6 101369236.42042  24755398.795    24755414.841    24755400.100
        37.000          16.0004
 109110849.587 8  85021511.08447  20763072.175    20763078.340    20763073.026
        52.000          43.0004
 113368625.991 7  88175644.821 7  21193048.468    21193056.295    21193049.102
        45.000          42.000
 115859173.318 8  90279867.29446  22047254.575    22047262.710    22047253.939
        48.000          37.0004
 112639279.748 8  87770866.28247  21434551.429    21434563.143    21434552.117
        52.000          42.0004
 128308218.492 6  99980453.35743  24416249.184    24416271.754    24416249.789
        40.000          22.0004
 124084830.697 6  96510443.668 6  23212628.474    23212654.466    23212630.591
        37.000          37.000
 120726692.572 6  93898544.952 6  22576492.717    22576508.184    22576493.409
        37.000          41.000
 11 10  1  0 18  0.0000000  0 16R09G18G31G30R16R10R18G12G06G21R19G29
                                G25G22R05R20
 107173870.389 8  83357470.452 7  20070219.549    20070230.615    20070219.621
        51.000          47.000
 117151118.615 7  91286634.47345  22293084.828    22293096.894    22293085.379
        46.000          32.0004
 115229196.822 8  89788994.30046  21927389.159    21927398.813    21927389.391
        48.000          38.0004
 105237473.025 8  82003260.06347  20026017.004    20026024.594    20026017.536
        52.000          44.0004
 112318667.099 8  87358960.758 7  21026304.803    21026319.647    21026304.427
        48.000          43.000
 121315517.834 5  94356525.138 4  22758479.001    22758495.028    22758480.002
        34.000          28.000
 122872354.604 6  95567405.920 6  23018130.703    23018144.975    23018130.377
        40.000          40.000
 126657226.800 7  98693896.42244  24102118.524    24102135.747    24102119.877
        43.000          26.0004
 130038280.576 6 101328528.49743  24745456.918    24745474.735    24745457.330
        37.000          18.0004
 109120191.142 8  85028790.21147  20764849.895    20764855.971    20764850.713
        51.000          43.0004
 113386464.189 7  88189518.963 7  21196382.593    21196391.220    21196383.110
        46.000          42.000
 115888198.921 7  90302484.60846  22052777.937    22052785.951    22052778.005
        46.000          37.0004
 112694361.380 8  87813786.90747  21445033.173    21445044.996    21445034.120
        53.000          42.0004
 128214579.735 6  99907487.97943  24398430.260    24398452.751    24398430.953
        40.000          22.0004
 123973241.735 6  96423652.816 6  23191752.473    23191778.054    23191753.040
        37.000          37.000
 120697235.692 6  93875634.169 6  22570983.240    22571000.176    22570983.880
        36.000          41.000
 11 10  1  0 18 30.0000000  0 16R09G18G31G30R16R10R18G12G06G21R19G29
                                G25G22R05R20
 107178519.134 8  83361086.070 7  20071090.123    20071100.948    20071089.931
        51.000          46.000
 117082289.176 7  91233001.33345  22279987.242    22279998.672    22279988.239
        46.000          32.0004
 115246810.993 8  89802719.51446  21930741.262    21930750.957    21930741.128
        49.000          38.0004
 105240109.523 8  82005314.44847  20026518.736    20026526.368    20026519.627
        53.000          43.0004
 112429250.655 7  87444969.858 7  21047006.230    21047020.786    21047005.047
        47.000          43.000
 121222480.741 6  94284163.006 4  22741027.442    22741041.827    22741028.744
        38.000          29.000
 122923193.640 6  95606947.272 6  23027654.806    23027668.105    23027656.142
        41.000          39.000
 126742894.122 7  98760649.71644  24118421.009    24118438.287    24118421.070
        43.000          27.0004
 129986030.640 6 101287814.38442  24735513.954    24735530.616    24735515.131
        37.000          17.0004
 109129900.235 8  85036355.74347  20766697.064    20766703.907    20766696.839
        51.000          43.0004
 113404286.252 7  88203380.553 7  21199714.444    21199722.456    21199715.033
        46.000          42.000
 115917232.518 8  90325108.14946  22058303.054    22058310.997    22058303.281
        49.000          37.0004
 112749858.159 8  87857031.02546  21455594.092    21455605.596    21455594.643
        52.000          41.0004
 128120834.662 6  99834439.74643  24380591.683    24380613.429    24380591.045
        39.000          21.0004
 123861582.785 6  96336807.515 6  23170863.576    23170889.259    23170864.132
        36.000          36.000
 120667862.638 6  93852788.547 6  22565491.815    22565506.423    22565492.583
        37.000          41.000
 11 10  1  0 19  0.0000000  0 16R09G18G31G30R16R10R18G12G06G21R19G29
                                G25G22R05R20
 107183959.241 8  83365317.207 7  20072109.100    20072119.756    20072109.176
        51.000          47.000
 117013662.011 7  91179525.80145  22266927.846    22266938.993    22266928.494
        46.000          32.0004
 115264909.124 8  89816821.84346  21934185.532    21934194.796    21934185.508
        49.000          38.0004
 105243275.441 8  82007781.37747  20027121.127    20027128.828    20027121.973
        53.000          44.0004
 112540201.581 7  87531264.666 7  21067776.578    21067791.737    21067776.522
        47.000          44.000
 121129970.408 6  94212210.573 4  22723672.208    22723686.292    22723673.185
        37.000          29.000
 122973907.422 6  95646391.211 6  23037156.672    23037168.350    23037157.627
        41.000          38.000
 126828799.052 7  98827588.15044  24134768.450    24134786.179    24134768.257
        42.000          27.0004
 129933771.857 6 101247093.43543  24725569.588    24725585.630    24725569.827
        39.000          18.0004
 109139975.452 8  85044206.57547  20768614.349    20768621.111    20768614.852
        50.000          44.0004
 113422090.987 7  88217228.665 7  21203042.378    21203050.942    21203043.273
        46.000          42.000
 115946274.534 8  90347738.25146  22063829.299    22063837.462    22063829.194
        48.000          37.0004
 112805769.471 8  87900598.15647  21466233.577    21466245.312    21466234.260
        51.000          42.0004
 128026985.660 6  99761310.48243  24362732.695    24362755.793    24362732.483
        38.000          22.0004
 123749857.790 6  96249910.901 6  23149962.598    23149988.511    23149962.778
        37.000          37.000
 120638572.315 6  93830007.282 6  22560012.766    22560029.257    22560013.614
        36.000          41.000
 11 10  1  0 19 30.0000000  0 16R09G18G31G30R16R10R18G12G06G21R19G29
                                G25G22R05R20
 107190190.099 8  83370163.363 7  20073276.168    20073286.754    20073276.533
        51.000          46.000
 116945239.469 7  91126209.71245  22253907.552    22253918.415    22253908.084
        46.000          32.0004
 115283489.619 8  89831300.04346  21937721.085    21937730.621    21937720.798
        49.000          38.0004
 105246971.481 8  82010661.38447  20027824.433    20027832.238    20027825.021
        52.000          44.0004
 112651514.888 7  87617841.337 7  21088615.029    21088630.641    21088614.786
        47.000          43.000
 121037990.177 6  94140670.428 4  22706415.989    22706431.162    22706414.428
        37.000          29.000
 123024496.502 6  95685738.135 6  23046631.968    23046646.586    23046632.523
        39.000          38.000
 126914940.627 7  98894710.98144  24151160.756    24151178.158    24151160.923
        42.000          26.0004
 129881503.503 6 101206365.00543  24715623.765    24715639.138    24715624.149
        38.000          19.0004
 109150415.276 8  85052341.50547  20770600.796    20770607.713    20770601.515
        51.000          44.0004
 113439877.103 7  88231062.301 6  21206367.917    21206376.023    21206368.305
        46.000          41.000
 115975324.937 8  90370374.88946  22069357.777    22069365.810    22069358.126
        48.000          37.0004
 112862094.598 8  87944487.74547  21476951.934    21476964.003    21476952.481
        51.000          42.0004
 127933034.834 6  99688101.92843  24344854.975    24344877.010    24344855.453
        39.000          21.0004
 123638070.601 6  96162965.909 6  23129050.029    23129075.813    23129050.835
        38.000          37.000
 120609362.129 6  93807288.317 6  22554551.290    22554566.467    22554553.322
        36.000          40.000
 11 10  1  0 20  0.0000000  0 16R09G18G31G30R16R10R18G12G06G21R19G29
                                G25G22R05R20
 107197211.026 8  83375624.020 7  20074591.013    20074601.722    20074591.109
        51.000          47.000
 116877024.003 8  91073054.96545  22240926.364    22240937.215    22240927.224
        48.000          32.0004
 115302551.008 8  89846152.95946  21941348.453    21941358.136    21941348.646
        48.000          38.0004
 105251198.639 8  82013955.25247  20028628.716    20028636.677    20028629.345
        51.000          43.0004
 112763186.298 7  87704696.510 7  21109520.216    21109535.784    21109520.247
        47.000          43.000
 120946543.717 6  94069545.424 5  22689260.886    22689276.381    22689261.005
        37.000          30.000
 123074962.114 6  95724989.038 6  23056087.079    23056100.296    23056087.846
        40.000          38.000
 127001317.717 7  98962017.30944  24167597.967    24167615.607    24167598.200
        43.000          26.0004
 129829224.874 6 101165628.61843  24705675.413    24705690.938    24705674.317
        38.000          19.0004
 109161218.217 8  85060759.38847  20772656.507    20772663.321    20772657.348
        50.000          43.0004
 113457644.074 7  88244881.043 7  21209689.575    21209698.107    21209689.784
        46.000          42.000
 116004384.331 8  90393018.53646  22074887.814    22074895.390    22074887.508
        49.000          37.0004
 112918833.140 8  87988699.45547  21487749.094    21487760.893    21487749.488
        51.000          42.0004
 127838984.504 6  99614815.85743  24326957.831    24326979.495    24326959.246
        40.000          22.0004
 123526225.296 6  96075975.730 6  23108128.042    23108151.918    23108129.193
        39.000          37.000
 120580231.139 6  93784630.980 6  22549103.151    22549119.067    22549104.243
        36.000          41.000
