     2.11           OBSERVATION DATA    G (GPS)             RINEX VERSION / TYPE
teqc  2016Apr1                          20160930 07:51:15UTCPGM / RUN BY / DATE
Linux 2.4.20-8|Pentium IV|gcc|Linux|486/DX+                 COMMENT
teqc  2016Apr1                          20160816 03:09:47UTCCOMMENT
teqc  2010Mar17     gpsops              20111002 00:07:45UTCCOMMENT
Linux 2.4.21-27.ELsmp|Opteron|gcc -static|Linux x86_64|=+   COMMENT
BIT 2 OF LLI FLAGS DATA COLLECTED UNDER A/S CONDITION       COMMENT
                                                            COMMENT
This data is provided as a public service by NASA/JPL.      COMMENT
No warranty is expressed or implied regarding suitability   COMMENT
for use.  For further information, contact:                 COMMENT
Dave Stowers, NASA/JPL m/s 238-600                          COMMENT
4800 Oak Grove Drive, Pasadena CA 91109 USA                 COMMENT
                                                            COMMENT
Forced Modulo Decimation to 30 seconds                      COMMENT
 SNR is mapped to RINEX snr flag value [0-9]                COMMENT
  L1 & L2: min(max(int(snr_dBHz/6), 0), 9)                  COMMENT
pseudorange smoothing corrections not applied               COMMENT
GUAM                                                        MARKER NAME
50501M002                                                   MARKER NUMBER
GGN                 JPL                                     OBSERVER / AGENCY
IR2200722004        ASHTECH UZ-12       CQ00                REC # / TYPE / VERS
CR519992101         ASH701945B_M    JPLA                    ANT # / TYPE
 -5071312.7999  3568363.4847  1488904.3108                  APPROX POSITION XYZ
        0.0614        0.0000        0.0000                  ANTENNA: DELTA H/E/N
     1     1                                                WAVELENGTH FACT L1/2
     7    L1    L2    P1    P2    C1    S1    S2            # / TYPES OF OBSERV
    30.0000                                                 INTERVAL
teqc windowed: start @ 2011 Oct  1 00:10:00.000             COMMENT
teqc windowed:  end  @ 2011 Oct  1 00:20:00.000             COMMENT
  2011    10     1     0    10    0.0000000     GPS         TIME OF FIRST OBS
                                                            END OF HEADER
 11 10  1  0 10  0.0000000  0  7G06G21G31G30G19G16G03
 -22767707.15848 -17705440.47948  20619977.4684   20619985.8104   20619977.7254
        53.0004         48.0004
  -5052821.24947  -3939708.55847  23100355.0974   23100364.4134   23100354.8514
        47.0004         42.0004
 -15751031.09149 -12271090.16848  20648120.6294   20648127.2634   20648120.1644
        55.0004         50.0004
  -8068130.72747  -6256497.13246  23548373.6714   23548390.1084   23548374.6384
        42.0004         38.0004
 -12928515.81647 -10034964.40047  22673858.6734   22673867.3264   22673859.3954
        47.0004         42.0004
 -11404706.39747  -8884812.21146  22884099.3744   22884109.0144   22884101.3674
        45.0004         40.0004
 -21408996.86148 -16648801.23247  20813029.5194   20813036.9054   20813029.2684
        52.0004         47.0004
 11 10  1  0 10 30.0000000  0  7G06G21G31G30G19G16G03
 -22758529.96448 -17698289.46648  20621723.8054   20621732.0944   20621723.9544
        53.0004         48.0004
  -5021036.75847  -3914941.56347  23106403.7554   23106413.8674   23106402.5334
        46.0004         42.0004
 -15754892.48249 -12274099.10648  20647385.9804   20647392.7244   20647385.9544
        55.0004         50.0004
  -8035022.46447  -6230698.75146  23554674.1574   23554689.2274   23554674.3434
        42.0004         37.0004
 -13002509.84947 -10092622.05747  22659777.5084   22659786.3864   22659777.5494
        47.0004         43.0004
 -11421455.89647  -8897863.83346  22880914.4494   22880921.7874   22880914.5504
        45.0004         41.0004
 -21436709.92648 -16670395.87147  20807755.1654   20807763.5854   20807755.5944
        52.0004         47.0004
 11 10  1  0 11  0.0000000  0  7G06G21G31G30G19G16G03
 -22748941.37548 -17690817.88748  20623549.0804   20623557.1494   20623549.1834
        53.0004         48.0004
  -4988858.42947  -3889867.67247  23112527.1004   23112536.5014   23112526.4474
        46.0004         42.0004
 -15758305.63949 -12276758.77048  20646736.0054   20646743.1814   20646735.5594
        55.0004         50.0004
  -8001882.38847  -6204875.56246  23560980.1914   23560996.2154   23560981.9624
        42.0004         37.0004
 -13076126.12547 -10149985.34947  22645768.9644   22645777.2434   22645768.2894
        47.0004         42.0004
 -11438267.30147  -8910963.67546  22877715.3724   22877722.8864   22877715.3254
        45.0004         41.0004
 -21464009.56548 -16691668.34947  20802560.2474   20802568.7304   20802560.0304
        52.0004         47.0004
 11 10  1  0 11 30.0000000  0  7G06G21G31G30G19G16G03
 -22738941.51948 -17683025.83848  20625452.3114   20625459.6214   20625452.4824
        53.0004         48.0004
  -4956284.28947  -3864485.36247  23118724.6334   23118734.9854   23118725.7754
        46.0004         42.0004
 -15761267.28749 -12279066.59948  20646172.7234   20646179.5294   20646172.5144
        55.0004         50.0004
  -7968707.63547  -6179025.34546  23567293.9834   23567310.5454   23567294.4144
        42.0004         38.0004
 -13149361.49647 -10207051.83447  22631832.2074   22631841.0324   22631833.4904
        47.0004         43.0004
 -11455139.36347  -8924110.80546  22874503.0924   22874511.2954   22874503.6454
        45.0004         40.0004
 -21490894.64548 -16712617.78847  20797444.8384   20797452.6584   20797445.1494
        52.0004         47.0004
 11 10  1  0 12  0.0000000  0  7G06G21G31G30G19G16G03
 -22728532.99448 -17674915.35448  20627432.8574   20627441.4444   20627432.9874
        53.0004         48.0004
  -4923315.62547  -3838795.63947  23124997.4274   23125010.1044   23124999.4584
        46.0004         42.0004
 -15763777.19149 -12281022.42348  20645695.0414   20645702.1604   20645694.9804
        55.0004         50.0004
  -7935498.24847  -6153148.17246  23573613.8514   23573629.3154   23573613.4184
        42.0004         38.0004
 -13222216.07947 -10263821.61447  22617969.9494   22617978.5094   22617971.6944
        47.0004         43.0004
 -11472073.98947  -8937306.68246  22871280.3574   22871288.9144   22871281.1564
        45.0004         41.0004
 -21517366.53448 -16733245.27847  20792407.1344   20792415.8084   20792407.4524
        52.0004         47.0004
 11 10  1  0 12 30.0000000  0  7G06G21G31G30G19G16G03
 -22717715.51848 -17666486.20248  20629491.4944   20629498.6214   20629491.0944
        53.0004         48.0004
  -4889950.69847  -3812797.13647  23131347.8294   23131359.5254   23131348.2364
        46.0004         42.0004
 -15765831.71049 -12282623.40748  20645304.0894   20645310.8314   20645304.0554
        55.0004         50.0004
  -7902250.81247  -6127241.31246  23579939.9094   23579956.7174   23579941.6584
        42.0004         38.0004
 -13294686.21447 -10320291.81747  22604178.6144   22604188.0044   22604179.5414
        47.0004         43.0004
 -11489069.43747  -8950549.94546  22868047.6314   22868056.4844   22868046.5064
        45.0004         40.0004
 -21543423.87148 -16753549.72547  20787448.3154   20787456.7344   20787448.4804
        52.0004         47.0004
 11 10  1  0 13  0.0000000  0  7G06G21G31G30G19G16G03
 -22706495.17148 -17657743.12148  20631626.6714   20631634.5814   20631626.9754
        53.0004         48.0004
  -4856194.12247  -3786493.42947  23137770.1634   23137783.1284   23137772.7534
        46.0004         42.0004
 -15767434.19049 -12283872.13648  20644999.7464   20645006.0494   20644999.6774
        55.0004         50.0004
  -7868968.76647  -6101307.49346  23586273.8574   23586290.2344   23586274.2004
        42.0004         38.0004
 -13366775.17447 -10376465.00247  22590460.5944   22590468.1064   22590462.1824
        47.0004         43.0004
 -11506130.97547  -8963844.71346  22864800.2864   22864808.4564   22864801.4374
        45.0004         41.0004
 -21569071.51348 -16773534.93447  20782568.1424   20782575.9614   20782567.7354
        52.0004         47.0004
 11 10  1  0 13 30.0000000  0  7G06G21G31G30G19G16G03
 -22694871.14048 -17648685.47748  20633838.6704   20633846.7734   20633838.9024
        53.0004         48.0004
  -4822043.80647  -3759882.92347  23144270.9754   23144281.8784   23144270.9714
        47.0004         42.0004
 -15768580.52049 -12284765.43348  20644781.1814   20644788.3364   20644780.8604
        55.0004         50.0004
  -7835648.26247  -6075343.73346  23592615.6754   23592631.2474   23592614.5574
        43.0004         38.0004
 -13438479.04947 -10432338.11947  22576814.0034   22576823.4414   22576815.5474
        47.0004         42.0004
 -11523256.48447  -8977189.34046  22861541.6604   22861549.9364   22861542.6004
        45.0004         40.0004
 -21594307.72048 -16793199.53447  20777765.5444   20777773.3644   20777766.1184
        52.0004         47.0004
 11 10  1  0 14  0.0000000  0  7G06G21G31G30G19G16G03
 -22682843.14648 -17639313.06348  20636127.4764   20636135.3504   20636127.2184
        53.0004         48.0004
  -4787497.90447  -3732964.17647  23150845.5874   23150854.3454   23150844.5684
        46.0004         42.0004
 -15769267.38849 -12285300.70248  20644650.6814   20644657.4524   20644650.9784
        55.0004         50.0004
  -7802286.46447  -6049347.77546  23598964.0534   23598979.6974   23598963.4274
        42.0004         38.0004
 -13509794.81147 -10487908.77947  22563243.7824   22563253.3194   22563245.4774
        47.0004         42.0004
 -11540445.25947  -8990583.25446  22858270.3784   22858279.7104   22858271.5324
        45.0004         41.0004
 -21619131.18548 -16812542.52547  20773042.0434   20773050.1354   20773042.5864
        52.0004         47.0004
 11 10  1  0 14 30.0000000  0  7G06G21G31G30G19G16G03
 -22670416.96748 -17629630.37048  20638491.5374   20638499.8494   20638492.0524
        53.0004         48.0004
  -4752560.54547  -3705740.37447  23157493.6524   23157502.9704   23157493.9254
        46.0004         42.0004
 -15769497.69949 -12285480.22048  20644606.8764   20644613.8674   20644606.9934
        55.0004         50.0004
  -7768886.00647  -6023321.69146  23605320.0904   23605335.5174   23605320.4094
        43.0004         38.0004
 -13580725.39447 -10543179.34047  22549746.4364   22549754.2174   22549746.8024
        47.0004         42.0004
 -11557701.33947  -9004029.64446  22854986.3724   22854995.1614   22854987.9564
        45.0004         41.0004
 -21643546.49048 -16831567.46647  20768395.3124   20768404.6324   20768395.3034
        52.0004         47.0004
 11 10  1  0 15  0.0000000  0  7G06G21G31G30G19G16G03
 -22657592.00348 -17619636.93048  20640932.5844   20640940.5944   20640932.4844
        53.0004         48.0004
  -4717230.09947  -3678210.26847  23164215.0194   23164227.1304   23164215.7774
        47.0004         42.0004
 -15769267.78549 -12285301.11348  20644650.5924   20644657.6644   20644650.2554
        55.0004         50.0004
  -7735443.58447  -5997262.91146  23611683.7034   23611700.0634   23611684.4864
        43.0004         38.0004
 -13651266.76647 -10598146.62247  22536323.2154   22536333.3764   22536323.2634
        47.0004         43.0004
 -11575023.17047  -9017527.23146  22851692.0484   22851699.1474   22851692.0724
        45.0004         41.0004
 -21667552.18648 -16850273.23347  20763827.9164   20763836.2294   20763828.2784
        52.0004         47.0004
 11 10  1  0 15 30.0000000  0  7G06G21G31G30G19G16G03
 -22644369.56348 -17609333.78148  20643448.8784   20643456.9254   20643449.0964
        53.0004         48.0004
  -4681505.97847  -3650373.41646  23171014.1624   23171024.2254   23171013.6344
        46.0004         41.0004
 -15768576.03649 -12284762.14948  20644782.4274   20644789.1854   20644782.0794
        55.0004         50.0004
  -7701957.42347  -5971169.98946  23618054.9384   23618072.7744   23618055.1534
        43.0004         38.0004
 -13721417.59248 -10652809.58147  22522974.2954   22522983.1874   22522974.4894
        48.0004         43.0004
 -11592410.56347  -9031075.92546  22848382.2924   22848390.5984   22848382.7834
        45.0004         41.0004
 -21691148.36748 -16868659.91247  20759337.7574   20759345.6004   20759337.7654
        52.0004         47.0004
 11 10  1  0 16  0.0000000  0  7G06G21G31G30G19G16G03
 -22630754.00148 -17598724.30348  20646040.1264   20646046.8184   20646040.2364
        53.0004         48.0004
  -4645391.30347  -3622232.22746  23177885.6714   23177898.1354   23177886.6174
        46.0004         41.0004
 -15767423.57849 -12283864.17648  20645001.9374   20645008.5624   20645001.3924
        55.0004         50.0004
  -7668429.17247  -5945044.34446  23624436.3564   23624453.7034   23624437.9654
        43.0004         38.0004
 -13791179.55947 -10707169.50247  22509698.7224   22509707.7054   22509699.4624
        47.0004         43.0004
 -11609867.06247  -9044678.46646  22845060.7534   22845068.4484   22845061.2764
        45.0004         41.0004
 -21714338.25848 -16886729.99447  20754924.0284   20754933.1814   20754924.7394
        52.0004         47.0004
 11 10  1  0 16 30.0000000  0  7G06G21G31G30G19G16G03
 -22616745.09248 -17587808.31248  20648706.0444   20648713.7964   20648706.1644
        53.0004         48.0004
  -4608884.13647  -3593785.18547  23184833.5334   23184845.5654   23184834.0774
        46.0004         42.0004
 -15765807.16849 -12282604.68448  20645309.3194   20645316.1544   20645309.0384
        55.0004         50.0004
  -7634855.44547  -5918883.26746  23630826.5124   23630841.7574   23630826.0424
        43.0004         38.0004
 -13860548.96448 -10761223.57847  22496496.7244   22496507.4974   22496498.0774
        48.0004         43.0004
 -11627391.24447  -9058333.73246  22841724.7344   22841734.6944   22841726.5964
        45.0004         41.0004
 -21737120.34248 -16904482.30647  20750589.2504   20750597.8954   20750589.7124
        52.0004         47.0004
 11 10  1  0 17  0.0000000  0  7G06G21G31G30G19G16G03
 -22602346.43048 -17576588.63048  20651445.6114   20651453.8724   20651445.8314
        53.0004         48.0004
  -4571986.75947  -3565034.11946  23191857.1724   23191866.3534   23191855.0844
        46.0004         41.0004
 -15763727.34649 -12280984.08848  20645705.1664   20645712.4314   20645704.8564
        55.0004         50.0004
  -7601236.95947  -5892687.25646  23637222.1814   23637240.6654   23637223.8514
        43.0004         38.0004
 -13929526.72448 -10814972.45947  22483371.0904   22483380.2994   22483372.0954
        48.0004         43.0004
 -11644984.89747  -9072043.13846  22838378.3744   22838385.0114   22838379.1094
        46.0004         41.0004
 -21759497.14648 -16921918.82747  20746330.5744   20746339.4884   20746330.4834
        52.0004         47.0004
 11 10  1  0 17 30.0000000  0  7G06G21G31G30G19G16G03
 -22587555.95948 -17565063.64448  20654260.5894   20654268.1504   20654260.3074
        53.0004         48.0004
  -4534695.81647  -3535976.35546  23198951.4744   23198961.4164   23198952.0654
        46.0004         41.0004
 -15761179.16449 -12278998.54148  20646189.9404   20646197.0154   20646189.8824
        55.0004         50.0004
  -7567568.65947  -5866452.45746  23643630.6864   23643646.9054   23643631.7844
        43.0004         38.0004
 -13998108.05848 -10868412.44247  22470321.1644   22470330.9344   22470323.0724
        48.0004         43.0004
 -11662645.41747  -9085804.64646  22835016.2574   22835025.1634   22835016.9264
        45.0004         41.0004
 -21781465.72848 -16939037.24247  20742150.6784   20742159.3834   20742150.5234
        51.0004         47.0004
 11 10  1  0 18  0.0000000  0  7G06G21G31G30G19G16G03
 -22572380.71848 -17553238.82548  20657147.9294   20657155.9004   20657148.0174
        53.0004         48.0004
  -4497016.93047  -3506616.28546  23206121.8384   23206132.6254   23206122.5394
        46.0004         41.0004
 -15758166.84549 -12276651.32448  20646763.4874   20646770.2144   20646763.1784
        55.0004         50.0004
  -7533854.69647  -5840182.10546  23650044.8944   23650063.1944   23650044.8724
        43.0004         38.0004
 -14066296.81648 -10921546.51147  22457345.2044   22457353.4964   22457346.1644
        48.0004         43.0004
 -11680378.46447  -9099622.66746  22831642.0494   22831650.4864   22831643.2594
        45.0004         40.0004
 -21803032.14748 -16955842.28647  20738046.7074   20738055.4514   20738047.0424
        51.0004         47.0004
 11 10  1  0 18 30.0000000  0  7G06G21G31G30G19G16G03
 -22556819.36948 -17541113.15348  20660109.0824   20660117.1054   20660108.9234
        53.0004         48.0004
  -4458947.26947  -3476951.71946  23213364.9384   23213378.3044   23213366.9724
        46.0004         41.0004
 -15754686.27549 -12273939.23248  20647425.3054   20647432.7204   20647425.0934
        55.0004         50.0004
  -7500090.87747  -5813872.83546  23656471.6644   23656488.6334   23656474.0404
        43.0004         38.0004
 -14134089.15648 -10974371.68447  22444445.3714   22444453.3584   22444446.5464
        48.0004         43.0004
 -11698181.27347  -9113495.05446  22828253.5644   22828263.4004   22828255.0074
        45.0004         41.0004
 -21824194.17248 -16972332.20947  20734019.0704   20734028.5414   20734019.5014
        51.0004         47.0004
 11 10  1  0 19  0.0000000  0  7G06G21G31G30G19G16G03
 -22540874.40548 -17528688.55248  20663143.2484   20663151.8344   20663143.3404
        53.0004         48.0004
  -4420487.76147  -3446983.37746  23220684.5434   23220696.8614   23220684.9344
        46.0004         41.0004
 -15750736.42149 -12270861.46448  20648177.3274   20648184.3344   20648177.4674
        55.0004         50.0004
  -7466276.48047  -5787524.18946  23662906.2134   23662921.8554   23662906.9904
        43.0004         38.0004
 -14201484.46248 -11026887.47947  22431619.3194   22431628.9464   22431621.0694
        48.0004         43.0004
 -11716054.86347  -9127422.61346  22824852.8204   22824863.5684   22824853.3094
        45.0004         41.0004
 -21844952.99648 -16988507.94047  20730069.2374   20730078.2694   20730070.0184
        52.0004         47.0004
 11 10  1  0 19 30.0000000  0  7G06G21G31G30G19G16G03
 -22524548.87848 -17515967.41448  20666250.4014   20666258.3554   20666250.1394
        53.0004         48.0004
  -4381640.16347  -3416712.59946  23228076.7794   23228089.6184   23228077.5904
        46.0004         41.0004
 -15746317.44849 -12267418.13248  20649018.2264   20649024.9924   20649018.2864
        55.0004         50.0004
  -7432411.65947  -5761136.28046  23669348.8694   23669366.7194   23669349.7754
        43.0004         38.0004
 -14268482.61448 -11079093.82447  22418871.2154   22418879.9034   22418870.7514
        48.0004         43.0004
 -11734000.85147  -9141406.55846  22821439.0594   22821448.2684   22821440.0274
        45.0004         41.0004
 -21865310.28748 -17004370.79847  20726195.0734   20726204.4574   20726195.5554
        51.0004         47.0004
 11 10  1  0 20  0.0000000  0  7G06G21G31G30G19G16G03
 -22507842.19548 -17502949.27948  20669429.5914   20669437.4504   20669429.3184
        53.0004         48.0004
  -4342402.58747  -3386137.97246  23235543.8334   23235555.8494   23235545.1664
        46.0004         41.0004
 -15741425.76049 -12263606.46448  20649949.1294   20649956.0114   20649949.0304
        55.0004         50.0004
  -7398492.47647  -5734705.99246  23675805.8004   23675822.8334   23675806.8604
        43.0004         38.0004
 -14335080.59848 -11130988.32447  22406197.0184   22406205.7404   22406198.6654
        48.0004         44.0004
 -11752017.67847  -9155445.72946  22818010.7134   22818019.1664   22818011.3054
        45.0004         41.0004
 -21885264.87748 -17019919.87447  20722398.8464   20722407.6954   20722399.0524
        51.0004         47.0004
