     2.11           OBSERVATION DATA    M (MIXED)           RINEX VERSION / TYPE
teqc  2016Apr1                          20160930 07:51:16UTCPGM / RUN BY / DATE
Linux 2.4.20-8|Pentium IV|gcc|Linux|486/DX+                 COMMENT
teqc  2016Apr1                          20160816 03:38:06UTCCOMMENT
teqc  2007Jun25                         20111002 05:30:02UTCCOMMENT
Linux 2.4.20-8|Pentium IV|gcc -static|Linux|486/DX+         COMMENT
BIT 2 OF LLI FLAGS DATA COLLECTED UNDER A/S CONDITION       COMMENT
 SNR is mapped to RINEX snr flag value [0-9]                COMMENT
  L1 & L2: min(max(int(snr_dBHz/6), 0), 9)                  COMMENT
pseudorange smoothing corrections not applied               COMMENT
rx board ID = 8PO8CC7E9S0                                   COMMENT
VESL                                                        MARKER NAME
66009M001                                                   MARKER NUMBER
Ludwig Combrinck    HartRAO (South Africa) / AWI (Germany)  OBSERVER / AGENCY
T225002             TPS GB-1000         3.3 Dec,22,2008 p6  REC # / TYPE / VERS
022008              TRM29659.00     TCWD                    ANT # / TYPE
  2009329.7131   -99741.4738 -6033158.4722                  APPROX POSITION XYZ
       -0.0112        0.0000        0.0000                  ANTENNA: DELTA H/E/N
     1     1                                                WAVELENGTH FACT L1/2
     7    L1    L2    C1    P1    P2    S1    S2            # / TYPES OF OBSERV
    30.0000                                                 INTERVAL
teqc windowed: start @ 2011 Oct  1 00:10:00.000             COMMENT
teqc windowed:  end  @ 2011 Oct  1 00:20:00.000             COMMENT
  2011    10     1     0    10    0.0000000     GPS         TIME OF FIRST OBS
    14                                                      LEAP SECONDS
                                                            END OF HEADER
 11 10  1  0 10  0.0000000  0 20R05G22G11G28G14R22G20G32R06G09R24G15
                                R13G27R23R07R03R14G17R15
 125041954.822 5  97254860.908 6  23391680.954    23391682.610    23391691.974
        35.000          38.000
 127013938.08846  98971887.39744  24169945.508    24169944.117    24169946.161
        41.000          25.000
 117935585.32448  91897862.32846  22442397.054    22442396.301    22442397.482
        49.000          37.000
 111002513.337 8  86495478.974 7  21123067.115    21123066.327    21123066.786
        51.000          42.000
 125910614.63546  98112177.57143  23959994.264    23959993.364    23959997.509
        39.000          21.000
 112610952.933 7  87586307.413 8  21073594.515    21073594.319    21073602.098
        46.000          49.000
 130641371.25546 101798452.57242  24860226.684    24860225.385    24860226.914
        37.000          17.000
 127383626.184 7  99259965.240 4  24240296.190    24240295.041    24240297.355
        42.000          26.000
 113299733.589 7  88122015.296 8  21202496.896    21202496.542    21202504.317
        46.000          48.000
 117874075.74348  91849933.66246  22430689.627    22430689.316    22430691.155
        49.000          38.000
 116328315.856 7  90477567.445 7  21753970.090    21753970.781    21753976.797
        42.000          45.000
 130105563.57146 101380958.15543  24758263.030    24758261.417    24758264.560
        37.000          22.000
 115006462.744 7  89449478.542 7  21521879.039    21521877.334    21521884.368
        44.000          47.000
 109818208.122 8  85572639.549 6  20897702.665    20897702.209    20897704.335
        50.000          41.000
 103132014.924 7  80213799.382 8  19279432.063    19279433.006    19279439.923
        47.000          52.000
 119584078.875 6  93009827.735 6  22339301.380    22339300.053    22339302.802
        38.000          40.000
 104733237.130 8  81459191.258 8  19599377.489    19599380.859    19599390.595
        49.000          53.000
 105161278.306 7                  19679488.096    19679490.566
        47.000
 109480178.88848  85309239.25847  20833385.755    20833385.264    20833385.802
        52.000          44.000
 120191665.329 6  93482411.344 7  22492219.945    22492221.898    22492231.015
        37.000          43.000
 11 10  1  0 10 30.0000000  0 20R05G22G11G28G14R22G20G32R06G09R24G15
                                R13G27R23R07R03R14G17R15
 125129222.419 6  97322735.550 6  23408008.908    23408008.055    23408018.100
        38.000          40.000
 127062213.38246  99009504.42244  24179131.978    24179130.737    24179132.436
        39.000          24.000
 117957983.23148  91915315.18246  22446659.482    22446658.721    22446659.668
        48.000          36.000
 111057104.506 8  86538017.515 6  21133455.277    21133454.600    21133455.142
        50.000          41.000
 125800957.37546  98026730.31143  23939128.088    23939127.384    23939129.610
        40.000          22.000
 112685985.626 7  87644666.118 8  21087636.124    21087635.549    21087643.627
        46.000          48.000
 130511940.20046 101697597.08343  24835596.054    24835595.243    24835597.913
        39.000          18.000
 127258353.824 7  99162350.384 4  24216456.816    24216456.028    24216459.006
        42.000          26.000
 113288776.330 7  88113492.902 8  21200446.536    21200445.790    21200453.726
        46.000          48.000
 117801878.00448  91793675.62946  22416951.086    22416950.572    22416952.669
        48.000          37.000
 116179755.116 6  90362020.248 7  21726188.460    21726188.876    21726195.138
        41.000          45.000
 130176319.81946 101436092.79143  24771726.277    24771726.346    24771729.163
        39.000          23.000
 115094409.079 7  89517881.246 7  21538337.154    21538335.316    21538342.566
        44.000          47.000
 109778236.882 8  85541493.057 6  20890096.502    20890096.067    20890098.156
        49.000          41.000
 103088126.278 8  80179663.697 8  19271228.257    19271228.556    19271235.631
        48.000          52.000
 119451949.222 6  92907060.247 6  22314617.699    22314617.303    22314620.121
        37.000          39.000
 104710724.219 8  81441681.204 8  19595164.352    19595167.895    19595177.866
        49.000          53.000
 105127050.081 7                  19673083.213    19673085.643
        47.000
 109392896.58948  85241227.07647  20816776.433    20816775.985    20816776.552
        51.000          44.000
 120038083.248 6  93362958.552 7  22463478.578    22463480.777    22463490.315
        37.000          43.000
 11 10  1  0 11  0.0000000  0 20R05G22G11G28G14R22G20G32R06G09R24G15
                                R13G27R23R07R03R14G17R15
 125216876.582 6  97390910.802 6  23424405.588    23424405.633    23424415.745
        39.000          41.000
 127110919.03646  99047456.68844  24188400.157    24188398.937    24188400.911
        39.000          24.000
 117980828.40848  91933116.60446  22451006.546    22451005.989    22451006.904
        49.000          36.000
 111112172.860 8  86580927.924 6  21143934.653    21143933.760    21143934.184
        51.000          41.000
 125691760.75446  97941641.93643  23918347.529    23918346.597    23918350.323
        38.000          21.000
 112761431.139 7  87703345.952 8  21101754.886    21101754.398    21101762.131
        46.000          49.000
 130382678.15846 101596873.29443  24810999.440    24810997.200    24810998.718
        39.000          18.000
 127133400.266 7  99064983.952 4  24192679.780    24192679.035    24192681.824
        42.000          26.000
 113278673.551 7  88105635.087 8  21198555.792    21198554.769    21198563.214
        45.000          49.000
 117730187.26147  91737812.73646  22403308.597    22403307.968    22403310.385
        47.000          37.000
 116031518.769 6  90246725.379 7  21698467.889    21698468.061    21698474.237
        41.000          46.000
 130247302.39846 101491403.78744  24785234.946    24785233.794    24785236.722
        38.000          24.000
 115182786.784 7  89586619.458 7  21554875.554    21554873.901    21554881.403
        44.000          47.000
 109739035.040 8  85510946.171 6  20882636.746    20882636.287    20882638.435
        49.000          40.000
 103044977.407 7  80146103.408 8  19263161.976    19263162.419    19263169.246
        47.000          52.000
 119320336.090 6  92804694.423 6  22290030.551    22290030.746    22290033.661
        37.000          39.000
 104689050.324 8  81424823.695 8  19591108.307    19591111.998    19591121.916
        48.000          53.000
 105093665.542 7                  19666835.624    19666838.232
        47.000
 109306139.76148  85173624.35747  20800267.368    20800266.772    20800267.259
        52.000          44.000
 119884838.531 6  93243768.227 7  22434801.224    22434803.402    22434812.146
        36.000          42.000
 11 10  1  0 11 30.0000000  0 20R05G22G11G28G14R22G20G32R06G09R24G15
                                R13G27R23R07R03R14G17R15
 125304912.068 6  97459382.704 6  23440874.726    23440874.733    23440884.846
        40.000          41.000
 127160051.62247  99085741.68344  24197750.135    24197749.154    24197750.982
        42.000          25.000
 118004117.91248  91951264.09046  22455438.685    22455437.863    22455439.001
        49.000          36.000
 111167714.775 8  86624207.315 6  21154503.728    21154503.014    21154503.457
        51.000          41.000
 125583027.30346  97856914.90343  23897656.949    23897656.267    23897659.042
        40.000          21.000
 112837284.798 7  87762343.162 8  21115950.048    21115949.328    21115957.298
        46.000          49.000
 130253586.94646 101496282.67943  24786433.400    24786431.790    24786433.941
        39.000          19.000
 127008767.173 6  98967867.087 4  24168962.853    24168961.138    24168964.308
        40.000          25.000
 113269422.640 7  88098439.871 8  21196824.502    21196824.013    21196832.198
        46.000          48.000
 117659003.75348  91682345.08746  22389762.538    22389762.407    22389764.403
        49.000          38.000
 115883608.633 6  90131684.191 7  21670807.520    21670807.923    21670814.328
        41.000          47.000
 130318507.77646 101546888.41744  24798783.678    24798783.941    24798786.650
        39.000          25.000
 115271590.916 7  89655689.331 7  21571493.731    21571492.072    21571499.779
        43.000          46.000
 109700602.050 8  85480998.373 6  20875323.570    20875322.792    20875324.803
        50.000          41.000
 103002567.382 8  80113117.823 8  19255233.650    19255234.282    19255241.166
        48.000          52.000
 119189241.996 6  92702732.263 6  22265540.615    22265541.256    22265543.790
        37.000          39.000
 104668213.846 8  81408617.539 8  19587209.439    19587212.735    19587222.450
        49.000          53.000
 105061124.085 7                  19660746.340    19660748.495
        47.000
 109219909.05148  85106431.62347  20783857.636    20783857.664    20783858.066
        52.000          44.000
 119731932.531 6  93124841.311 7  22406187.824    22406189.157    22406197.894
        36.000          42.000
 11 10  1  0 12  0.0000000  0 20R05G22G11G28G14R22G20G32R06G09R24G15
                                R13G27R23R07R03R14G17R15
 125393325.651 6  97528148.625 6  23457415.661    23457414.173    23457424.112
        39.000          41.000
 127209609.65047  99124358.22144  24207181.047    24207179.767    24207181.890
        43.000          25.000
 118027851.92248  91969758.06046  22459954.928    22459954.439    22459955.580
        48.000          37.000
 111223728.998 8  86667854.707 6  21165163.029    21165162.198    21165162.666
        52.000          41.000
 125474759.78446  97772550.73843  23877053.719    23877052.451    23877056.523
        38.000          22.000
 112913544.359 7  87821656.037 8  21130220.770    21130220.487    21130228.615
        46.000          49.000
 130124670.35446 101395828.11943  24761901.593    24761900.411    24761902.429
        39.000          21.000
 126884458.865 6  98871003.299 4  24145307.209    24145306.947    24145309.506
        41.000          25.000
 113261023.780 7  88091907.385 8  21195252.701    21195252.475    21195260.473
        46.000          48.000
 117588329.89648  91627274.57246  22376313.941    22376313.608    22376315.687
        49.000          37.000
 115736028.718 6  90016899.877 7  21643210.128    21643209.784    21643216.128
        41.000          46.000
 130389933.71246 101602544.92144  24812375.159    24812375.650    24812378.438
        39.000          26.000
 115360818.965 7  89725088.896 7  21588191.651    21588190.474    21588198.045
        44.000          47.000
 109662939.316 8  85451650.773 6  20868156.310    20868155.691    20868157.862
        51.000          41.000
 102960897.463 8  80080707.820 8  19247444.216    19247444.574    19247451.619
        48.000          52.000
 119058673.732 6  92601179.098 6  22241150.403    22241150.377    22241153.334
        37.000          40.000
 104648216.125 8  81393063.775 9  19583467.320    19583470.381    19583480.274
        48.000          54.000
 105029427.052 7                  19654814.384    19654816.980
        47.000
 109134206.78648  85039650.66047  20767549.377    20767549.036    20767549.426
        52.000          44.000
 119579371.556 6  93006182.874 7  22377639.041    22377639.389    22377647.996
        37.000          42.000
 11 10  1  0 12 30.0000000  0 20R05G22G11G28G14R22G20G32R06G09R24G15
                                R13G27R23R07R03R14G17R15
 125482111.315 6  97597203.941 6  23474023.415    23474023.702    23474033.928
        38.000          41.000
 127259587.81546  99163301.64844  24216692.243    24216690.493    24216692.642
        40.000          26.000
 118052027.03848  91988595.73546  22464555.648    22464554.944    22464556.004
        48.000          36.000
 111280211.215 8  86711866.789 6  21175911.258    21175910.305    21175911.086
        51.000          41.000
 125366959.39546  97688550.47643  23856540.517    23856539.807    23856542.274
        40.000          23.000
 112990205.348 7  87881281.186 8  21144566.358    21144566.713    21144574.278
        46.000          49.000
 129995929.35646 101295510.42143  24737402.817    24737401.394    24737403.217
        37.000          20.000
 126760476.952 6  98774393.815 4  24121714.688    24121713.938    24121716.766
        41.000          24.000
 113253474.436 7  88086035.613 8  21193840.008    21193839.491    21193847.704
        46.000          48.000
 117518165.46648  91572600.92746  22362961.758    22362961.801    22362963.810
        49.000          38.000
 115588780.195 7  89902373.265 7  21615672.504    21615673.873    21615679.529
        42.000          46.000
 130461575.97046 101658369.97644  24826009.103    24826008.568    24826011.939
        40.000          26.000
 115450465.920 7  89794814.303 7  21604967.891    21604966.315    21604973.894
        44.000          46.000
 109626045.92748  85422902.67046  20861135.803    20861135.152    20861137.290
        49.000          40.000
 102919966.135 8  80048872.282 8  19239792.079    19239793.012    19239800.020
        48.000          52.000
 118928632.441 6  92500035.649 6  22216859.073    22216857.707    22216861.157
        37.000          40.000
 104629055.428 8  81378160.974 8  19579881.599    19579884.689    19579894.639
        49.000          52.000
 104998573.466 7                  19649040.363    19649042.960
        47.000
 109049033.05148  84973281.54147  20751341.579    20751340.966    20751341.251
        52.000          44.000
 119427157.552 6  92887794.286 7  22349152.630    22349155.060    22349163.185
        38.000          43.000
 11 10  1  0 13  0.0000000  0 20R05G22G11G28G14R22G20G32R06G09R24G15
                                R13G27R23R07R03R14G17R15
 127173825.211 6  98912981.168 6  23790494.636    23790493.834    23790504.600
        37.000          41.000
 128885404.25846 100430171.27944  24526074.995    24526073.505    24526075.661
        39.000          25.000
 119652061.79148  93235376.01946  22769032.301    22769031.474    22769032.371
        49.000          36.000
 112912578.11148  87983841.01646  21486540.298    21486539.587    21486539.883
        51.000          41.000
 126835053.57146  98832520.03543  24135908.504    24135907.528    24135911.260
        40.000          22.000
 114669262.821 7  89187214.725 8  21458779.817    21458779.262    21458786.893
        46.000          49.000
 131442792.07546 102422936.05543  25012731.630    25012731.197    25012732.229
        38.000          19.000
 128212249.751 6  99905645.465 4  24397977.992    24397976.082    24397980.055
        39.000          24.000
 114848774.419 7  89326824.425 8  21492379.382    21492378.454    21492386.410
        46.000          48.000
 119023934.94448  92745927.71646  22649500.927    22649500.208    22649502.559
        48.000          38.000
 117044996.405 7  91034985.886 7  21887993.174    21887993.710    21887999.780
        43.000          46.000
 132108849.37746 102941959.55844  25139474.203    25139474.293    25139477.264
        40.000          27.000
 117142525.855 7  91110860.898 7  21921614.070    21921612.625    21921619.959
        44.000          47.000
 111165344.15148  86622355.82546  21154054.402    21154053.946    21154055.822
        50.000          41.000
 104483463.071 7  81264925.454 8  19532071.881    19532072.225    19532079.180
        47.000          52.000
 120403940.894 6  93647497.724 6  22492457.643    22492457.033    22492460.344
        37.000          40.000
 106212733.270 8  82609910.422 9  19876245.394    19876248.448    19876258.119
        49.000          54.000
 106570565.538 7                  19943217.810    19943219.728
        47.000
 110539812.79248  86134928.11447  21035027.301    21035027.062    21035027.217
        50.000          44.000
 120877299.721 6  94015682.636 7  22620526.974    22620529.455    22620537.676
        38.000          43.000
 11 10  1  0 13 30.0000000  0 20R05G22G11G28G14R22G20G32R06G09R24G15
                                R13G27R23R07R03R14G17R15
 127263344.495 5  98982606.936 6  23807241.686    23807240.719    23807251.206
        35.000          41.000
 128936219.87446 100469767.71744  24535743.723    24535743.103    24535746.230
        41.000          24.000
 119677116.57348  93254899.10046  22773800.412    22773799.219    22773800.199
        49.000          36.000
 112969991.42248  88028578.65246  21497465.631    21497464.825    21497465.263
        51.000          40.000
 126728198.43146  98749256.49943  24115574.804    24115573.945    24115577.873
        39.000          23.000
 114746719.094 7  89247458.328 8  21473274.922    21473274.428    21473282.288
        46.000          49.000
 131314412.57646 102322900.21943  24988302.084    24988299.888    24988302.453
        37.000          19.000
 128088931.791 6  99809553.530 4  24374510.806    24374510.060    24374513.278
        40.000          24.000
 114842922.982 7  89322273.274 8  21491284.393    21491283.235    21491291.182
        46.000          49.000
 118954795.79348  92692053.02446  22636344.049    22636343.567    22636345.709
        50.000          38.000
 116898420.788 7  90920982.665 7  21860583.242    21860583.284    21860589.073
        43.000          46.000
 132180916.57746 102998115.71744  25153189.138    25153188.936    25153191.797
        41.000          26.000
 117233001.212 7  91181230.621 7  21938545.790    21938543.782    21938551.058
        44.000          46.000
 111129992.38348  86594808.97146  21147327.315    21147326.620    21147328.729
        50.000          40.000
 104444010.882 8  81234240.339 8  19524696.854    19524697.136    19524704.298
        48.000          52.000
 120274969.517 6  93547186.696 6  22468364.672    22468364.681    22468367.213
        37.000          40.000
 106195247.872 8  82596310.667 8  19872973.133    19872976.176    19872986.166
        49.000          53.000
 106541401.908 8                  19937759.649    19937762.146
        48.000
 110455702.36548  86069387.49447  21019021.571    21019021.307    21019021.620
        52.000          44.000
 120725792.581 6  93897843.751 7  22592174.711    22592176.704    22592185.069
        38.000          43.000
 11 10  1  0 14  0.0000000  0 20R05G22G11G28G14R22G20G32R06G09R24G15
                                R13G27R23R07R03R14G17R15
 127353224.709 5  99052513.370 7  23824053.896    23824054.474    23824065.727
        35.000          42.000
 128987449.17746 100509686.12943  24545493.619    24545492.497    24545494.440
        38.000          22.000
 119702609.83648  93274763.99746  22778651.304    22778650.562    22778651.652
        48.000          36.000
 113027867.19948  88073676.61846  21508479.139    21508478.230    21508478.671
        50.000          40.000
 126621820.47846  98666364.71243  24095331.598    24095330.480    24095334.816
        38.000          21.000
 114824569.256 7  89308008.433 8  21487842.970    21487843.156    21487850.641
        46.000          49.000
 131186218.58746 102223008.92943  24963907.107    24963905.039    24963907.184
        37.000          18.000
 127965950.546 6  99713723.949 4  24351107.999    24351107.589    24351111.027
        41.000          25.000
 114837918.921 7  89318381.290 8  21490347.399    21490346.727    21490354.887
        46.000          48.000
 118886171.48948  92638579.44746  22623285.478    22623284.832    22623286.885
        49.000          38.000
 116752186.428 7  90807244.819 7  21833236.650    21833236.742    21833242.496
        43.000          46.000
 132253192.24546 103054434.32544  25166942.628    25166941.889    25166945.435
        41.000          26.000
 117323885.883 7  91251918.639 7  21955553.160    21955551.425    21955559.386
        44.000          46.000
 111095412.49948  86567863.57346  21140746.975    21140746.454    21140748.439
        50.000          41.000
 104405298.893 7  81204130.936 8  19517459.865    19517460.339    19517467.504
        47.000          52.000
 120146539.077 6  93447296.509 6  22444372.645    22444372.363    22444375.157
        38.000          40.000
 106178599.933 8  82583362.222 9  19869857.212    19869860.795    19869870.992
        48.000          54.000
 106513084.155 7                  19932460.550    19932463.066
        47.000
 110372126.02148  86004263.07647  21003117.639    21003117.262    21003117.533
        51.000          45.000
 120574645.418 6  93780284.914 7  22563886.755    22563891.420    22563899.680
        38.000          43.000
 11 10  1  0 14 30.0000000  0 20R05G22G11G28G14R22G20G32R06G09R24G15
                                R13G27R23R07R03R14G17R15
 127443460.968 5  99122696.850 7  23840936.454    23840935.222    23840946.152
        35.000          42.000
 129039090.53746 100549925.95043  24555319.188    24555319.276    24555321.938
        37.000          20.000
 119728538.52548  93294968.20145  22783585.362    22783584.570    22783585.433
        48.000          35.000
 113086202.12548  88119132.36246  21519579.966    21519579.240    21519579.478
        50.000          40.000
 126515921.43046  98583845.94643  24075179.646    24075179.910    24075182.362
        41.000          22.000
 114902808.784 7  89368861.365 8  21502485.319    21502484.323    21502492.131
        46.000          48.000
 131058210.84246 102123262.36943  24939548.655    24939548.289    24939548.964
        36.000          18.000
 127843308.404 6  99618158.654 4  24327770.655    24327769.887    24327772.914
        41.000          25.000
 114833760.439 7  89315146.894 8  21489569.807    21489568.919    21489576.708
        46.000          48.000
 118818063.13547  92585507.95946  22610325.268    22610324.214    22610326.339
        47.000          38.000
 116606295.093 7  90693773.761 7  21805954.154    21805954.372    21805960.411
        43.000          46.000
 132325672.75446 103110912.57244  25180733.857    25180734.791    25180737.775
        40.000          26.000
 117415175.051 7  91322921.305 7  21972636.520    21972635.300    21972642.775
        44.000          47.000
 111061604.10548  86541519.31246  21134313.345    21134312.963    21134314.972
        50.000          41.000
 104367326.209 7  81174596.602 8  19510361.186    19510361.691    19510368.738
        47.000          51.000
 120018652.106 6  93347828.959 6  22420481.888    22420481.857    22420485.106
        38.000          40.000
 106162788.816 8  82571064.609 8  19866898.638    19866902.057    19866912.150
        48.000          53.000
 106485611.788 7                  19927319.465    19927321.912
        47.000
 110289084.55048  85939555.40047  20987315.605    20987315.018    20987315.387
        51.000          45.000
 120423862.147 6  93663009.179 7  22535672.399    22535673.992    22535682.509
        37.000          43.000
 11 10  1  0 15  0.0000000  0 20R05G22G11G28G14R22G20G32R06G09R24G15
                                R13G27R23R07R03R14G17R15
 127534049.758 5  99193154.620 7  23857883.670    23857882.147    23857892.262
        34.000          43.000
 129091141.64746 100590485.21143  24565226.276    24565224.222    24565227.169
        36.000          19.000
 119754901.98747  93315511.13846  22788602.691    22788601.525    22788602.134
        47.000          36.000
 113144994.48048  88164944.43546  21530767.765    21530767.035    21530767.519
        49.000          40.000
 126410504.61446  98501702.93943  24055119.786    24055118.197    24055122.081
        40.000          22.000
 114981435.424 7  89430015.375 8  21517198.866    21517197.997    21517206.242
        45.000          49.000
 130930394.66446 102023665.38343  24915226.005    24915224.335    24915227.273
        38.000          19.000
 127721009.33246  99522860.77844  24304497.778    24304497.118    24304500.254
        41.000          26.000
 114830446.864 7  89312569.638 8  21488948.784    21488948.456    21488956.811
        46.000          49.000
 118750472.64147  92532839.99346  22597462.783    22597462.268    22597464.079
        47.000          38.000
 116460750.555 7  90580572.449 7  21778736.090    21778736.677    21778742.668
        43.000          46.000
 132398355.81246 103167548.67344  25194565.869    25194565.827    25194568.969
        40.000          25.000
 117506866.136 7  91394236.567 7  21989795.474    21989793.766    21989801.303
        43.000          46.000
 111028568.21848  86515776.92246  21128027.038    21128026.643    21128028.550
        48.000          41.000
 104330093.806 7  81145638.040 8  19503400.791    19503401.435    19503408.549
        47.000          51.000
 119891313.966 6  93248788.164 6  22396695.231    22396694.826    22396697.724
        38.000          40.000
 106147815.201 8  82559418.392 9  19864097.047    19864100.109    19864109.874
        49.000          54.000
 106458985.936 8                  19922336.411    19922339.402
        48.000
 110206580.21948  85875266.23347  20971615.391    20971614.933    20971615.458
        52.000          44.000
 120273445.614 6  93546018.639 7  22507522.264    22507525.707    22507534.013
        37.000          43.000
 11 10  1  0 15 30.0000000  0 20R05G22G11G28G14R22G20G32R06G09R24G15
                                R13G27R23R07R03R14G17R15
 127624987.682 5  99263884.032 7  23874894.919    23874894.235    23874904.486
        33.000          43.000
 129143600.56946 100631362.58643  24575208.597    24575207.401    24575209.940
        39.000          21.000
 119781699.61547  93336392.38846  22793701.176    22793700.811    22793701.829
        47.000          36.000
 113204242.91248  88211112.01846  21542042.500    21542041.819    21542042.153
        50.000          40.000
 126305574.71846  98419939.48943  24035152.505    24035151.356    24035154.988
        40.000          22.000
 115060447.169 7  89491468.943 8  21531984.550    21531984.031    21531992.245
        45.000          49.000
 130802773.05546 101924220.05443  24890940.458    24890939.196    24890940.968
        38.000          21.000
 127599057.12847  99427833.21744  24281290.967    24281289.695    24281293.376
        42.000          25.000
 114827977.691 7  89310649.122 8  21488486.942    21488486.663    21488494.434
        46.000          48.000
 118683402.26148  92480577.33446  22584699.828    22584699.366    22584701.055
        49.000          38.000
 116315556.207 7  90467643.433 7  21751584.507    21751584.489    21751590.927
        43.000          46.000
 132471239.38846 103224340.99444  25208435.046    25208435.511    25208438.267
        40.000          24.000
 117598956.166 7  91465862.058 7  22007028.803    22007027.539    22007034.924
        44.000          46.000
 110996306.42548  86490637.88746  21121888.131    21121887.282    21121889.181
        50.000          41.000
 104293602.456 8  81117255.824 8  19496578.898    19496579.873    19496587.004
        48.000          52.000
 119764530.133 6  93150178.622 6  22373010.811    22373009.669    22373012.695
        38.000          40.000
 106133679.184 8  82548423.745 8  19861451.586    19861454.572    19861464.464
        48.000          53.000
 106433208.214 7                  19917513.160    19917515.170
        47.000
 110124615.53848  85811397.62147  20956018.042    20956017.516    20956018.036
        51.000          46.000
 120123401.620 6  93429317.714 7  22479445.464    22479446.956    22479455.614
        38.000          43.000
 11 10  1  0 16  0.0000000  0 20R05G22G11G28G14R22G20G32R06G09R24G15
                                R13G27R23R07R03R14G17R15
 127716266.756 5  99334878.748 7  23891968.832    23891969.130    23891980.820
        32.000          43.000
 129196459.97546 100672551.61043  24585267.256    24585265.786    24585267.897
        38.000          21.000
 119808926.28948  93357608.05846  22798882.154    22798881.547    22798882.803
        48.000          36.000
 113263941.25348  88257630.26946  21553402.693    21553401.908    21553402.289
        48.000          40.000
 126201129.97946  98338554.19443  24015276.484    24015276.095    24015279.528
        40.000          22.000
 115139837.042 7  89553216.654 8  21546841.491    21546840.753    21546848.826
        45.000          48.000
 130675344.76346 101824925.31943  24866691.538    24866690.207    24866691.873
        39.000          20.000
 127477450.90146  99333075.26944  24258150.135    24258148.570    24258152.356
        41.000          26.000
 114826348.250 7  89309381.776 8  21488182.590    21488181.856    21488189.789
        46.000          48.000
 118616849.95548  92428718.38946  22572035.696    22572034.766    22572036.874
        48.000          38.000
 116170711.671 7  90354986.542 7  21724497.960    21724498.316    21724504.177
        43.000          46.000
 132544316.72446 103281284.32543  25222341.365    25222341.621    25222344.571
        39.000          23.000
 117691438.218 7  91537792.502 7  22024335.717    22024334.366    22024342.078
        44.000          47.000
 110964814.91248  86466099.08446  21115895.150    21115894.681    21115896.485
        50.000          41.000
 104257848.275 7  81089447.004 8  19489895.701    19489895.992    19489903.098
        47.000          52.000
 119638300.203 6  93051999.813 6  22349428.500    22349429.528    22349431.718
        38.000          40.000
 106120376.896 8  82538077.508 8  19858961.740    19858965.264    19858975.303
        48.000          52.000
 106408274.275 7                  19912846.428    19912849.273
        47.000
 110043188.13148  85747947.69047  20940523.098    20940522.307    20940522.886
        51.000          44.000
 119973730.290 6  93312906.655 7  22451436.332    22451437.695    22451446.988
        37.000          43.000
 11 10  1  0 16 30.0000000  0 19G22G11G28G14R22G20G32R06G09R24G15R13
                                G27R23R07R03R14G17R15
 129249719.92846 100714052.47643  24595402.679    24595400.730    24595403.206
        40.000          21.000
 119836582.99948  93379158.69846  22804145.145    22804144.678    22804145.842
        48.000          36.000
 113324090.09948  88304499.48746  21564848.300    21564847.991    21564848.273
        50.000          40.000
 126097176.05846  98257551.26743  23995494.818    23995494.522    23995497.384
        40.000          23.000
 115219604.788 7  89615258.161 8  21561769.053    21561768.480    21561776.286
        45.000          48.000
 130548116.29646 101725786.50443  24842479.440    24842478.748    24842480.238
        37.000          19.000
 127356196.66647  99238591.47844  24235075.688    24235075.061    24235078.143
        42.000          26.000
 114825559.989 7  89308768.675 8  21488034.821    21488034.277    21488042.016
        46.000          48.000
 118550819.521 8  92377266.082 6  22559470.031    22559469.538    22559471.637
        49.000          38.000
 116026222.351 7  90242605.952 7  21697477.406    21697477.768    21697483.687
        42.000          46.000
 132617588.07546 103338378.78943  25236286.536    25236284.857    25236287.458
        38.000          22.000
 117784311.251 7  91610027.033 7  22041716.261    22041713.942    22041721.916
        43.000          47.000
 110934096.81748  86442162.89546  21110049.722    21110049.280    21110051.140
        51.000          41.000
 104222834.598 8  81062214.142 8  19483350.352    19483350.485    19483357.696
        48.000          52.000
 119512631.384 6  92954257.589 6  22325953.181    22325953.136    22325955.370
        38.000          40.000
 106107910.858 8  82528381.704 8  19856628.791    19856632.458    19856642.413
        49.000          52.000
 106384187.731 7                  19908339.046    19908341.579
        47.000
 109962302.35948  85684919.79247  20925130.977    20925130.400    20925130.819
        51.000          44.000
 119824438.827 6  93196791.207 7  22423498.410    22423499.780    22423508.107
        36.000          44.000
 11 10  1  0 17  0.0000000  0 19G22G11G28G14R22G20G32R06G09R24G15R13
                                G27R23R07R03R14G17R15
 129303378.01346 100755863.84943  24605613.439    24605612.609    24605614.177
        39.000          20.000
 119864667.125 8  93401042.441 5  22809489.509    22809489.050    22809489.979
        48.000          35.000
 113384685.71048  88351716.91246  21576379.603    21576378.821    21576379.179
        49.000          40.000
 125993713.99446  98176931.58043  23975805.979    23975805.753    23975809.567
        39.000          23.000
 115299746.224 7  89677590.418 8  21576766.664    21576765.974    21576773.420
        45.000          48.000
 130421088.04946 101626803.50443  24818307.379    24818306.274    24818307.959
        38.000          21.000
 127235295.68846  99144382.80344  24212069.687    24212068.315    24212071.600
        40.000          26.000
 114825609.813 7  89308807.421 8  21488043.357    21488043.443    21488051.489
        46.000          48.000
 118485311.031 8  92326220.503 6  22547004.059    22547003.867    22547006.079
        48.000          38.000
 115882089.641 7  90130502.660 7  21670523.879    21670524.281    21670530.462
        43.000          47.000
 132691048.94646 103395620.99343  25250262.517    25250264.342    25250266.578
        38.000          21.000
 117877570.712 7  91682562.126 7  22059168.243    22059166.213    22059173.804
        43.000          46.000
 110904151.01148  86418828.49746  21104351.292    21104350.839    21104352.648
        50.000          41.000
 104188559.187 8  81035555.454 8  19476942.595    19476943.166    19476950.347
        48.000          51.000
 119387525.773 6  92856953.269 6  22302582.828    22302582.068    22302584.791
        38.000          40.000
 106096278.921 8  82519334.687 8  19854452.496    19854455.805    19854465.558
        48.000          53.000
 106360948.163 6                  19903995.660
        36.000
 109881958.01648  85622313.82847  20909841.944    20909841.333    20909841.815
        53.000          44.000
 119675529.884 6  93080973.344 7  22395631.226    22395633.496    22395642.103
        38.000          44.000
 11 10  1  0 17 30.0000000  0 19G22G11G28G14R22G20G32R06G09R24G15R13
                                G27R23R07R03R14G17R15
 129357430.88146 100797982.47743  24615900.023    24615897.396    24615901.241
        39.000          21.000
 119893178.073 7  93423258.825 5  22814914.990    22814914.312    22814915.505
        47.000          35.000
 113445726.29348  88399281.01346  21587995.118    21587994.616    21587994.897
        51.000          39.000
 125890748.258 7  98096698.640 3  23956213.244    23956212.104    23956215.027
        42.000          23.000
 115380259.269 7  89740211.717 8  21591833.467    21591832.783    21591840.471
        45.000          48.000
 130294264.14546 101527979.84543  24794173.452    24794172.709    24794174.796
        39.000          22.000
 127114752.47447  99050452.95844  24189130.823    24189129.569    24189133.181
        42.000          26.000
 114826497.762 7  89309498.106 8  21488210.389    21488209.609    21488217.210
        46.000          48.000
 118420326.765 7  92275583.398 6  22534638.321    22534637.584    22534639.915
        46.000          38.000
 115738317.448 7  90018679.829 7  21643637.268    21643638.510    21643644.451
        43.000          46.000
 132764697.40146 103453009.34843  25264278.461    25264279.378    25264281.442
        37.000          19.000
 117971213.082 7  91755395.082 7  22076690.985    22076690.045    22076698.157
        43.000          47.000
 110874978.73048  86396096.89246  21098799.694    21098799.376    21098801.194
        50.000          41.000
 104155023.538 7  81009472.166 8  19470673.512    19470674.062    19470681.108
        47.000          51.000
 119262988.240 6  92760090.731 6  22279317.482    22279317.875    22279320.074
        38.000          40.000
 106085481.789 8  82510936.931 8  19852431.845    19852435.259    19852445.036
        49.000          53.000
 106338552.197 7                  19899799.259    19899801.997
        47.000
 109802157.70448  85560131.77947  20894656.507    20894655.945    20894656.289
        52.000          45.000
 119527008.048 6  92965456.440 7  22367836.500    22367840.014    22367848.231
        38.000          44.000
 11 10  1  0 18  0.0000000  0 19G22G11G28G14R22G20G32R06G09R24G15R13
                                G27R23R07R03R14G17R15
 129411879.05746 100840409.89543  24626260.454    24626259.555    24626262.220
        41.000          22.000
 119922114.793 7  93445806.891 5  22820421.331    22820420.830    22820421.817
        47.000          35.000
 113507210.43948  88447190.79646  21599695.234    21599694.421    21599694.827
        49.000          40.000
 125788281.897 6  98016854.950 3  23936713.827    23936713.422    23936716.089
        40.000          23.000
 115461141.328 7  89803119.956 8  21606969.716    21606968.449    21606976.395
        45.000          48.000
 130167647.87046 101429317.90443  24770079.427    24770077.482    24770079.396
        38.000          20.000
 126994570.84147  98956804.88944  24166261.319    24166259.743    24166263.272
        42.000          26.000
 114828222.989 7  89310840.072 7  21488533.180    21488532.177    21488540.095
        46.000          47.000
 118355868.500 8  92225356.176 6  22522372.034    22522371.486    22522373.759
        49.000          38.000
 115594909.124 7  89907139.974 7  21616819.446    21616820.220    21616826.242
        43.000          47.000
 132838531.109 6 103510542.053 2  25278329.221    25278329.245    25278332.588
        37.000          17.000
 118065235.929 7  91828523.925 7  22094287.437    22094285.683    22094293.506
        43.000          47.000
 110846580.63947  86373968.52846  21093395.923    21093395.363    21093397.220
        47.000          40.000
 104122227.992 8  80983964.498 8  19464542.705    19464543.327    19464550.381
        48.000          51.000
 119139025.044 6  92663674.783 6  22256161.536    22256160.436    22256162.987
        38.000          40.000
 106075519.569 8  82503188.547 8  19850567.781    19850570.691    19850580.694
        48.000          53.000
 106317006.216 7                  19895767.285    19895769.678
        47.000
 109722903.53848  85498375.33047  20879574.853    20879574.393    20879574.736
        52.000          45.000
 119378878.171 6  92850244.359 7  22340118.619    22340119.496    22340127.844
        39.000          44.000
 11 10  1  0 18 30.0000000  0 19G22G11G28G14R22G20G32R06G09R24G15R13
                                G27R23R07R03R14G17R15
 129466716.49847 100883140.40643  24636695.698    24636694.988    24636697.380
        42.000          23.000
 119951474.412 8  93468684.425 5  22826008.571    22826007.780    22826008.859
        48.000          35.000
 113569134.36148  88495443.23546  21611478.764    21611478.159    21611478.668
        50.000          40.000
 125686316.091 6  97937401.045 3  23917311.145    23917309.963    23917313.127
        40.000          23.000
 115542388.118 7  89866311.835 8  21622173.555    21622172.968    21622180.702
        45.000          48.000
 130041240.97146 101330818.97243  24746024.282    24746022.898    24746025.985
        39.000          22.000
 126874752.75446  98863440.21644  24143459.916    24143459.290    24143463.196
        41.000          26.000
 114830782.619 7  89312830.885 8  21489012.118    21489011.339    21489019.426
        46.000          48.000
 118291936.698 8  92175539.216 6  22510206.569    22510206.003    22510207.985
        49.000          39.000
 115451866.508 7  89795884.472 7  21590070.082    21590070.589    21590076.971
        42.000          47.000
 132912546.026 5 103568215.923 2  25292411.444    25292413.524    25292416.318
        35.000          14.000
 118159634.426 7  91901944.903 7  22111952.308    22111950.444    22111958.466
        43.000          46.000
 110818955.76748  86352442.66246  21088138.700    21088138.402    21088140.485
        50.000          41.000
 104090171.280 8  80959031.471 8  19458550.161    19458550.787    19458557.640
        48.000          51.000
 119015636.787 6  92567706.194 6  22233110.830    22233110.583    22233113.007
        38.000          40.000
 106066390.945 8  82496088.504 8  19848859.003    19848862.523    19848872.491
        49.000          52.000
 106296307.061 7                  19891893.829    19891896.432
        47.000
 109644195.728 8  85437044.617 7  20864597.152    20864596.689    20864597.087
        52.000          44.000
 119231143.276 6  92735339.517 7  22312470.189    22312472.549    22312481.423
        38.000          44.000
 11 10  1  0 19  0.0000000  0 19G22G11G28G14R22G20G32R06G09R24G15R13
                                G27R23R07R03R14G17R15
 129521942.82846 100926174.06544  24647205.694    24647203.999    24647206.201
        41.000          24.000
 119981257.181 8  93491891.827 5  22831676.058    22831675.297    22831676.349
        49.000          35.000
 113631497.03648  88544037.53746  21623346.236    21623345.345    21623345.756
        50.000          39.000
 125584854.979 6  97858340.402 3  23898003.291    23898002.402    23898005.738
        40.000          23.000
 115623998.132 7  89929786.286 8  21637445.465    21637445.096    21637452.851
        45.000          48.000
 129915047.83346 101232486.57643  24722010.593    24722009.909    24722011.980
        40.000          22.000
 126755302.45947  98770362.09244  24120729.556    24120729.101    24120732.021
        42.000          27.000
 114834176.542 7  89315470.600 8  21489647.031    21489646.430    21489654.335
        46.000          48.000
 118228533.907 8  92126134.469 6  22498141.487    22498140.842    22498142.931
        49.000          39.000
 115309193.944 7  89684916.942 7  21563389.612    21563389.869    21563396.104
        43.000          47.000
 132986740.849 5 103626030.018 2  25306533.687    25306532.670    25306536.411
        34.000          14.000
 118254406.510 7  91975656.488 7  22129687.127    22129685.814    22129693.657
        42.000          46.000
 110792105.47048  86331520.38246  21083029.308    21083028.958    21083031.017
        49.000          41.000
 104058854.436 8  80934673.943 8  19452696.182    19452696.376    19452703.181
        48.000          52.000
 118892830.086 6  92472190.057 6  22210168.502    22210169.201    22210171.398
        38.000          40.000
 106058096.853 8  82489637.581 8  19847307.230    19847310.551    19847320.417
        48.000          53.000
 106276455.971 8                  19888178.341    19888181.401
        48.000
 109566036.897 8  85376141.665 7  20849724.112    20849723.539    20849723.963
        50.000          44.000
 119083809.387 6  92620746.602 7  22284899.789    22284900.883    22284909.521
        38.000          44.000
 11 10  1  0 19 30.0000000  0 19G22G11G28G14R22G20G32R06G09R24G15R13
                                G27R23R07R03R14G17R15
 129577551.55346 100969505.20944  24657787.211    24657786.424    24657788.621
        41.000          24.000
 120011458.794 7  93515425.541 5  22837423.158    22837422.590    22837423.699
        47.000          35.000
 113694293.57348  88592969.91546  21635296.097    21635295.443    21635295.595
        50.000          39.000
 125483899.151 6  97779673.515 4  23878791.332    23878791.929    23878794.689
        39.000          24.000
 115705965.940 7  89993539.020 8  21652784.986    21652784.181    21652792.352
        45.000          48.000
 129789069.21546 101134321.55043  24698037.181    24698037.107    24698039.138
        39.000          22.000
 126636220.57747  98677571.07444  24098068.788    24098068.208    24098071.599
        42.000          27.000
 114838400.440 7  89318755.758 8  21490437.162    21490436.872    21490445.262
        46.000          48.000
 118165659.138 8  92077141.210 6  22486176.905    22486176.076    22486178.162
        48.000          38.000
 115166891.945 7  89574237.634 7  21536778.880    21536779.007    21536785.042
        43.000          47.000
 133061110.315 5 103683980.199 2  25320684.861    25320684.515    25320688.220
        32.000          12.000
 118349545.596 7  92049653.506 7  22147491.319    22147490.254    22147498.017
        43.000          46.000
 110766027.54048  86311199.97946  21078066.929    21078066.547    21078068.567
        51.000          41.000
 104028275.052 7  80910889.989 8  19446979.424    19446979.817    19446986.742
        47.000          52.000
 118770606.797 6  92377127.547 6  22187336.545    22187336.531    22187339.407
        39.000          41.000
 106050633.687 8  82483832.903 8  19845910.549    19845913.671    19845923.704
        49.000          52.000
 106257450.137 7                  19884622.178    19884624.618
        47.000
 109488426.114 8  85315665.725 7  20834955.173    20834954.744    20834955.007
        50.000          45.000
 118936877.020 6  92506465.967 7  22257402.570    22257404.447    22257412.639
        38.000          43.000
 11 10  1  0 20  0.0000000  0 19G22G11G28G14R22G20G32R06G09R24G15R13
                                G27R23R07R03R14G17R15
 129633540.75946 101013132.57644  24668442.486    24668440.960    24668442.939
        41.000          24.000
 120042077.865 7  93539284.545 5  22843249.548    22843249.069    22843250.292
        46.000          35.000
 113757521.99048  88642238.82346  21647327.816    21647327.072    21647327.503
        51.000          39.000
 125383451.237 6  97701402.293 3  23859677.013    23859676.905    23859679.523
        40.000          23.000
 115788288.544 7  90057567.674 8  21668190.236    21668189.854    21668197.944
        44.000          48.000
 129663307.339 6 101036325.312 3  24674105.795    24674105.613    24674107.181
        41.000          22.000
 126517510.29947  98585069.59544  24075480.008    24075478.500    24075481.704
        42.000          27.000
 114843453.449 7  89322685.768 8  21491383.144    21491382.704    21491390.646
        46.000          48.000
 118103313.547 7  92028560.243 6  22474312.880    22474312.001    22474314.194
        47.000          39.000
 115024962.968 7  89463848.381 7  21510237.133    21510237.418    21510243.572
        43.000          47.000
 133135651.949 5 103742064.573 1  25334871.183    25334868.902    25334871.467
        33.000           9.000
 118445048.652 7  92123933.568 7  22165364.410    22165362.230    22165369.704
        42.000          45.000
 110740722.24048  86291481.57246  21073251.758    21073251.281    21073253.106
        49.000          41.000
 103998432.759 8  80887679.283 8  19441400.406    19441401.211    19441408.066
        48.000          52.000
 118648969.714 6  92282520.896 6  22164613.110    22164614.117    22164616.397
        39.000          40.000
 106044001.104 8  82478674.258 9  19844669.037    19844672.573    19844682.347
        48.000          54.000
 106239290.234 7                  19881223.963    19881226.245
        47.000
 109411364.617 8  85255617.743 7  20820291.106    20820290.396    20820290.676
        50.000          44.000
 118790350.913 6  92392501.277 7  22229981.727    22229983.705    22229992.535
        38.000          43.000
