     2.11           OBSERVATION DATA    G (GPS)             RINEX VERSION / TYPE
teqc  2016Apr1                          20160930 07:51:15UTCPGM / RUN BY / DATE
Linux 2.4.20-8|Pentium IV|gcc|Linux|486/DX+                 COMMENT
teqc  2016Apr1                          20160816 03:09:01UTCCOMMENT
teqc  2010Mar17     gpsops              20111002 00:03:51UTCCOMMENT
Linux 2.4.21-27.ELsmp|Opteron|gcc -static|Linux x86_64|=+   COMMENT
     2.10           OBSERVATION DATA    GPS                 COMMENT
soc2rnx ver 1.20    gpsops               2-Oct-2011 00:03:50COMMENT
S1, if present, is the SNR for the C/A data stream on L1.   COMMENT
 SNR is mapped to RINEX snr flag value [1,4-9]              COMMENT
    SNR:   >316  >100  >31.6  >10  >3.2    >0 bad=0         COMMENT
L1 & L2:      9     8     7     6     5     4     1         COMMENT
                                                            COMMENT
This data is provided as a public service by NASA/JPL.      COMMENT
No warranty is expressed or implied regarding suitability   COMMENT
for use.  For further information, contact:                 COMMENT
Dave Stowers, NASA/JPL m/s 238-600                          COMMENT
4800 Oak Grove Drive, Pasadena CA 91109 USA                 COMMENT
                                                            COMMENT
Forced Modulo Decimation to 30 seconds                      COMMENT
CHPI                                                        MARKER NAME
41609M003                                                   MARKER NUMBER
GGN                 JPL                                     OBSERVER / AGENCY
ZR220024515         ASHTECH UZ-12       CQ00                REC # / TYPE / VERS
CR620004602         ASH701945C_M    NONE                    ANT # / TYPE
  4164613.8900 -4162456.9100 -2445028.7600                  APPROX POSITION XYZ
        0.0792        0.0000        0.0000                  ANTENNA: DELTA H/E/N
     1     1                                                WAVELENGTH FACT L1/2
     7    L1    L2    P1    P2    C1    S1    S2            # / TYPES OF OBSERV
    30.0000                                                 INTERVAL
teqc windowed: start @ 2011 Oct  1 00:10:00.000             COMMENT
teqc windowed:  end  @ 2011 Oct  1 00:20:00.000             COMMENT
  2011    10     1     0    10    0.0000000     GPS         TIME OF FIRST OBS
                                                            END OF HEADER
 11 10  1  0 10  0.0000000  0  8G15G17G04G09G28G26G02G12
 113873398.20547  88732496.28047  21669403.4264   21669408.3714   21669403.2604
        54.000          48.000
 110384392.16647  86013800.05047  21005461.6904   21005463.8414   21005461.5374
        55.000          49.000
 117908585.61847  91876805.39047  22437265.3834   22437271.4174   22437264.9764
        51.000          44.000
 125065105.97447  97453293.76947  23799126.6504   23799130.1344   23799127.0614
        48.000          41.000
 122972128.14247  95822437.07747  23400819.1564   23400820.8604   23400819.9214
        46.000          38.000
 110544566.79447  86138593.55747  21035954.7364   21035961.2924   21035954.6894
        55.000          49.000
 114824379.60047 107265705.19547  23753324.4244   23753334.7264   23753324.4084
        49.000          40.000
 119978294.68257 111281705.52057  24734109.1515   24734129.2435   24734108.9655
        42.000          37.000
 11 10  1  0 10 30.0000000  0  8G15G17G04G09G28G26G02G12
 113873964.44947  88732937.45947  21669511.1294   21669516.3134   21669510.7424
        54.000          48.000
 110452486.90347  86066860.90247  21018419.7004   21018421.8314   21018419.4764
        55.000          49.000
 117854034.50647  91834298.24447  22426884.6714   22426889.9574   22426884.5174
        51.000          44.000
 124978331.88547  97385677.61947  23782613.7474   23782617.4824   23782613.7304
        47.000          42.000
 123035702.88447  95871975.87447  23412917.0594   23412918.8014   23412917.5404
        45.000          39.000
 110593479.63647  86176707.35847  21045262.6604   21045269.1904   21045262.6974
        55.000          48.000
 134726329.91957  87189300.68457  23734666.3495   23734677.7005   23734666.0405
        42.000          38.000
 139928078.11557  91242572.40357  24724555.5035   24724576.3155   24724555.6965
        43.000          37.000
 11 10  1  0 11  0.0000000  0  6G15G17G04G09G28G26
 113875058.42447  88733789.85047  21669719.1754   21669724.4374   21669718.8844
        54.000          48.000
 110520935.87247  86120197.78247  21031445.1804   21031447.1884   21031444.9844
        55.000          49.000
 117799714.10747  91791970.85947  22416547.3994   22416553.3804   22416547.3534
        51.000          44.000
 124891508.99047  97318023.42547  23766091.7954   23766095.5964   23766091.7654
        47.000          41.000
 123099222.97247  95921472.05347  23425003.6584   23425006.5304   23425004.5604
        45.000          39.000
 110642867.33247  86215191.17247  21054660.9984   21054667.4724   21054660.9954
        55.000          49.000
 11 10  1  0 11 30.0000000  0  7G15G17G04G09G28G26G02
 113876709.86547  88735076.62247  21670033.6814   21670038.6854   21670033.6254
        54.000          48.000
 110589766.68947  86173832.21247  21044543.3354   21044545.2544   21044543.2794
        55.000          49.000
 117745657.14847  91749848.74847  22406260.7914   22406266.1994   22406260.7834
        51.000          45.000
 124804669.38347  97250356.23847  23749566.5174   23749570.7534   23749566.9354
        47.000          41.000
 123162718.60747  95970949.19547  23437086.9184   23437089.4334   23437087.3884
        46.000          39.000
 110692758.08547  86254066.97647  21064154.9304   21064161.4534   21064155.0774
        55.000          49.000
 114529959.27257 107036278.21957  23697303.4125   23697316.4165   23697301.9525
        40.000          39.000
 11 10  1  0 12  0.0000000  0  7G15G17G04G09G28G26G12
 113878906.86347  88736788.50747  21670451.6194   21670456.7744   21670451.2674
        54.000          48.000
 110658965.41347  86227753.31247  21057711.2814   21057713.3604   21057711.1654
        55.000          49.000
 117691854.91047  91707925.13847  22396022.3204   22396028.0614   22396022.6694
        51.000          45.000
 124717803.70347  97182668.70847  23733036.4754   23733040.8574   23733036.6614
        47.000          41.000
 123226178.81347  96020398.71047  23449163.2204   23449165.3514   23449163.7334
        46.000          39.000
 110743138.32347  86293324.19747  21073742.0984   21073748.6564   21073742.0614
        55.000          49.000
 119777639.17457 111125349.04557  24695926.9495   24695947.4445   24695926.6495
        44.000          37.000
 11 10  1  0 12 30.0000000  0  7G15G17G04G09G28G26G12
 113881675.76547  88738946.03347  21670978.4624   21670983.7834   21670978.2234
        54.000          48.000
 110728556.37547  86281980.05247  21070953.9234   21070956.0444   21070953.8074
        55.000          49.000
 117638337.38847  91666223.36847  22385837.7974   22385843.5664   22385837.8904
        51.000          45.000
 124630940.75147  97114983.32347  23716506.8064   23716511.0774   23716506.8424
        47.000          41.000
 123289630.10447  96069841.28147  23461237.8504   23461239.2894   23461238.3654
        46.000          39.000
 110794032.80747  86332982.12447  21083426.9484   21083433.5934   21083426.9844
        55.000          49.000
 139727571.63957  91086333.62157  24686400.7245   24686421.6485   24686401.8095
        42.000          37.000
 11 10  1  0 13  0.0000000  0  7G15G17G04G09G28G26G12
 113884960.41047  88741505.43347  21671603.7454   21671608.9504   21671603.5814
        54.000          48.000
 110798481.85547  86336467.45747  21084260.3894   21084262.4594   21084260.2114
        55.000          49.000
 117585051.80847  91624702.32947  22375697.9714   22375703.5294   22375697.6384
        51.000          45.000
 124544027.36947  97047258.65247  23699967.5374   23699972.1234   23699967.7934
        47.000          42.000
 123353017.81247  96119234.31347  23473300.3964   23473302.0454   23473300.8064
        45.000          39.000
 110845384.41747  86372996.24547  21093199.1294   21093205.6124   21093199.2514
        55.000          48.000
 119677570.95557 111047379.80257  24676880.0225   24676899.0445   24676879.0725
        43.000          37.000
 11 10  1  0 13 30.0000000  0  7G15G17G04G09G28G26G02
 113888798.74047  88744496.26347  21672334.1134   21672339.4464   21672333.8314
        54.000          48.000
 110868777.67347  86391243.43947  21097637.2804   21097639.1884   21097637.3824
        55.000          49.000
 117532039.58847  91583394.29647  22365609.7544   22365615.3484   22365609.8374
        51.000          45.000
 124457104.05347  96979526.22147  23683427.0424   23683431.4574   23683427.2684
        47.000          42.000
 123416380.48547  96168607.82747  23485358.0974   23485359.3354   23485358.4164
        45.000          39.000
 110897229.00347  86413394.50547  21103064.7664   21103071.4464   21103064.6864
        55.000          48.000
 134136524.84257  86729707.49657  23622434.6355   23622447.3875   23622434.5425
        42.000          40.000
 11 10  1  0 14  0.0000000  0  8G15G17G04G09G28G26G02G12
 113893182.83047  88747912.36047  21673168.4124   21673173.6254   21673168.1674
        54.000          48.000
 110939433.73147  86446300.12347  21111082.7774   21111084.5654   21111082.5684
        55.000          49.000
 117479295.98147  91542295.56747  22355572.8994   22355578.3644   22355572.6524
        51.000          45.000
 124370165.38347  96911781.81247  23666883.4654   23666887.6354   23666884.1764
        47.000          42.000
 123479711.28647  96217956.51247  23497408.8954   23497410.7384   23497409.5884
        44.000          39.000
 110949557.43347  86454169.78047  21113022.8174   21113029.4014   21113022.8264
        55.000          48.000
 114038050.41357 106652982.72857  23603688.8555   23603699.4225   23603688.9085
        43.000          40.000
 139577615.20157  90969500.40157  24657853.2005   24657871.5085   24657852.4435
        44.000          37.000
 11 10  1  0 14 30.0000000  0  7G15G17G04G09G28G26G12
 113898115.75647  88751756.13747  21674106.9714   21674112.3574   21674106.6274
        54.000          48.000
 111010451.36247  86501638.55847  21124597.0424   21124598.7004   21124596.9134
        55.000          49.000
 117426827.62147  91501411.30247  22345588.4284   22345594.1324   22345588.3894
        52.000          45.000
 124283217.33547  96844030.12247  23650337.5154   23650341.9474   23650337.4484
        47.000          42.000
 123543014.07347  96267283.34647  23509454.4574   23509457.4234   23509454.5984
        44.000          38.000
 111002371.03147  86495323.11147  21123072.9174   21123079.5934   21123072.8794
        55.000          48.000
 139527683.63947  90930594.08847  24648350.2364   24648368.7754   24648349.9504
        41.000          37.000
 11 10  1  0 15  0.0000000  0  7G15G17G04G09G28G26G12
 113903601.71147  88756030.84047  21675151.2434   21675156.5494   21675151.1004
        54.000          48.000
 111081833.07547  86557260.68847  21138180.2584   21138182.2644   21138180.0824
        55.000          49.000
 117374642.03147  91460747.37947  22335657.9234   22335663.2404   22335657.6844
        52.000          45.000
 124196266.83947  96776276.52347  23633791.3484   23633795.5864   23633791.5194
        48.000          42.000
 123606294.09747  96316592.46647  23521496.2464   23521499.2584   23521496.9864
        45.000          38.000
 111055672.57247  86536856.65647  21133215.9414   21133222.5454   21133216.1804
        55.000          48.000
 139477792.83547  90891719.17047  24638855.9914   24638873.1824   24638855.8624
        45.000          38.000
 11 10  1  0 15 30.0000000  0  6G15G17G04G09G28G26
 113909631.89747  88760729.61747  21676298.8974   21676304.0864   21676298.7734
        54.000          48.000
 111153568.25947  86613158.25347  21151830.9244   21151833.0394   21151830.8484
        54.000          49.000
 117322734.18947  91420299.87547  22325780.0804   22325785.4274   22325779.8864
        51.000          45.000
 124109307.99947  96708516.41947  23617243.6004   23617247.7154   23617243.8544
        48.000          42.000
 123669543.38047  96365877.63347  23533532.8424   23533534.5544   23533533.4814
        44.000          38.000
 111109452.10147  86578762.65047  21143450.0874   21143456.7014   21143450.3674
        55.000          48.000
 11 10  1  0 16  0.0000000  0  6G15G17G04G09G28G26
 113916212.14847  88765857.01147  21677551.1824   21677556.3124   21677550.9864
        54.000          48.000
 111225660.87147  86669334.32647  21165549.5904   21165551.8104   21165549.3594
        54.000          49.000
 117271113.24647  91380075.90747  22315956.7644   22315962.2514   22315956.3954
        52.000          45.000
 124022349.69147  96640756.70847  23600696.1924   23600699.8154   23600696.2554
        48.000          42.000
 123732768.78647  96415144.21547  23545564.4804   23545565.6414   23545564.2614
        45.000          38.000
 111163713.75247  86621044.32647  21153775.6534   21153782.5154   21153775.6414
        55.000          48.000
 11 10  1  0 16 30.0000000  0  7G15G17G04G09G28G26G02
 113923328.19347  88771401.91247  21678905.1824   21678910.3694   21678904.9024
        54.000          48.000
 111298094.81147  86725776.37647  21179333.3474   21179335.4144   21179333.1404
        54.000          49.000
 117219768.53747  91340067.19647  22306185.9294   22306191.1484   22306185.8214
        52.000          45.000
 123935380.05747  96572988.19247  23584146.1684   23584149.7164   23584146.6794
        48.000          42.000
 123795957.38047  96464382.11547  23557588.9254   23557589.9224   23557589.9494
        45.000          38.000
 111218441.70147  86663689.34047  21164190.1774   21164197.0064   21164190.2664
        55.000          48.000
 133544926.87957  86268737.80257  23509845.4285   23509854.3475   23509844.1235
        46.000          39.000
 11 10  1  0 17  0.0000000  0  6G15G17G04G09G28G26
 113931027.91647  88777401.62247  21680370.5884   21680375.7074   21680370.4184
        54.000          48.000
 111370915.94947  86782520.14047  21193190.7904   21193192.6944   21193190.5854
        54.000          49.000
 117168751.40847  91300313.73647  22296477.7194   22296482.7464   22296477.6324
        52.000          45.000
 123848449.98647  96505250.50247  23567603.6094   23567607.8144   23567603.9254
        48.000          42.000
 123859158.02447  96513629.38547  23569615.3164   23569617.0174   23569615.9094
        44.000          38.000
 111273682.43847  86706733.93047  21174702.2084   21174708.9164   21174702.1474
        54.000          48.000
 11 10  1  0 17 30.0000000  0  8G15G17G04G09G28G26G02G12
 113939217.44247  88783782.99447  21681928.8954   21681934.1714   21681928.7194
        54.000          48.000
 111444028.96947  86839491.34647  21207103.7954   21207105.5364   21207103.7054
        54.000          49.000
 117117971.60447  91260745.20347  22286814.3654   22286819.8224   22286814.2614
        52.000          45.000
 123761468.66647  96437472.88547  23551051.5774   23551056.0494   23551051.7074
        48.000          42.000
 123922277.85947  96562813.68847  23581625.6284   23581628.6394   23581626.3104
        44.000          38.000
 111329340.52747  86750103.71847  21185293.6824   21185300.5314   21185293.6994
        54.000          48.000
 113347442.18957 106114854.21557  23472264.8855   23472273.6175   23472264.3625
        48.000          40.000
 119228822.57757 110697715.88057  24591479.6665   24591496.5665   24591480.6375
        44.000          37.000
 11 10  1  0 18  0.0000000  0  8G15G17G04G09G28G26G02G12
 113947929.04747  88790571.18047  21683586.6774   21683591.9124   21683586.5094
        54.000          48.000
 111517464.53047  86896713.88147  21221078.1734   21221079.8574   21221078.1244
        54.000          49.000
 117067465.16347  91221389.67047  22277203.3314   22277208.3154   22277203.2144
        52.000          45.000
 123674471.18447  96369682.66747  23534496.8484   23534500.7894   23534497.0114
        48.000          42.000
 123985350.61447  96611961.29547  23593627.9444   23593631.3784   23593628.3634
        42.000          38.000
 111385447.15447  86793823.01747  21195970.5504   21195977.4334   21195970.4524
        55.000          48.000
 133248608.10157  86037839.96757  23453457.7035   23453466.5895   23453457.1075
        47.000          40.000
 139179073.03057  90658945.64557  24582015.2935   24582033.0555   24582014.5475
        45.000          39.000
 11 10  1  0 18 30.0000000  0  8G15G17G04G09G28G26G02G12
 113957196.18747  88797792.26147  21685350.2114   21685355.5734   21685349.8804
        54.000          48.000
 111591254.25347  86954212.38047  21235119.7534   21235121.7764   21235119.6374
        54.000          49.000
 117017269.09547  91182275.99247  22267651.4164   22267656.4264   22267651.4284
        52.000          45.000
 123587494.14947  96301908.37647  23517946.0324   23517949.0764   23517946.5034
        49.000          42.000
 124048410.71147  96661099.04647  23605628.4234   23605630.8024   23605629.2614
        44.000          38.000
 111442034.24047  86837916.69347  21206738.7364   21206745.8074   21206738.9624
        54.000          48.000
 113149793.57257 105960850.35857  23434647.4015   23434654.1555   23434648.2325
        35.000          38.000
 119129432.05357 110620275.92757  24572559.0115   24572575.1935   24572558.3425
        43.000          39.000
 11 10  1  0 19  0.0000000  0  8G15G17G04G09G28G26G02G12
 113966995.39947  88805427.93647  21687214.9784   21687220.3614   21687214.7414
        54.000          48.000
 111665372.85347  87011967.15147  21249224.1944   21249226.0094   21249224.0154
        54.000          49.000
 116967363.10747  91143388.34747  22258154.2534   22258159.3924   22258154.2854
        51.000          45.000
 123500517.02147  96234134.01547  23501394.7324   23501397.8964   23501395.4234
        49.000          42.000
 124111435.87447  96710209.57347  23617622.4944   23617624.4914   23617623.0424
        44.000          38.000
 111499076.48947  86882365.03947  21217593.6574   21217600.7624   21217593.6964
        54.000          48.000
 133050892.56657  85883777.68257  23415832.4455   23415840.8935   23415832.9185
        49.000          41.000
 119079764.66547 110581574.90847  24563107.2484   24563123.1454   24563107.4114
        43.000          38.000
 11 10  1  0 19 30.0000000  0  7G15G17G04G09G28G26G12
 113977341.13947  88813489.46847  21689183.9584   21689189.1064   21689183.9064
        54.000          48.000
 111739833.23247  87069988.24647  21263393.3874   21263395.1834   21263393.1934
        54.000          48.000
 116917765.58947  91104741.07447  22248716.0334   22248720.8994   22248715.9794
        52.000          45.000
 123413557.41547  96166373.30347  23484846.5934   23484850.5194   23484847.0344
        49.000          42.000
 124174441.64847  96759304.97247  23629611.9134   23629613.4814   23629612.8894
        43.000          38.000
 111556587.17847  86927178.41147  21228537.8134   21228544.8404   21228537.8624
        54.000          48.000
 119030133.54847 110542902.40947  24553662.1114   24553677.6894   24553662.1584
        45.000          40.000
 11 10  1  0 20  0.0000000  0  7G15G17G04G09G28G26G12
 113988222.55847  88821968.41447  21691254.5114   21691259.9984   21691254.0444
        53.000          48.000
 111814622.39247  87128265.53247  21277625.3414   21277627.0364   21277625.2484
        54.000          48.000
 116868468.83347  91066328.16847  22239334.9734   22239340.1744   22239335.0514
        51.000          45.000
 123326607.08747  96098619.83047  23468300.1924   23468304.1904   23468300.7374
        48.000          42.000
 124237418.51547  96808377.86747  23641596.0644   23641597.0784   23641596.3464
        43.000          37.000
 111614553.78247  86972347.03647  21239568.6234   21239575.7204   21239568.5474
        54.000          48.000
 118980527.98247 110504249.41547  24544221.9804   24544237.5474   24544222.0364
        43.000          40.000
