     2.11           OBSERVATION DATA    M (MIXED)           RINEX VERSION / TYPE
teqc  2016Apr1                          20160930 07:51:16UTCPGM / RUN BY / DATE
Linux 2.4.20-8|Pentium IV|gcc|Linux|486/DX+                 COMMENT
teqc  2016Apr1                          20160816 03:37:44UTCCOMMENT
teqc  2009Mar23                         20111001 01:05:02UTCCOMMENT
Linux 2.4.20-8|Pentium IV|gcc -static|Linux|486/DX+         COMMENT
BIT 2 OF LLI FLAGS DATA COLLECTED UNDER A/S CONDITION       COMMENT
RINEXED from Topcon TPS-binary: ken.macleod@nrcan.gc.ca     COMMENT
Forced Modulo Decimation to 30 seconds                      COMMENT
 SNR is mapped to RINEX snr flag value [0-9]                COMMENT
  L1 & L2: min(max(int(snr_dBHz/6), 0), 9)                  COMMENT
pseudorange smoothing corrections not applied               COMMENT
VALD CACS-GSD 932051 VAL D'OR QC CANADA                     MARKER NAME
40156M001                                                   MARKER NUMBER
OPERATOR            NRCan/GEODETIC SURVEY OF CANADA         OBSERVER / AGENCY
401-01567           TPS NETG3           3.5 Mar,16,2011 p1  REC # / TYPE / VERS
383-0466            TPSCR.G3        NONE                    ANT # / TYPE
   919075.8300 -4167766.2300  4724323.5300                  APPROX POSITION XYZ
        0.1000        0.0000        0.0000                  ANTENNA: DELTA H/E/N
     1     1                                                WAVELENGTH FACT L1/2
     8    L1    L2    C1    C2    P1    P2    S1    S2      # / TYPES OF OBSERV
    30.0000                                                 INTERVAL
teqc windowed: start @ 2011 Oct  1 00:10:00.000             COMMENT
teqc windowed:  end  @ 2011 Oct  1 00:20:00.000             COMMENT
  2011    10     1     0    10    0.0000000     GPS         TIME OF FIRST OBS
    15                                                      LEAP SECONDS
                                                            END OF HEADER
 11 10  1  0 10  0.0000000  0 16G07G10G30R11G05G26G15G29R19R17G04G02
                                R18R10R02G25
 132638604.11746 103354755.89145  25240285.783    25240284.148    25240285.997
  25240284.037          37.000          33.000
 120729755.74447  94075151.80144  22974098.405                    22974096.642
  22974097.025          43.000          29.000
 126252154.31547  98378307.87343  24024976.016                    24024974.509
  24024978.979          42.000          23.000
 126440408.861 6  98342544.929 5  23661597.846                    23661596.961
  23661595.188          39.000          30.000
 106338720.19449  82861341.09549  20235560.308    20235559.442    20235560.042
  20235559.216          55.000          55.000
 119099196.20647  92804564.42745  22663813.571                    22663812.547
  22663813.558          47.000          31.000
 130333484.66146 101558561.20945  24801636.032    24801637.791    24801635.457
  24801636.581          40.000          32.000
 112038689.34248  87302898.07148  21320238.365    21320238.496    21320237.949
  21320237.773          50.000          48.000
 119699080.917 8  93099284.531 6  22376467.199                    22376466.184
  22376464.569          48.000          41.000
 111513244.743 8  86732542.409 6  20838906.178                    20838905.375
  20838904.236          50.000          41.000
 130519812.66346 101703752.32542  24837075.712                    24837075.273
  24837079.231          39.000          17.000
 109785567.94048  85547235.92547  20891471.367                    20891470.373
  20891467.918          52.000          42.000
 103238258.620 9  80296445.644 8  19339985.431                    19339984.848
  19339983.774          55.000          51.000
 127952525.583 6  99518626.029 4  24003569.148                    24003570.945
  24003575.374          40.000          28.000
 108219538.433 9  84170764.640 8  20280285.968                    20280285.324
  20280282.961          54.000          49.000
 127632639.94847  99454017.76146  24287677.882    24287682.950    24287677.250
  24287682.691          45.000          39.000
 11 10  1  0 10 30.0000000  0 16G07G10G30R11G05G26G15G29R19R17G04G02
                                R18R10R02G25
 132583668.59146 103311949.15845  25229832.512    25229830.951    25229831.353
  25229829.152          39.000          31.000
 120829594.37547  94152948.16744  22993096.611                    22993095.581
  22993097.053          42.000          28.000
 126307974.47447  98421804.03743  24035599.367                    24035597.651
  24035599.699          42.000          23.000
 126398538.615 6  98309979.120 5  23653761.487                    23653760.898
  23653760.608          39.000          31.000
 106345707.51149  82866785.76449  20236890.166    20236888.994    20236889.689
  20236888.831          55.000          56.000
 118985015.75647  92715592.70045  22642085.781                    22642085.289
  22642086.204          47.000          31.000
 130216906.67846 101467721.34745  24779451.937    24779453.554    24779450.646
  24779452.209          38.000          33.000
 111993439.29048  87267638.32748  21311627.681    21311627.464    21311627.116
  21311627.270          51.000          49.000
 119581479.531 8  93007816.938 6  22354482.135                    22354481.311
  22354480.083          48.000          41.000
 111611906.097 8  86809279.027 6  20857343.676                    20857343.432
  20857341.026          49.000          41.000
 130620028.68546 101781842.62842  24856145.882                    24856145.013
  24856150.669          37.000          17.000
 109837685.63648  85587847.10247  20901389.122                    20901388.215
  20901385.978          51.000          42.000
 103217948.353 9  80280648.807 8  19336180.253                    19336179.567
  19336178.740          54.000          51.000
 128002657.291 6  99557617.016 4  24012972.763                    24012974.228
  24012976.606          39.000          28.000
 108297015.169 9  84231024.314 8  20294804.877                    20294804.755
  20294802.682          55.000          49.000
 127717984.25547  99520519.74946  24303917.961    24303923.315    24303917.221
  24303922.426          43.000          39.000
 11 10  1  0 11  0.0000000  0 16G07G10G30R11G05G26G15G29R19R17G04G02
                                R18R10R02G25
 132529120.54046 103269444.30445  25219452.968    25219447.266    25219452.179
  25219448.778          40.000          30.000
 120929580.72947  94230859.63144  23012123.572                    23012121.326
  23012123.802          46.000          28.000
 126364250.81047  98465655.71143  24046308.190                    24046306.391
  24046310.568          42.000          23.000
 126357368.651 6  98277957.976 5  23646057.938                    23646056.889
  23646055.589          40.000          31.000
 106353153.29749  82872587.67449  20238306.976    20238305.753    20238306.697
  20238305.468          54.000          55.000
 118871118.60347  92626841.80945  22620411.907                    22620411.035
  22620412.411          45.000          31.000
 130100333.18646 101376884.98945  24757268.220    24757270.588    24757267.275
  24757269.459          40.000          33.000
 111948701.59248  87232777.82548  21303114.128    21303113.948    21303113.743
  21303113.984          51.000          49.000
 119464118.594 8  92916536.331 6  22332542.759                    22332542.369
  22332543.104          49.000          40.000
 111711051.344 8  86886391.971 6  20875871.219                    20875870.184
  20875868.490          49.000          41.000
 130720298.04246 101859974.52642  24875226.446                    24875225.547
  24875228.046          37.000          14.000
 109890151.34148  85628729.46647  20911372.803                    20911372.111
  20911369.576          53.000          43.000
 103198352.784 9  80265407.848 8  19332509.704                    19332509.337
  19332507.654          56.000          51.000
 128053469.541 6  99597137.406 4  24022503.264                    24022502.444
  24022510.909          40.000          28.000
 108374905.800 9  84291605.924 8  20309401.826                    20309401.153
  20309398.887          55.000          49.000
 127803537.50747  99587184.63246  24320197.381    24320201.963    24320196.858
  24320203.181          43.000          39.000
 11 10  1  0 11 30.0000000  0 16G07G10G30R11G05G26G15G29R19R17G04G02
                                R18R10R02G25
 132474964.02146 103227244.57345  25209145.941    25209142.289    25209145.653
  25209143.371          39.000          31.000
 121029714.18947  94308885.75744  23031177.250                    23031175.279
  23031178.023          44.000          28.000
 126420982.29447  98509862.09643  24057104.300                    24057101.686
  24057105.410          42.000          22.000
 126316902.828 6  98246484.510 5  23638485.100                    23638483.969
  23638482.504          39.000          30.000
 106361058.31848  82878747.46749  20239811.176    20239809.906    20239810.807
  20239809.626          53.000          55.000
 118757510.13047  92538315.81045  22598792.256                    22598791.888
  22598792.902          45.000          31.000
 129983768.70446 101286055.67045  24735086.756    24735088.604    24735086.743
  24735088.377          39.000          33.000
 111904479.78348  87198319.30748  21294699.208    21294698.739    21294698.480
  21294698.405          51.000          48.000
 119347003.684 7  92825447.211 6  22310647.626                    22310646.835
  22310647.415          47.000          41.000
 111810680.005 8  86963880.877 6  20894488.720                    20894487.283
  20894485.823          49.000          41.000
 130820621.56946 101938148.65742  24894318.607                    24894317.288
  24894320.114          38.000          14.000
 109942966.93148  85669884.47347  20921423.082                    20921422.272
  20921420.385          51.000          42.000
 103179475.651 9  80250725.676 8  19328973.082                    19328972.667
  19328971.682          56.000          51.000
 128104961.140 6  99637186.030 4  24032164.635                    24032165.142
  24032171.172          39.000          28.000
 108453208.991 9  84352508.432 8  20324075.731                    20324075.459
  20324072.856          55.000          49.000
 127889298.37547  99654011.28046  24336516.437    24336521.063    24336516.093
  24336519.804          43.000          37.000
 11 10  1  0 12  0.0000000  0 16G07G10G30R11G05G26G15G29R19R17G04G02
                                R18R10R02G25
 132421200.82645 103185351.36445  25198912.553    25198913.370    25198912.383
  25198913.533          35.000          31.000
 121129992.04047  94387024.41744  23050259.911                    23050258.372
  23050259.840          43.000          28.000
 126478165.27546  98554420.28343  24067985.880                    24067984.227
  24067987.536          41.000          22.000
 126277142.345 6  98215559.502 5  23631044.810                    23631044.169
  23631045.591          39.000          32.000
 106369420.60749  82885263.58449  20241402.371    20241401.087    20241402.130
  20241400.928          55.000          55.000
 118644192.84647  92450016.71845  22577229.297                    22577227.567
  22577229.162          47.000          30.000
 129867214.92846 101195234.66345  24712905.815    24712908.521    24712906.715
  24712907.917          38.000          32.000
 111860774.71448  87164263.45648  21286382.066    21286381.833    21286381.589
  21286381.933          53.000          49.000
 119230137.305 8  92734551.453 6  22288801.385                    22288800.144
  22288798.490          48.000          41.000
 111910788.418 8  87041742.941 6  20913196.740                    20913195.056
  20913195.622          49.000          41.000
 130920997.41846 102016363.58842  24913420.184                    24913419.658
  24913420.760          39.000          14.000
 109996130.84548  85711310.90747  20931539.930                    20931539.060
  20931537.313          53.000          43.000
 103161317.241 9  80236602.506 8  19325571.361                    19325570.533
  19325569.663          55.000          50.000
 128157129.395 6  99677760.931 4  24041951.317                    24041952.185
  24041957.961          38.000          28.000
 108531920.977 9  84413728.873 8  20338826.685                    20338826.510
  20338823.796          54.000          48.000
 127975262.82347  99720996.51546  24352876.354    24352880.731    24352874.930
  24352880.437          43.000          36.000
 11 10  1  0 12 30.0000000  0 16G07G10G30R11G05G26G15G29R19R17G04G02
                                R18R10R02G25
 132367832.66846 103143766.00645  25188758.061    25188758.893    25188757.361
  25188758.104          36.000          33.000
 121230411.33947  94465273.24144  23069369.539                    23069367.745
  23069369.588          46.000          28.000
 126535796.49947  98599327.68543  24078952.652                    24078952.510
  24078954.850          43.000          22.000
 126238089.315 6  98185184.792 5  23623737.502                    23623737.098
  23623736.830          40.000          32.000
 106378238.51849  82892134.68249  20243080.230    20243079.260    20243079.956
  20243078.947          54.000          55.000
 118531169.68647  92361946.80145  22555721.753                    22555720.831
  22555721.793          47.000          31.000
 129750673.74146 101104423.45045  24690730.144    24690732.856    24690730.033
  24690731.008          38.000          32.000
 111817587.44948  87130611.06948  21278163.903    21278163.707    21278163.637
  21278163.705          52.000          49.000
 119113522.353 7  92643851.248 6  22267001.570                    22267000.684
  22266997.661          47.000          41.000
 112011373.048 8  87119975.366 6  20931993.362                    20931992.113
  20931991.887          49.000          41.000
 131021424.22946 102094618.20741  24932531.363                    24932528.691
  24932532.193          38.000          11.000
 110049642.01349  85753007.91847  20941722.910                    20941722.110
  20941719.815          54.000          43.000
 103143878.995 9  80223039.474 8  19322304.772                    19322304.425
  19322302.058          55.000          50.000
 128209970.693 6  99718859.290 4  24051868.436                    24051869.187
  24051870.616          41.000          28.000
 108611037.626 9  84475264.046 8  20353652.684                    20353652.642
  20353649.487          55.000          48.000
 128061427.04247  99788137.42746  24369273.065    24369277.545    24369271.903
  24369276.870          42.000          39.000
 11 10  1  0 13  0.0000000  0 17G07G21G10G30R11G05G26G15G29R19R17G04
                                G02R18R10R02G25
 132314861.76646 103102490.19045  25178678.532    25178678.548    25178678.003
  25178677.997          38.000          35.000
 135417648.80046                  25769119.073
                        37.000
 121330970.14447  94543630.79144  23088505.485                    23088503.448
  23088504.716          46.000          28.000
 126593872.89347  98644582.02643  24090004.195                    24090002.196
  24090005.332          42.000          21.000
 126199745.226 6  98155361.505 5  23616560.628                    23616560.264
  23616561.492          39.000          32.000
 106387511.09149  82899360.09249  20244844.808    20244843.572    20244844.603
  20244843.437          55.000          56.000
 118418443.97247  92274108.59245  22534270.289                    22534269.429
  22534270.268          47.000          31.000
 129634146.96446 101013623.47645  24668556.303    24668556.366    24668555.123
  24668556.203          40.000          32.000
 111774919.36349  87097363.25648  21270044.621    21270044.196    21270044.275
  21270043.828          54.000          49.000
 118997162.119 8  92553349.148 7  22245248.898                    22245248.306
  22245248.167          48.000          42.000
 112112431.259 8  87198576.133 6  20950878.761                    20950877.571
  20950876.866          49.000          41.000
 131121900.82446 102172911.62441  24951651.871                    24951651.373
  24951652.116          39.000          11.000
 110103499.70949  85794974.96147  20951971.894                    20951971.180
  20951968.535          54.000          42.000
 103127162.560 9  80210037.830 8  19319173.088                    19319172.730
  19319171.513          56.000          51.000
 128263481.447 6  99760478.391 4  24061906.030                    24061906.040
  24061909.353          39.000          28.000
 108690555.518 8  84537111.300 8  20368554.140                    20368553.273
  20368551.805          53.000          49.000
 128147787.53947  99855431.26146  24385706.415    24385711.184    24385705.122
  24385711.579          42.000          38.000
 11 10  1  0 13 30.0000000  0 17G07G21G10G30R11G05G26G15G29R19R17G04
                                G02R18R10R02G25
 132262291.43546 103061526.44245  25168674.291    25168674.829    25168674.610
  25168674.420          38.000          35.000
 135326425.37146                  25751759.871
                        37.000
 121431667.52547  94622096.33344  23107667.339                    23107666.625
  23107667.710          45.000          28.000
 126652392.94646  98690182.09243  24101140.016                    24101138.516
  24101141.927          41.000          21.000
 126162113.811 6  98126092.445 5  23609519.902                    23609518.065
  23609517.940          41.000          33.000
 106397238.47649  82906939.95649  20246696.060    20246694.801    20246695.716
  20246694.446          55.000          55.000
 118306020.29548  92186505.80545  22512876.914                    22512876.495
  22512876.591          48.000          32.000
 129517638.74446 100922837.96045  24646385.264    24646382.295    24646384.751
  24646385.279          41.000          31.000
 111732773.76048  87064522.56248  21262024.390    21262023.720    21262024.074
  21262023.749          52.000          48.000
 118881061.488 8  92463048.978 7  22223546.205                    22223546.612
  22223544.059          49.000          42.000
 112213961.328 8  87277543.931 6  20969851.964                    20969850.900
  20969850.363          49.000          41.000
 131222428.02746 102251244.52741  24970781.081                    24970780.017
  24970782.827          38.000          11.000
 110157704.94648  85837212.81647  20962286.543                    20962285.781
  20962283.259          53.000          42.000
 103111169.917 9  80197599.114 8  19316177.064                    19316176.226
  19316175.195          55.000          51.000
 128317660.927 6  99802617.561 4  24072073.362                    24072075.580
  24072076.576          40.000          28.000
 108770472.860 9  84599269.243 8  20383530.860                    20383530.546
  20383528.319          55.000          48.000
 128234342.42047  99922876.59146  24402177.826    24402182.970    24402176.556
  24402181.455          42.000          38.000
 11 10  1  0 14  0.0000000  0 17G07G21G10G30R11G05G26G15G29R19R17G04
                                G02R18R10R02G25
 132210123.94646 103020876.60545  25158748.285    25158746.768    25158748.213
  25158748.032          38.000          34.000
 135235158.32046                  25734392.583
                        36.000
 121532501.06047  94700668.00844  23126855.146                    23126853.811
  23126854.921          45.000          28.000
 126711353.40346  98736125.29743  24112359.664                    24112358.801
  24112361.553          41.000          21.000
 126125196.214 6  98097378.568 5  23602610.849                    23602610.109
  23602607.993          40.000          32.000
 106407418.80849  82914872.70349  20248633.059    20248632.039    20248632.763
  20248631.851          55.000          55.000
 118193901.81148  92099140.81845  22491541.523                    22491540.917
  22491541.252          48.000          32.000
 129401150.92946 100832068.31944  24624217.601    24624215.856    24624216.606
  24624218.524          40.000          29.000
 111691151.49149  87032089.66848  21254104.038    21254103.316    21254103.615
  21254103.159          54.000          49.000
 118765223.478 8  92372953.022 7  22201889.847                    22201890.625
  22201888.352          48.000          42.000
 112315961.625 8  87356877.448 6  20988912.482                    20988910.942
  20988910.770          48.000          41.000
 131323004.00145 102329615.40941  24989918.457                    24989917.632
  24989921.223          35.000          11.000
 110212256.63949  85879720.62547  20972667.667                    20972666.642
  20972664.669          54.000          42.000
 103095902.847 9  80185724.775 8  19313317.096                    19313316.833
  19313315.175          55.000          50.000
 128372505.951 6  99845274.459 4  24082360.427                    24082362.182
  24082362.830          40.000          27.000
 108850786.269 9  84661735.233 8  20398580.840                    20398580.172
  20398578.858          54.000          49.000
 128321087.99847  99990470.54446  24418684.943    24418689.660    24418683.208
  24418689.142          44.000          40.000
 11 10  1  0 14 30.0000000  0 17G07G21G10G30R11G05G26G15G29R19R17G04
                                G02R18R10R02G25
 132158362.94446 102980543.48945  25148898.760    25148894.842    25148898.302
  25148897.067          40.000          33.000
 135143849.67546                  25717017.985
                        38.000
 121633470.42047  94779345.50444  23146068.619                    23146066.861
  23146068.568          45.000          28.000
 126770752.90947  98782410.63743  24123663.345                    24123662.465
  24123665.125          43.000          21.000
 126088996.597 6  98069223.103 5  23595836.668                    23595834.941
  23595835.597          40.000          32.000
 106418052.86148  82923159.00649  20250656.437    20250655.643    20250656.136
  20250655.331          53.000          55.000
 118082093.33348  92012017.34245  22470265.061                    22470264.115
  22470264.897          48.000          32.000
 129284687.73346 100741317.87544  24602055.854    24602057.692    24602055.117
  24602056.995          41.000          29.000
 111650055.64148  87000066.97248  21246283.632    21246283.107    21246283.246
  21246282.840          52.000          49.000
 118649653.178 8  92283065.213 7  22180285.230                    22180284.464
  22180283.769          48.000          42.000
 112418428.928 8  87436574.181 6  21008061.204                    21008060.550
  21008058.527          48.000          41.000
 131423629.82145 102408025.12341  25009068.574                    25009066.692
  25009069.146          35.000           9.000
 110267155.90148  85922499.28147  20983114.281                    20983113.448
  20983111.265          52.000          42.000
 103081364.208 9  80174416.994 8  19310593.116                    19310592.764
  19310592.009          56.000          50.000
 128428015.079 6  99888448.021 4  24092774.201                    24092773.851
  24092776.160          40.000          27.000
 108931494.013 9  84724507.937 8  20413705.730                    20413704.964
  20413703.174          54.000          49.000
 128408022.52947 100058211.71246  24435227.994    24435233.349    24435226.809
  24435232.495          43.000          40.000
 11 10  1  0 15  0.0000000  0 17G07G21G10G30R11G05G26G15G29R19R17G04
                                G02R18R10R02G25
 132107007.95846 102940526.74045  25139125.169    25139122.115    25139126.565
  25139123.553          38.000          31.000
 135052496.74946                  25699633.787
                        37.000
 121734570.44247  94858124.82044  23165307.391                    23165305.897
  23165306.299          45.000          28.000
 126830585.60747  98829033.53743  24135049.359                    24135047.487
  24135050.862          43.000          21.000
 126053514.081 6  98041625.432 5  23589194.157                    23589192.481
  23589192.653          38.000          32.000
 106429136.76448  82931795.84649  20252765.699    20252764.720    20252765.306
  20252764.492          53.000          55.000
 117970595.44647  91925135.91945  22449047.020                    22449046.344
  22449047.505          45.000          32.000
 129168248.57446 100650586.14345  24579898.113    24579899.119    24579897.578
  24579899.639          41.000          31.000
 111609485.48048  86968453.90448  21238562.953    21238563.119    21238562.802
  21238562.634          52.000          49.000
 118534351.551 8  92193386.424 7  22158730.252                    22158728.261
  22158729.987          48.000          43.000
 112521358.923 8  87516630.804 6  21027296.506                    21027295.124
  21027294.376          48.000          41.000
 131524301.29746 102486470.41141  25028226.638                    25028225.297
  25028225.971          37.000           9.000
 110322399.37549  85965546.14247  20993626.746                    20993625.919
  20993623.694          54.000          42.000
 103067552.946 9  80163674.940 8  19308006.333                    19308005.717
  19308004.013          56.000          51.000
 128484181.828 6  99932133.005 4  24103309.767                    24103308.978
  24103314.898          39.000          27.000
 109012589.749 9  84787582.413 8  20428902.840                    20428901.926
  20428899.856          54.000          48.000
 128495139.91747 100126095.34746  24451805.008    24451811.579    24451805.166
  24451811.112          44.000          40.000
 11 10  1  0 15 30.0000000  0 17G07G21G10G30R11G05G26G15G29R19R17G04
                                G02R18R10R02G25
 132056064.23846 102900830.47545  25129429.799    25129431.099    25129430.156
  25129430.276          37.000          32.000
 134961103.78246                  25682241.351
                        37.000
 121835802.11747  94937006.68044  23184570.923                    23184568.743
  23184571.616          44.000          27.000
 126890852.12947  98875994.43543  24146517.239                    24146515.810
  24146518.133          42.000          21.000
 126018753.707 6  98014589.455 5  23582690.528                    23582691.048
  23582692.656          38.000          32.000
 106440672.49149  82940784.72249  20254960.998    20254959.871    20254960.724
  20254959.599          55.000          55.000
 117859415.22047  91838502.05745  22427890.004                    22427890.035
  22427889.994          47.000          32.000
 129051839.15546 100559877.58545  24557745.584    24557749.515    24557745.488
  24557746.759          40.000          31.000
 111569445.34148  86937253.78948  21230943.776    21230943.637    21230943.249
  21230943.459          53.000          49.000
 118419324.858 8  92103921.348 7  22137227.756                    22137226.196
  22137224.531          49.000          42.000
 112624752.480 8  87597047.994 6  21046618.579                    21046617.306
  21046616.829          50.000          41.000
 131625021.10246 102564953.3724   25047392.608                    25047391.563
  25047392.499          36.000           5.000
 110377989.81048  86008863.37147  21004205.065                    21004204.092
  21004202.316          52.000          42.000
 103054472.950 9  80153501.625 8  19305555.384                    19305554.287
  19305553.814          55.000          51.000
 128541007.687 6  99976330.675 4  24113969.262                    24113971.841
  24113969.607          37.000          27.000
 109094074.058 9  84850959.111 8  20444173.691                    20444173.034
  20444170.101          54.000          48.000
 128582440.19346 100194121.52246  24468418.057    24468424.162    24468417.040
  24468422.923          41.000          39.000
 11 10  1  0 16  0.0000000  0 17G07G21G10G30R11G05G26G15G29R19R17G04
                                G02R18R10R02G25
 132005534.42846 102861456.76945  25119815.270    25119815.064    25119814.160
  25119813.951          38.000          34.000
 134869671.32146                  25664843.415
                        38.000
 121937163.78547  95015989.81544  23203859.344                    23203858.050
  23203860.045          44.000          27.000
 126951549.65546  98923291.22643  24158067.063                    24158064.535
  24158069.755          40.000          21.000
 125984717.676 6  97988116.802 5  23576322.752                    23576321.071
  23576321.924          39.000          32.000
 106452659.78249  82950125.48149  20257242.088    20257241.179    20257241.918
  20257240.856          56.000          55.000
 117748556.07847  91752118.38345  22406795.024                    22406794.078
  22406794.410          47.000          32.000
 128935462.23146 100469194.35645  24535599.835    24535601.323    24535599.599
  24535600.740          38.000          31.000
 111529937.10748  86906468.14848  21223425.828    21223425.363    21223425.287
  21223425.112          52.000          49.000
 118304577.295 8  92014673.394 7  22115776.899                    22115776.610
  22115773.702          50.000          42.000
 112728605.516 8  87677822.519 6  21066026.036                    21066025.005
  21066024.607          49.000          41.000
 131725788.54945 102643473.4594   25066567.169                    25066567.608
  25066569.905          33.000           5.000
 110433926.84948  86052450.66347  21014849.461                    21014848.620
  21014846.887          52.000          42.000
 103042125.962 9  80143898.473 8  19303242.934                    19303242.632
  19303241.318          55.000          51.000
 128598490.163 5 100021039.279 4  24124751.423                    24124748.883
  24124755.525          32.000          25.000
 109175943.718 9  84914635.533 8  20459516.074                    20459515.394
  20459512.741          54.000          48.000
 128669920.41346 100262287.92946  24485065.565    24485069.555    24485064.509
  24485069.709          41.000          38.000
 11 10  1  0 16 30.0000000  0 17G07G21G10G30R11G05G26G15G29R19R17G04
                                G02R18R10R02G25
 131955418.25946 102822405.32045  25110279.520    25110274.780    25110278.463
  25110275.965          39.000          32.000
 134778197.43146                  25647435.737
                        38.000
 122038651.21847  95095070.99244  23223171.731                    23223169.407
  23223172.295          43.000          27.000
 127012672.74447  98970919.60143  24169699.358                    24169696.900
  24169700.956          42.000          20.000
 125951405.294 6  97962206.995 5  23570090.094                    23570090.115
  23570087.307          39.000          32.000
 106465094.27348  82959814.73849  20259608.470    20259607.248    20259608.279
  20259607.019          53.000          55.000
 117638018.90247  91665985.61745  22385759.987                    22385759.415
  22385759.950          47.000          33.000
 128819117.79446 100378536.43745  24513459.630    24513459.589    24513461.089
  24513460.896          37.000          31.000
 111490959.94748  86876096.38248  21216008.817    21216008.579    21216008.222
  21216008.077          51.000          49.000
 118190110.032 8  91925643.387 7  22094378.434                    22094378.227
  22094377.325          50.000          43.000
 112832914.209 8  87758951.464 6  21085518.551                    21085517.067
  21085516.845          49.000          41.000
 131826600.23545 102722028.0024   25085751.372                    25085750.140
  25085753.563          33.000           2.000
 110490207.55748  86096305.74447  21025559.678                    21025558.832
  21025556.697          53.000          42.000
 103030511.399 9  80134864.991 8  19301066.699                    19301066.054
  19301064.815          55.000          51.000
 128656622.673 6 100066253.493 4  24135657.920                    24135659.165
  24135664.504          37.000          25.000
 109258192.949 9  84978607.176 8  20474929.251                    20474929.105
  20474926.960          54.000          48.000
 128757574.69147 100330589.92546  24501745.545    24501749.685    24501744.206
  24501749.005          42.000          38.000
 11 10  1  0 17  0.0000000  0 17G07G21G10G30R11G05G26G15G29R19R17G04
                                G02R18R10R02G25
 131905718.47246 102783678.31145  25100817.902    25100819.399    25100818.823
  25100818.281          36.000          32.000
 134686683.08946                  25630022.045
                        39.000
 122140262.92247  95174249.00644  23242507.887                    23242505.800
  23242507.399          43.000          27.000
 127074219.01747  99018877.72243  24181411.438                    24181410.096
  24181412.745          42.000          20.000
 125918819.064 6  97936862.015 5  23563990.706                    23563989.080
  23563989.918          39.000          32.000
 106477975.69549  82969852.24349  20262059.318    20262058.318    20262059.207
  20262058.082          56.000          56.000
 117527807.79147  91580106.91145  22364786.975                    22364786.417
  22364787.864          47.000          32.000
 128702809.03346 100287906.30545  24491324.866    24491327.185    24491326.048
  24491328.056          36.000          30.000
 111452516.02948  86846140.16348  21208692.896    21208692.595    21208692.592
  21208692.270          51.000          49.000
 118075927.067 8  91836834.510 7  22073033.061                    22073031.736
  22073032.681          49.000          43.000
 112937675.253 8  87840432.229 6  21105095.056                    21105093.710
  21105094.097          48.000          41.000
 131927456.04444 102800616.9214   25104941.153                    25104941.079
  25104944.018          27.000           2.000
 110546831.66048  86140428.38246  21036334.922                    21036334.140
  21036332.045          53.000          41.000
 103019631.043 9  80126402.500 8  19299028.438                    19299028.100
  19299026.399          55.000          51.000
 128715402.444 6 100111970.951 4  24146686.318                    24146687.210
  24146691.321          38.000          27.000
 109340819.287 9  85042872.127 8  20490413.503                    20490413.560
  20490410.989          54.000          48.000
 128845400.49347 100399025.56046  24518459.544    24518463.089    24518458.769
  24518462.038          43.000          38.000
 11 10  1  0 17 30.0000000  0 16G07G21G10G30R11G05G26G15G29R19R17G02
                                R18R10R02G25
 131856439.21646 102745279.01845  25091442.496    25091439.958    25091441.969
  25091439.964          38.000          33.000
 134595130.50546 104879315.31442  25612599.742                    25612599.610
  25612598.612          40.000          12.000
 122241998.48447  95253523.51644  23261867.657                    23261865.808
  23261867.612          44.000          27.000
 127136187.35247  99067164.70743  24193202.950                    24193202.248
  24193204.418          42.000          20.000
 125886962.489 6  97912084.543 5  23558029.548                    23558028.075
  23558029.403          40.000          31.000
 106491304.77549  82980238.56549  20264595.957    20264594.879    20264595.777
  20264594.654          55.000          55.000
 117417927.70147  91494486.10645  22343877.828                    22343877.159
  22343878.295          46.000          32.000
 128586540.04146 100197307.17345  24469201.938    24469202.122    24469201.358
  24469202.561          38.000          30.000
 111414608.68548  86816602.02748  21201479.293    21201478.770    21201479.055
  21201478.783          51.000          49.000
 117962033.840 8  91748250.976 7  22051742.029                    22051741.020
  22051742.062          49.000          43.000
 113042888.727 8  87922264.881 6  21124757.004                    21124755.357
  21124755.274          48.000          41.000
 110603800.54648  86184819.66647  21047176.093                    21047175.063
  21047172.448          51.000          42.000
 103009487.684 9  80118513.230 8  19297128.561                    19297128.027
  19297126.570          56.000          51.000
 128774829.542 6 100158192.113 4  24157833.805                    24157835.150
  24157836.149          38.000          27.000
 109423821.390 9  85107429.350 8  20505968.173                    20505967.837
  20505965.034          54.000          48.000
 128933396.28946 100467593.68846  24535203.424    24535208.203    24535201.901
  24535207.024          41.000          37.000
 11 10  1  0 18  0.0000000  0 15G07G21G10G30R11G05G26G15G29R19R17G02
                                R18R02G25
 131807580.39446 102707207.32245  25082145.344    25082142.148    25082145.010
  25082141.817          39.000          32.000
 134503537.78846 104807944.48942  25595169.852                    25595168.240
  25595170.853          39.000          14.000
 122343853.55247  95332891.13444  23281250.192                    23281249.129
  23281248.328          43.000          27.000
 127198572.44746  99115776.46243  24205074.646                    24205073.350
  24205076.574          40.000          21.000
 125855835.015 6  97887874.132 5  23552204.700                    23552203.926
  23552203.353          40.000          31.000
 106505077.62049  82990970.66649  20267216.627    20267215.594    20267216.332
  20267215.329          55.000          55.000
 117308379.95347  91409124.28745  22323031.906                    22323030.980
  22323031.615          47.000          32.000
 128470310.73646 100106738.95344  24447084.554    24447085.647    24447083.052
  24447084.052          38.000          29.000
 111377236.86348  86787481.21948  21194367.648    21194367.054    21194367.296
  21194366.900          53.000          49.000
 117848431.631 8  91659893.805 7  22030504.365                    22030503.114
  22030503.085          49.000          42.000
 113148548.582 8  88004444.710 6  21144502.317                    21144500.427
  21144500.320          49.000          41.000
 110661111.41748  86229477.42346  21058081.910                    21058080.955
  21058078.494          52.000          41.000
 103000079.939 9  80111196.138 8  19295366.136                    19295365.339
  19295363.753          55.000          50.000
 109507193.468 9  85172274.329 8  20521591.841                    20521591.369
  20521588.601          54.000          48.000
 129021556.34747 100536289.83046  24551979.712    24551983.955    24551978.407
  24551984.109          42.000          38.000
 11 10  1  0 18 30.0000000  0 15G07G21G10G30R11G05G26G15G29R19R17G02
                                R18R02G25
 131759145.61246 102669465.94845  25072928.448    25072928.385    25072929.060
  25072926.342          37.000          32.000
 134411907.49946 104736544.36942  25577731.919                    25577730.864
  25577735.091          39.000          14.000
 122445828.07047  95412351.86644  23300655.584                    23300653.691
  23300654.507          43.000          27.000
 127261373.08346  99164712.00643  24217023.816                    24217023.331
  24217027.243          40.000          21.000
 125825440.066 6  97864233.340 5  23546516.240                    23546513.007
  23546512.072          39.000          31.000
 106519294.99049  83002049.15849  20269922.178    20269921.148    20269921.816
  20269920.756          55.000          54.000
 117199169.66348  91324025.40145  22302249.305                    22302248.416
  22302249.962          48.000          33.000
 128354125.48646 100016205.04444  24424975.025    24424975.592    24424973.695
  24424975.010          38.000          29.000
 111340403.64849  86758780.09348  21187358.307    21187357.997    21187358.131
  21187357.829          54.000          49.000
 117735125.894 8  91571767.255 7  22009324.290                    22009323.075
  22009321.432          49.000          42.000
 113254654.799 8  88086971.697 6  21164330.843                    21164330.170
  21164329.052          48.000          41.000
 110718765.48148  86274402.62347  21069052.694                    21069051.924
  21069050.275          53.000          42.000
 102991411.550 9  80104454.087 8  19293741.880                    19293741.164
  19293739.788          56.000          50.000
 109590934.134 9  85237405.999 8  20537284.719                    20537284.385
  20537282.004          54.000          48.000
 129109879.27347 100605112.89046  24568787.459    24568792.145    24568786.290
  24568792.071          42.000          38.000
 11 10  1  0 19  0.0000000  0 15G07G21G10G30R11G05G26G15G29R19R17G02
                                R18R02G25
 131711137.65146 102632057.21045  25063793.291    25063792.367    25063793.030
  25063791.574          40.000          33.000
 134320240.82946 104665115.92842  25560289.227                    25560288.105
  25560289.767          39.000          14.000
 122547920.63547  95491904.55544  23320082.617                    23320080.713
  23320081.464          42.000          26.000
 127324587.10246  99213969.63843  24229054.252                    24229052.192
  24229055.814          39.000          21.000
 125795780.283 6  97841164.420 5  23540966.663                    23540968.627
  23540962.990          40.000          31.000
 106533956.92349  83013474.06549  20272712.075    20272710.747    20272711.840
  20272710.550          55.000          55.000
 117090301.04248  91239192.78445  22281532.790                    22281531.401
  22281533.336          48.000          33.000
 128237987.84746  99925708.23144  24402875.125    24402875.480    24402874.531
  24402876.085          38.000          29.000
 111304111.60448  86730500.63548  21180452.505    21180451.863    21180451.983
  21180451.619          53.000          49.000
 117622120.968 8  91483874.634 7  21988197.718                    21988197.635
  21988196.246          49.000          42.000
 113361204.015 8  88169843.230 6  21184241.568                    21184241.158
  21184240.857          48.000          41.000
 110776762.59348  86319595.13446  21080089.181                    21080088.415
  21080086.420          50.000          41.000
 102983483.798 9  80098288.066 8  19292256.759                    19292256.556
  19292254.132          55.000          51.000
 109675041.251 9  85302822.691 8  20553046.497                    20553046.377
  20553043.738          54.000          48.000
 129198362.63647 100674060.98846  24585624.120    24585629.495    24585623.907
  24585627.754          42.000          37.000
 11 10  1  0 19 30.0000000  0 15G07G21G10G30R11G05G26G15G29R19R17G02
                                R18R02G25
 131663558.64546 102594982.68645  25054738.936    25054738.254    25054738.857
  25054738.551          40.000          34.000
 134228537.45246 104593658.84542  25542836.834                    25542835.506
  25542840.225          37.000          15.000
 122650128.58447  95571547.16544  23339532.470                    23339530.764
  23339532.114          44.000          25.000
 127388210.61346  99263546.37143  24241162.193                    24241161.191
  24241163.728          40.000          21.000
 125766856.829 6  97818668.254 5  23535552.836                    23535547.112
  23535548.899          39.000          31.000
 106549060.93948  83025243.44649  20275586.421    20275585.166    20275586.171
  20275584.957          53.000          55.000
 116981776.75148  91154628.47345  22260881.078                    22260880.573
  22260881.414          48.000          34.000
 128121899.33246  99835249.71145  24380782.817    24380783.551    24380782.633
  24380785.019          37.000          30.000
 111268361.15148  86702643.20048  21173649.224    21173648.819    21173648.706
  21173648.488          51.000          49.000
 117509419.596 8  91396218.104 7  21967130.439                    21967129.395
  21967128.510          50.000          42.000
 113468193.263 8  88253057.046 6  21204235.509                    21204233.743
  21204233.141          48.000          40.000
 110835101.77348  86365054.18846  21091191.067                    21091189.916
  21091187.837          52.000          41.000
 102976297.159 9  80092698.483 8  19290910.687                    19290910.594
  19290908.764          56.000          51.000
 109759510.837 8  85368521.300 8  20568875.676                    20568874.569
  20568873.831          53.000          48.000
 129287002.31847 100743130.88546  24602491.983    24602496.382    24602491.524
  24602495.787          43.000          37.000
 11 10  1  0 20  0.0000000  0 15G07G21G10G30R11G05G26G15G29R19R17G02
                                R18R02G25
 131616409.40946 102558242.98745  25045765.817    25045764.899    25045765.595
  25045766.512          38.000          34.000
 134136796.98945 104522172.88542  25525379.169                    25525378.228
  25525380.657          35.000          15.000
 122752449.12347  95651277.50544  23359003.115                    23359001.704
  23359002.162          44.000          26.000
 127452240.10846  99313439.45843  24253346.073                    24253344.867
  24253349.096          40.000          21.000
 125738670.287 6  97796745.246 5  23530279.207                    23530277.581
  23530278.906          40.000          32.000
 106564605.46249  83037356.08549  20278544.651    20278543.305    20278544.440
  20278542.844          54.000          55.000
 116873599.59547  91070334.61545  22240294.932                    22240294.845
  22240295.907          47.000          34.000
 128005862.14646  99744831.18444  24358702.427    24358702.766    24358700.971
  24358703.663          37.000          29.000
 111233153.38148  86675208.65448  21166949.324    21166948.811    21166948.867
  21166948.838          52.000          50.000
 117397025.192 8  91308800.400 7  21946118.384                    21946118.263
  21946116.701          50.000          42.000
 113575618.540 8  88336610.002 6  21224310.444                    21224307.640
  21224308.453          48.000          40.000
 110893781.78348  86410778.82146  21102357.536                    21102356.814
  21102354.335          51.000          41.000
 102969852.887 9  80087686.309 8  19289703.176                    19289702.328
  19289701.272          55.000          51.000
 109844339.006 9  85434498.806 8  20584772.698                    20584772.294
  20584769.838          54.000          48.000
 129375794.50847 100812319.61546  24619389.466    24619393.588    24619387.669
  24619393.185          43.000          37.000
