     2.11           OBSERVATION DATA    G (GPS)             RINEX VERSION / TYPE
teqc  2016Apr1                          20160930 07:51:16UTCPGM / RUN BY / DATE
Linux 2.4.20-8|Pentium IV|gcc|Linux|486/DX+                 COMMENT
teqc  2016Apr1                          20160816 03:13:38UTCCOMMENT
teqc  2010Mar17     gpsops              20111002 00:06:58UTCCOMMENT
Linux 2.4.21-27.ELsmp|Opteron|gcc -static|Linux x86_64|=+   COMMENT
     2.10           OBSERVATION DATA    GPS                 COMMENT
soc2rnx ver 1.20    gpsops               2-Oct-2011 00:06:57COMMENT
S1, if present, is the SNR for the C/A data stream on L1.   COMMENT
 SNR is mapped to RINEX snr flag value [1,4-9]              COMMENT
    SNR:   >316  >100  >31.6  >10  >3.2    >0 bad=0         COMMENT
L1 & L2:      9     8     7     6     5     4     1         COMMENT
                                                            COMMENT
This data is provided as a public service by NASA/JPL.      COMMENT
No warranty is expressed or implied regarding suitability   COMMENT
for use.  For further information, contact:                 COMMENT
Dave Stowers, NASA/JPL m/s 238-600                          COMMENT
4800 Oak Grove Drive, Pasadena CA 91109 USA                 COMMENT
                                                            COMMENT
Forced Modulo Decimation to 30 seconds                      COMMENT
MCM4                                                        MARKER NAME
66001M003                                                   MARKER NUMBER
GGN                 JPL                                     OBSERVER / AGENCY
ZR520021808         ASHTECH UZ-12       CQ00                REC # / TYPE / VERS
363                 AOAD/M_T        JPLA                    ANT # / TYPE
 -1311703.1720   310814.9820 -6213255.1600                  APPROX POSITION XYZ
        0.0814        0.0000        0.0000                  ANTENNA: DELTA H/E/N
     1     1                                                WAVELENGTH FACT L1/2
     7    L1    L2    P1    P2    C1    S1    S2            # / TYPES OF OBSERV
    30.0000                                                 INTERVAL
teqc windowed: start @ 2011 Oct  1 00:10:00.000             COMMENT
teqc windowed:  end  @ 2011 Oct  1 00:20:00.000             COMMENT
  2011    10     1     0    10    0.0000000     GPS         TIME OF FIRST OBS
                                                            END OF HEADER
 11 10  1  0 10  0.0000000  0 10G01G18G22G19G14G11G17G09G27G28
 116879825.88247  91075161.27647  22241512.3014   22241519.3814   22241513.4384
        50.000          46.000
 117832117.75847 109609420.90047  24325657.5344   24325664.2504   24325658.9824
        41.000          37.000
 112782664.18547  87882582.40847  21461837.0474   21461840.4144   21461838.7784
        53.000          48.000
 130624456.50947 101785278.71947  24857016.3854   24857021.0624   24857018.5584
        41.000          39.000
 111839044.69447  87147300.44147  21282267.6414   21282271.8754   21282268.7574
        53.000          48.000
 117648656.96247  91674262.45547  22387808.5604   22387811.7804   22387809.6784
        51.000          45.000
 123605176.61047  96315697.72047  23521302.6604   23521307.3344   23521303.4214
        44.000          41.000
 116271777.76247  90601363.87547  22125799.9814   22125805.2674   22125801.2134
        52.000          48.000
 103664944.17847  98570064.35247  21629736.3974   21629742.1254   21629737.7124
        49.000          45.000
 124879178.37247  97308432.49747  23763731.3034   23763736.8604   23763732.8274
        41.000          38.000
 11 10  1  0 10 30.0000000  0 10G01G18G22G19G14G11G17G09G27G28
 116823442.60347  91031226.25147  22230782.9874   22230790.0484   22230784.0164
        50.000          46.000
 117951156.35047 109702177.86247  24348309.7874   24348317.3024   24348311.2824
        42.000          38.000
 112847128.68347  87932814.58947  21474104.2034   21474107.5074   21474105.9574
        54.000          49.000
 130734820.93347 101871277.20147  24878017.8644   24878021.8124   24878019.9614
        42.000          39.000
 111775443.00947  87097740.75247  21270164.6094   21270168.8014   21270165.9284
        53.000          48.000
 117642359.86347  91669355.61347  22386610.2124   22386613.4134   22386611.3164
        52.000          46.000
 123526537.65947  96254420.81147  23506337.7944   23506342.1684   23506338.5944
        45.000          41.000
 116292291.57347  90617348.67247  22129703.6714   22129708.9414   22129704.9154
        53.000          47.000
 103724035.92447  98616109.77647  21640981.2864   21640987.0164   21640982.5444
        50.000          45.000
 124976998.33847  97384655.84647  23782345.9774   23782351.0874   23782347.5734
        44.000          39.000
 11 10  1  0 11  0.0000000  0 10G01G18G22G19G14G11G17G09G27G28
 116767603.79247  90987715.48047  22220157.0714   22220164.1924   22220158.2854
        51.000          47.000
 118070327.59847 109795037.99747  24370987.3824   24370996.1584   24370988.9964
        43.000          38.000
 112912102.45947  87983443.68547  21486468.1264   21486471.4084   21486469.8844
        54.000          49.000
 130845364.63847 101957415.04947  24899053.6254   24899059.2924   24899055.7104
        44.000          39.000
 111712394.59747  87048612.08347  21258166.8804   21258171.1004   21258168.0954
        54.000          48.000
 117636618.20447  91664881.54447  22385517.6634   22385520.8884   22385518.9064
        52.000          46.000
 123448373.47247  96193513.72547  23491464.0414   23491468.3714   23491464.6564
        45.000          41.000
 116313361.97447  90633766.94147  22133713.4474   22133718.7574   22133714.5484
        53.000          47.000
 103783794.02147  98662674.51647  21652352.9354   21652358.5254   21652354.0494
        50.000          45.000
 125075242.44647  97461209.82047  23801041.5704   23801045.8024   23801042.6124
        44.000          39.000
 11 10  1  0 11 30.0000000  0 10G01G18G22G19G14G11G17G09G27G28
 116712311.10547  90944630.69447  22209634.9224   22209641.9604   22209636.0924
        51.000          47.000
 118189628.44647 109887999.23047  24393690.6954   24393698.6774   24393691.9354
        45.000          37.000
 112977581.34347  88034466.25447  21498928.2914   21498931.5624   21498930.0214
        54.000          48.000
 130956082.66647 102043688.67347  24920123.0104   24920128.5664   24920124.9384
        42.000          39.000
 111649899.98647  86999915.05647  21246274.5254   21246278.7544   21246275.7494
        53.000          48.000
 117631430.35947  91660839.02347  22384530.4604   22384533.6734   22384531.7444
        52.000          45.000
 123370685.10747  96132977.29947  23476680.4784   23476684.1714   23476680.9824
        46.000          41.000
 116334987.62747  90650618.32347  22137828.4474   22137833.6854   22137829.5734
        53.000          47.000
 103844213.78747  98709754.60347  21663850.5814   21663856.2394   21663851.7714
        50.000          45.000
 125173905.58447  97538090.45547  23819816.1024   23819820.1164   23819817.0974
        43.000          38.000
 11 10  1  0 12  0.0000000  0 10G01G18G22G19G14G11G17G09G27G28
 116657559.71947  90901967.12247  22199216.2294   22199223.2284   22199217.3614
        50.000          46.000
 118309052.53147 109981056.73547  24416417.0394   24416423.1634   24416417.6814
        43.000          38.000
 113043559.35147  88085877.70047  21511483.4924   21511486.7644   21511485.2354
        53.000          48.000
 131066968.10947 102130092.64847  24941223.8744   24941229.0764   24941225.1884
        42.000          38.000
 111587956.26547  86951647.20847  21234487.0104   21234491.1704   21234488.3364
        53.000          48.000
 117626792.59547  91657225.19547  22383647.9374   22383651.0334   22383649.0524
        51.000          45.000
 123293471.00447  96072810.42947  23461986.9924   23461991.0404   23461987.6674
        45.000          41.000
 116357162.70347  90667897.88947  22142047.9284   22142053.2114   22142049.0284
        52.000          47.000
 103905289.26747  98757345.78547  21675472.9904   21675478.8434   21675474.2174
        49.000          45.000
 125272979.97247  97615291.24847  23838669.2054   23838674.2164   23838670.5654
        42.000          38.000
 11 10  1  0 12 30.0000000  0 10G01G18G22G19G14G11G17G09G27G28
 116603358.21047  90859732.31747  22188901.8964   22188908.9984   22188903.0844
        50.000          47.000
 118428600.65947 110074210.79247  24439166.4304   24439173.2854   24439167.2694
        44.000          38.000
 113110037.51647  88137678.56547  21524134.1344   21524137.4464   21524135.9304
        53.000          48.000
 131178021.74547 102216627.85247  24962356.9804   24962361.6524   24962358.8044
        42.000          39.000
 111526569.02947  86903813.01547  21222805.4494   21222809.6584   21222806.7544
        53.000          48.000
 117622708.18547  91654042.38547  22382870.8924   22382873.9644   22382872.0194
        52.000          45.000
 123216736.86547  96013017.34047  23447384.7414   23447389.9104   23447385.5734
        45.000          41.000
 116379889.17947  90685606.76247  22146372.8084   22146377.9604   22146373.8364
        52.000          47.000
 103967021.58147  98805448.82647  21687220.3154   21687226.0934   21687221.4054
        50.000          45.000
 125372465.71347  97692812.77847  23857600.5294   23857604.9834   23857602.2764
        42.000          38.000
 11 10  1  0 13  0.0000000  0 10G01G18G22G19G14G11G17G09G27G28
 116549703.58347  90817923.64547  22178691.6264   22178698.7494   22178692.8484
        50.000          46.000
 118548267.82547 110167457.58847  24461938.2154   24461945.0014   24461939.2694
        42.000          37.000
 113177012.38347  88189866.61747  21536879.0964   21536882.4924   21536880.8894
        53.000          48.000
 131289238.02047 102303289.71447  24983520.6524   24983526.0564   24983522.5364
        41.000          38.000
 111465737.46247  86856411.76447  21211229.5574   21211233.7484   21211230.9504
        53.000          47.000
 117619175.14047  91651289.19147  22382198.6724   22382201.9114   22382199.6574
        50.000          45.000
 123140483.68747  95953599.27647  23432874.3664   23432878.9814   23432875.0874
        45.000          41.000
 116403164.25147  90703743.13647  22150801.9254   22150807.1634   22150803.0524
        52.000          47.000
 104029405.70147  98854059.87547  21699091.6354   21699097.3194   21699092.8294
        48.000          44.000
 125472356.79147  97770649.96447  23876609.6134   23876614.1484   23876610.7094
        43.000          38.000
 11 10  1  0 13 30.0000000  0 10G01G18G22G19G14G11G17G09G27G28
 116496600.17247  90776544.44447  22168586.3034   22168593.2534   22168587.4534
        51.000          46.000
 118668054.46847 110260797.56147  24484732.4334   24484741.2024   24484734.4224
        42.000          38.000
 113244484.80647  88242442.57847  21549718.6844   21549722.0354   21549720.4104
        54.000          48.000
 131400616.79947 102390078.18447  25004715.1974   25004720.5994   25004717.1244
        43.000          38.000
 111405466.04047  86809446.97847  21199760.2594   21199764.5524   21199761.4154
        54.000          48.000
 117616196.32447  91648967.85947  22381631.8444   22381635.2544   22381633.1414
        52.000          45.000
 123064716.20647  95894559.65247  23418456.5954   23418461.0884   23418457.1814
        46.000          41.000
 116426990.24747  90722309.00547  22155335.6914   22155340.9884   22155336.7574
        53.000          47.000
 104092441.63147  98903178.76447  21711086.8574   21711092.7524   21711087.9134
        50.000          45.000
 125572652.57647  97848802.49747  23895695.1014   23895699.5224   23895696.6814
        43.000          38.000
 11 10  1  0 14  0.0000000  0 10G01G18G22G19G14G11G17G09G27G28
 116444046.26747  90735593.32347  22158585.7494   22158592.6444   22158586.9064
        50.000          46.000
 118787954.45847 110354226.09547  24507549.1504   24507556.7854   24507550.4514
        42.000          38.000
 113312447.53347  88295400.43347  21562651.6104   21562655.0224   21562653.3344
        53.000          48.000
 131512151.07247 102476987.97447  25025939.9784   25025944.8044   25025941.8344
        41.000          38.000
 111345752.95347  86762917.26047  21188397.3144   21188401.5654   21188398.5644
        53.000          48.000
 117613767.65047  91647075.05847  22381169.9674   22381173.4574   22381171.1814
        51.000          45.000
 122989432.69147  95835897.16847  23404130.3744   23404135.0944   23404131.1194
        44.000          41.000
 116451361.28147  90741299.46847  22159973.3044   22159978.5164   22159974.3864
        52.000          47.000
 104156123.04147  98952800.65447  21723205.0484   21723210.9164   21723206.3034
        48.000          44.000
 125673346.06847  97927264.84547  23914856.3694   23914861.5834   23914857.6294
        40.000          38.000
 11 10  1  0 14 30.0000000  0 10G01G18G22G19G14G11G17G09G27G28
 116392055.38347  90695080.93147  22148692.1994   22148699.2584   22148693.3724
        51.000          47.000
 118907976.64747 110447749.93547  24530388.6654   24530395.9944   24530389.9554
        43.000          38.000
 113380910.79147  88348748.48647  21575679.6994   21575683.1164   21575681.4754
        54.000          48.000
 131623848.84647 102564025.05647  25047195.0774   25047201.0424   25047197.3024
        41.000          38.000
 111286610.74147  86716832.37447  21177142.9524   21177147.2174   21177144.1464
        53.000          48.000
 117611900.19447  91645619.41347  22380814.8254   22380818.4684   22380816.0914
        51.000          45.000
 122914647.05347  95777622.62747  23389899.2014   23389903.7644   23389900.0714
        46.000          41.000
 116476288.51647  90760723.48447  22164716.6314   22164721.7554   22164717.9224
        53.000          47.000
 104220458.08547  99002931.62347  21735447.9044   21735453.6914   21735448.8804
        50.000          44.000
 125774445.06747  98006043.16247  23934094.7714   23934099.7964   23934096.3544
        43.000          38.000
 11 10  1  0 15  0.0000000  0 10G01G18G22G19G14G11G17G09G27G28
 116340602.36547  90654987.66547  22138901.0304   22138908.0114   22138902.1824
        51.000          47.000
 119028091.71447 110541345.75347  24553245.5584   24553254.8784   24553247.0634
        44.000          37.000
 113449845.61947  88402463.93047  21588797.5054   21588800.9474   21588799.2554
        54.000          48.000
 131735681.23447 102651167.08247  25068476.2484   25068481.9094   25068477.8684
        42.000          38.000
 111228014.63847  86671173.02347  21165992.5484   21165996.7524   21165993.7424
        54.000          48.000
 117610568.74347  91644581.83147  22380561.5874   22380565.3014   22380562.8694
        52.000          45.000
 122840336.08547  95719718.35847  23375757.8864   23375762.5564   23375758.4984
        45.000          41.000
 116501743.72447  90780558.70047  22169560.5434   22169565.8104   22169561.7724
        53.000          47.000
 104285418.70647  99053550.17247  21747809.5334   21747815.3254   21747810.7104
        49.000          44.000
 125875919.62547  98085114.14447  23953405.5274   23953409.5494   23953406.5624
        43.000          37.000
 11 10  1  0 15 30.0000000  0 10G01G18G22G19G14G11G17G09G27G28
 116289689.85347  90615315.54547  22129212.7974   22129219.7224   22129213.8594
        51.000          47.000
 119148298.58447 110635013.34047  24576120.7164   24576127.7524   24576121.8794
        42.000          37.000
 113519250.69447  88456545.78347  21602004.9384   21602008.3654   21602006.7134
        53.000          48.000
 131847645.77047 102738411.95347  25089782.1284   25089787.7354   25089784.3824
        41.000          38.000
 111169967.66747  86625941.56047  21154946.6464   21154950.9804   21154947.8384
        53.000          48.000
 117609773.20147  91643961.71447  22380410.4004   22380414.0384   22380411.6914
        51.000          45.000
 122766502.20647  95662185.57847  23361707.8814   23361712.4664   23361708.6914
        46.000          41.000
 116527726.45747  90800804.65247  22174505.2444   22174510.5084   22174506.3884
        53.000          47.000
 104351003.36747  99104655.24847  21760289.7864   21760295.7054   21760290.9034
        49.000          44.000
 125977766.86947  98164475.50547  23972786.3134   23972790.6094   23972787.5604
        42.000          38.000
 11 10  1  0 16  0.0000000  0 11G01G18G22G19G14G11G17G09G27G32G28
 116239406.00647  90576133.23647  22119644.0394   22119651.0634   22119645.1984
        51.000          47.000
 119268681.11547 110728817.57547  24599029.0064   24599038.2584   24599029.4144
        44.000          37.000
 113589210.39547  88511059.73747  21615317.9344   21615321.3924   21615319.5694
        53.000          48.000
 131959826.15247 102825825.06247  25111129.9284   25111135.3624   25111131.8684
        40.000          38.000
 111112557.62447  86581206.45347  21144021.8764   21144026.2144   21144023.0814
        54.000          48.000
 117609600.54047  91643827.08947  22380377.6924   22380381.2814   22380378.8074
        52.000          45.000
 122693234.35147  95605093.79947  23347765.5294   23347770.1474   23347766.2724
        46.000          42.000
 116554323.47647  90821529.44447  22179566.6014   22179571.8454   22179567.7384
        53.000          48.000
 104417295.29747  99156311.43147  21772904.6364   21772910.3884   21772905.7724
        49.000          44.000
 137337187.84157  89223765.43057  24231472.9505   24231479.8625   24231473.8975
        42.000          38.000
 126080070.44147  98244192.58947  23992253.6094   23992258.1544   23992255.2544
        43.000          38.000
 11 10  1  0 16 30.0000000  0 10G01G22G19G14G11G17G09G27G32G28
 116189694.80447  90537397.03747  22110184.5134   22110191.5564   22110185.6034
        51.000          47.000
 113659664.84947  88565959.40347  21628724.8714   21628728.2674   21628726.6384
        53.000          48.000
 132072161.77647 102913359.45247  25132506.7984   25132510.9934   25132508.3874
        42.000          38.000
 111055728.18847  86536923.83047  21133207.5734   21133211.8334   21133208.8474
        54.000          48.000
 117609992.39747  91644132.39447  22380452.1184   22380455.9684   22380453.3174
        52.000          45.000
 122620477.43647  95548400.37847  23333919.7634   23333924.4894   23333920.4684
        46.000          41.000
 116581474.22647  90842685.33947  22184733.6344   22184739.0374   22184734.7494
        52.000          47.000
 104484233.09747  99208470.49447  21785642.6624   21785648.5374   21785643.7454
        49.000          44.000
 137221269.97347  89133439.65447  24209414.1034   24209419.9064   24209414.9594
        44.000          38.000
 126182768.66747  98324217.12247  24011796.7624   24011801.6954   24011797.8554
        42.000          38.000
 11 10  1  0 17  0.0000000  0 10G01G22G19G14G11G17G09G27G32G28
 116140486.03747  90499052.46447  22100820.4964   22100827.4974   22100821.6464
        50.000          47.000
 113730540.40647  88621187.19147  21642212.0314   21642215.3344   21642213.7834
        53.000          48.000
 132184577.30247 103000955.72147  25153898.9104   25153904.8204   25153900.6934
        41.000          37.000
 110999409.50847  86493039.18147  21122490.4314   21122494.7134   21122491.6394
        54.000          48.000
 117610877.97347  91644822.67947  22380620.5264   22380624.0514   22380621.8014
        51.000          45.000
 122548161.63447  95492050.47847  23320158.3764   23320163.1494   23320159.1084
        46.000          41.000
 116609107.47147  90864217.42947  22189992.2924   22189997.6854   22189993.5134
        53.000          47.000
 104551744.12947  99261076.55147  21798489.5214   21798495.2244   21798490.7004
        49.000          44.000
 137105466.40447  89043202.99847  24187377.5654   24187383.7264   24187379.8814
        44.000          39.000
 126285786.78447  98404490.85547  24031400.2914   24031404.9324   24031401.6814
        42.000          38.000
 11 10  1  0 17 30.0000000  0 10G01G22G19G14G11G17G09G27G32G28
 116091847.12047  90461151.83347  22091564.9274   22091572.0134   22091565.8874
        49.000          46.000
 113801900.77747  88676792.87347  21655791.2714   21655794.6194   21655793.0384
        52.000          47.000
 132297136.67447 103088664.32047  25175317.8594   25175323.6354   25175319.6554
        40.000          37.000
 110943669.23347  86449605.17347  21111883.4084   21111887.7274   21111884.7334
        53.000          48.000
 117612322.79747  91645948.86247  22380895.3764   22380898.7974   22380896.5064
        50.000          45.000
 122476355.82247  95436098.03747  23306494.1944   23306498.2464   23306494.9714
        44.000          41.000
 116637287.60447  90886175.63847  22195355.0624   22195360.7284   22195356.0984
        51.000          47.000
 104619890.72147  99314177.69047  21811457.6534   21811463.3214   21811458.4954
        48.000          44.000
 136989845.39347  88953108.63547  24165376.4304   24165381.8334   24165377.7774
        41.000          38.000
 126389187.41647  98485062.90347  24051076.9884   24051081.3864   24051078.2214
        40.000          38.000
 11 10  1  0 18  0.0000000  0 10G01G22G19G14G11G17G09G27G32G28
 116043780.26247  90423696.78147  22082418.2724   22082425.5984   22082419.4164
        50.000          46.000
 113873744.19047  88732774.87247  21669462.4684   21669465.7834   21669464.3634
        53.000          47.000
 132409837.10347 103176483.03247  25196763.8384   25196769.3774   25196766.0704
        40.000          37.000
 110888509.28147  86406623.37347  21101386.8334   21101391.1364   21101388.1754
        53.000          48.000
 117614326.44847  91647510.22747  22381276.5384   22381279.8944   22381277.5514
        51.000          45.000
 122405062.72647  95380545.07447  23292927.4924   23292932.0894   23292928.2054
        46.000          41.000
 116666013.81247  90908559.42047  22200821.6694   22200827.2224   22200822.8414
        52.000          47.000
 104688671.02247  99367772.70847  21824546.0174   21824551.8244   21824547.1174
        47.000          44.000
 136874409.50047  88863158.52347  24143409.1214   24143415.3924   24143409.9534
        43.000          38.000
 126492967.00447  98565930.04447  24070825.1354   24070830.9234   24070826.5984
        41.000          37.000
 11 10  1  0 18 30.0000000  0  9G01G22G14G11G17G09G27G32G28
 115996269.97047  90386675.62847  22073377.5404   22073384.8554   22073378.7234
        51.000          47.000
 113946050.74147  88789117.71847  21683221.9444   21683225.2704   21683223.7284
        53.000          48.000
 110833913.89447  86364081.54247  21090997.7134   21091001.9104   21090998.9614
        54.000          48.000
 117616872.18047  91649494.26947  22381760.7244   22381764.0624   22381761.8984
        51.000          45.000
 122334267.12547  95325379.78247  23279455.7134   23279459.8444   23279456.8104
        45.000          42.000
 116695268.76947  90931355.89147  22206388.3494   22206393.9724   22206389.5654
        52.000          47.000
 104758065.04147  99421846.17347  21837751.0474   21837756.9584   21837752.0844
        49.000          44.000
 136759143.50847  88773340.77647  24121474.5864   24121480.5174   24121476.2144
        41.000          38.000
 126597104.74347  98647076.20347  24090642.2954   24090647.2224   24090643.5304
        42.000          38.000
 11 10  1  0 19  0.0000000  0 10G01G18G22G14G11G17G09G27G32G28
 115949330.73147  90350099.68047  22064445.2394   22064452.4284   22064446.4134
        51.000          47.000
 139992853.97857  91293095.98557  24736845.8285   24736854.9335   24736840.8575
        47.000          38.000
 114018831.35347  88845829.93947  21697071.4974   21697074.8414   21697073.4754
        53.000          48.000
 110779897.29547  86321990.68947  21080718.7154   21080722.9314   21080719.9104
        53.000          48.000
 117619972.03047  91651909.87347  22382350.6564   22382353.7494   22382351.7994
        51.000          45.000
 122263984.53447  95270614.34447  23266080.9614   23266085.5294   23266082.0624
        46.000          42.000
 116725062.54047  90954571.88047  22212057.8564   22212063.3944   22212058.9864
        52.000          47.000
 104828081.25347  99476403.84347  21851074.8384   21851080.8724   21851076.2524
        48.000          44.000
 136644063.21147  88683667.80547  24099576.0024   24099581.9124   24099577.5834
        40.000          38.000
 126701610.19947  98728508.94647  24110529.5464   24110533.7044   24110530.7034
        43.000          38.000
 11 10  1  0 19 30.0000000  0  9G01G22G14G11G17G09G27G32G28
 115903012.14347  90314007.29247  22055631.1114   22055638.2784   22055632.2364
        51.000          47.000
 114092132.11447  88902947.59747  21711020.1104   21711023.3064   21711021.8924
        54.000          48.000
 110726509.04147  86280389.45147  21070559.1444   21070563.4704   21070560.4334
        54.000          48.000
 117623674.26447  91654794.86147  22383054.8664   22383058.2634   22383055.9694
        52.000          45.000
 122194265.13147  95216287.79147  23252813.5884   23252818.2094   23252814.4624
        45.000          42.000
 116755442.52247  90978244.66447  22217838.9604   22217844.4814   22217840.1524
        53.000          47.000
 104898766.43147  99531482.91747  21864526.1804   21864532.0674   21864527.2464
        49.000          44.000
 136529218.43347  88594178.50747  24077721.5644   24077727.3074   24077722.8724
        43.000          39.000
 126806527.78147  98810262.80747  24130493.9094   24130499.1514   24130495.5674
        43.000          38.000
 11 10  1  0 20  0.0000000  0 10G01G18G22G14G11G17G09G27G32G28
 115857229.67347  90278332.17047  22046919.3524   22046926.7664   22046920.4944
        51.000          47.000
 120234890.10457 111481669.23857  24782924.1625   24782939.8645   24782925.0005
        42.000          38.000
 114165865.82647  88960402.49147  21725051.1564   21725054.3344   21725052.8464
        53.000          48.000
 110673666.43647  86239213.36747  21060503.6084   21060507.8684   21060504.9784
        54.000          49.000
 117627894.18147  91658083.20947  22383857.7024   22383861.0824   22383858.8744
        52.000          46.000
 122125026.20147  95162335.25147  23239637.9284   23239642.3074   23239638.7614
        47.000          42.000
 116786323.90347  91002308.59747  22223715.1414   22223720.4424   22223716.2644
        53.000          47.000
 104970034.15647  99587016.30647  21878087.6794   21878093.8974   21878089.0754
        49.000          44.000
 136414527.56447  88504809.13347  24055896.1374   24055902.2194   24055897.9024
        44.000          39.000
 126911770.01247  98892269.66647  24150521.2824   24150525.9234   24150522.9394
        43.000          38.000
