     2.11           OBSERVATION DATA    G (GPS)             RINEX VERSION / TYPE
teqc  2016Apr1                          20160930 07:51:16UTCPGM / RUN BY / DATE
Linux 2.4.20-8|Pentium IV|gcc|Linux|486/DX+                 COMMENT
teqc  2016Apr1                          20160816 03:19:06UTCCOMMENT
TEQC  2011AUG2                          20111001 01:02:15UTCCOMMENT
LINUX 2.4.20-8|PENTIUM IV|GCC -STATIC|LINUX|486/DX+         COMMENT
TEQC  2011AUG2                          20111001 00:16:15UTCCOMMENT
TEQC  2011AUG2                          20111001 00:16:05UTCCOMMENT
BIT 2 OF LLI FLAGS DATA COLLECTED UNDER A/S CONDITION       COMMENT
 SNR IS MAPPED TO RINEX SNR FLAG VALUE [0-9]                COMMENT
  L1 & L2: MIN(MAX(INT(SNR_DBHZ/6), 0), 9)                  COMMENT
PSEUDORANGE SMOOTHING CORRECTIONS NOT APPLIED               COMMENT
RIO2                                                        MARKER NAME
41507M006                                                   MARKER NUMBER
GFZ                 GFZ                                     OBSERVER / AGENCY
LP00785             ASHTECH Z-XII3      CC00                REC # / TYPE / VERS
12129               ASH700936C_M    SNOW                    ANT # / TYPE
  1429907.7834 -3495354.8119 -5122698.6553                  APPROX POSITION XYZ
        0.0350        0.0000        0.0000                  ANTENNA: DELTA H/E/N
     1     1                                                WAVELENGTH FACT L1/2
     7    L1    L2    C1    P1    P2    S1    S2            # / TYPES OF OBSERV
    30.0000                                                 INTERVAL
teqc windowed: start @ 2011 Oct  1 00:10:00.000             COMMENT
teqc windowed:  end  @ 2011 Oct  1 00:20:00.000             COMMENT
  2011    10     1     0    10    0.0000000     GPS         TIME OF FIRST OBS
                                                            END OF HEADER
 11 10  1  0 10  0.0000000  0  8G17G22G18G26G12G28G15G09
 -24643564.38748 -19164974.86647  21113995.0484   21113993.4724   21113998.8284
        49.3004         46.5004
  -6980966.26746  -5125198.16345  24248812.9464   24248810.4044   24248818.3694
        38.3004         35.9004
  -2293974.21946  -1755886.27045  24579705.9004   24579703.7954   24579714.9844
        36.4004         34.5004
 -13110989.80546 -10198446.01946  23325761.2924   23325759.5274   23325767.6314
        41.1004         38.6004
 -13623318.41647 -10579105.71946  23305767.9454   23305765.9654   23305773.1824
        42.5004         39.9004
  -5904623.71246  -4563111.89246  23458285.0264   23458283.2854   23458289.0674
        40.1004         37.6004
 -18858392.85747 -14658647.29347  21681424.6264   21681423.6234   21681429.6484
        47.9004         45.1004
 -24275832.66848 -18884150.14247  21133604.5224   21133602.9674   21133609.7424
        50.0004         47.0004
 11 10  1  0 10 30.0000000  0  8G17G22G18G26G12G28G15G09
 -24636705.25948 -19159630.09147  21115299.9564   21115298.4874   21115304.0984
        49.3004         46.3004
  -6961895.03146  -5110337.51646  24252441.8184   24252440.6624   24252447.3964
        38.3004         36.0004
  -2215347.63346  -1694618.87245  24594668.7644   24594666.2574   24594675.0784
        36.3004         34.6004
 -13006383.43246 -10116934.59846  23345666.1844   23345665.1914   23345672.5374
        41.1004         38.5004
 -13720536.82647 -10654860.27346  23287266.9864   23287266.4794   23287273.7124
        42.3004         39.7004
  -5792557.02246  -4475787.20846  23479611.1234   23479608.3774   23479615.7334
        40.3004         37.8004
 -18783249.82547 -14600094.30147  21695724.0674   21695722.6424   21695728.8964
        47.9004         44.9004
 -24319708.61748 -18918339.18447  21125255.1364   21125253.5214   21125260.3094
        50.0004         47.0004
 11 10  1  0 11  0.0000000  0  8G17G22G18G26G12G28G15G09
 -24629193.99948 -19153777.15147  21116729.4214   21116727.9424   21116733.5224
        49.3004         46.3004
  -6942271.90346  -5095046.78745  24256174.9084   24256172.8334   24256182.1204
        38.2004         35.9004
  -2136424.42946  -1633120.34645  24609687.0464   24609684.8314   24609692.1684
        36.1004         34.3004
 -12901548.31346 -10035244.92646  23365616.5454   23365615.2784   23365622.0924
        40.9004         38.5004
 -13817571.65047 -10730471.74846  23268802.2454   23268800.7524   23268808.5884
        42.7004         40.2004
  -5680370.53346  -4388369.14046  23500959.2894   23500958.1394   23500963.5254
        40.1004         37.4004
 -18707648.32747 -14541184.05847  21710110.3894   21710109.1434   21710115.9264
        47.7004         44.7004
 -24363271.17848 -18952284.02147  21116965.3324   21116963.6584   21116970.4664
        50.0004         47.0004
 11 10  1  0 11 30.0000000  0  8G17G22G18G26G12G28G15G09
 -24621029.40448 -19147415.12147  21118282.7164   21118281.4224   21118287.1484
        49.3004         46.3004
  -6922096.40446  -5079325.64346  24260015.2714   24260014.4054   24260020.5174
        38.3004         36.2004
  -2057205.62946  -1571391.48645  24624763.0134   24624759.7714   24624768.6184
        36.4004         34.6004
 -12796485.22446  -9953377.60146  23385608.2114   23385608.0224   23385615.4704
        40.8004         38.1004
 -13914420.17747 -10805938.07646  23250373.4164   23250372.2544   23250378.2864
        43.2004         40.6004
  -5568064.64846  -4300858.05246  23522329.8444   23522327.7394   23522334.9244
        39.9004         37.3004
 -18631588.91247 -14481916.99247  21724584.2334   21724582.8234   21724589.0744
        47.5004         44.7004
 -24406517.51748 -18985982.44947  21108735.8674   21108734.3994   21108741.0304
        50.0004         47.0004
 11 10  1  0 12  0.0000000  0  8G17G22G18G26G12G28G15G09
 -24612214.42548 -19140546.29947  21119960.3874   21119959.0024   21119964.7384
        49.1004         46.3004
  -6901371.98046  -5063176.75145  24263960.0144   24263956.9944   24263965.1244
        38.2004         35.9004
  -1977696.68245  -1509436.53645  24639890.7024   24639890.5204   24639897.3554
        35.9004         34.0004
 -12691199.13046  -9871336.51046  23405644.9594   23405642.8714   23405651.1414
        40.4004         37.8004
 -14011083.68047 -10881260.21746  23231978.3814   23231976.8364   23231983.8514
        43.4004         40.6004
  -5455643.65146  -4213257.26346  23543722.5774   23543721.3794   23543728.7274
        39.7004         37.1004
 -18555076.31847 -14422296.81047  21739144.1314   21739142.8644   21739148.9424
        47.7004         44.7004
 -24449448.76648 -19019435.35547  21100566.4584   21100564.8324   21100571.7114
        50.0004         47.2004
 11 10  1  0 12 30.0000000  0  8G17G22G18G26G12G28G15G09
 -24602747.40348 -19133169.39147  21121762.0084   21121760.4744   21121765.8954
        49.3004         46.3004
  -6880097.75446  -5046599.43045  24268007.8964   24268006.2634   24268012.5494
        38.0004         35.7004
  -1897898.22246  -1447255.99845  24655077.6614   24655074.5724   24655085.4274
        36.3004         34.5004
 -12585690.38046  -9789121.93746  23425722.3574   23425720.8234   23425729.2284
        40.1004         37.4004
 -14107558.80047 -10956435.57346  23213619.4384   23213617.9694   23213626.2004
        43.4004         40.6004
  -5343107.83946  -4125567.01846  23565137.6854   23565135.8824   23565142.8914
        39.7004         37.3004
 -18478110.69947 -14362323.62247  21753790.1504   21753788.8984   21753795.1994
        47.7004         44.9004
 -24492061.60848 -19052640.15647  21092457.3224   21092455.7984   21092462.8294
        50.0004         47.2004
 11 10  1  0 13  0.0000000  0  8G17G22G18G26G12G28G15G09
 -24592629.24048 -19125285.09747  21123687.6354   21123686.0544   21123691.3924
        49.3004         46.3004
  -6858274.99646  -5029594.70345  24272160.2734   24272158.1354   24272166.4294
        38.0004         35.7004
  -1817814.09146  -1384852.83045  24670315.8244   24670314.2834   24670323.7394
        36.8004         35.2004
 -12479961.66346  -9706735.94746  23445841.0264   23445840.2614   23445847.7504
        39.9004         37.4004
 -14203844.93247 -11031463.66446  23195297.0114   23195295.4114   23195302.7024
        43.0004         40.2004
  -5230459.32046  -4037788.94046  23586574.4914   23586571.7164   23586578.3804
        39.9004         37.4004
 -18400695.10647 -14301999.80647  21768522.2624   21768520.4264   21768526.8024
        47.7004         44.5004
 -24534355.17748 -19085596.16847  21084409.3884   21084407.7094   21084414.4874
        50.2004         47.2004
 11 10  1  0 13 30.0000000  0  8G17G22G18G26G12G28G15G09
 -24581860.59248 -19116893.93347  21125736.6624   21125735.3764   21125740.7834
        49.3004         46.3004
  -6835905.12846  -5012163.65146  24276416.0534   24276414.1234   24276423.9514
        38.2004         36.2004
  -1737447.33946  -1322229.44545  24685610.6114   24685607.1464   24685616.2764
        36.6004         34.6004
 -12374015.89346  -9624180.82046  23466003.3624   23466000.9294   23466008.5354
        39.6004         36.9004
 -14299940.95947 -11106343.61946  23177010.1654   23177008.3344   23177016.4674
        43.0004         40.4004
  -5117700.13746  -3949924.62346  23608031.9834   23608029.8134   23608036.1574
        39.7004         37.1004
 -18322831.79647 -14241327.12047  21783338.6144   21783337.2944   21783343.5344
        47.5004         44.5004
 -24576328.25548 -19118302.45747  21076421.9994   21076420.6134   21076427.2844
        50.2004         47.2004
 11 10  1  0 14  0.0000000  0  8G17G22G18G26G12G28G15G09
 -24570441.96948 -19107996.29547  21127909.3454   21127907.9144   21127913.4324
        49.3004         46.3004
  -6812989.39146  -4994307.22846  24280778.9864   24280776.0644   24280782.9184
        38.7004         36.4004
  -1656800.62846  -1259387.88045  24700955.4974   24700955.5424   24700963.8904
        36.3004         34.3004
 -12267854.96046  -9541458.04246  23486203.1514   23486203.4094   23486210.0734
        39.4004         36.9004
 -14395845.36547 -11181074.25246  23158760.0524   23158758.4744   23158766.3784
        43.4004         40.7004
  -5004831.75646  -3861975.19746  23629509.6504   23629507.8444   23629513.9574
        39.7004         37.3004
 -18244522.84347 -14180307.17347  21798240.5144   21798238.9964   21798245.1844
        47.5004         44.5004
 -24617979.43148 -19150757.90147  21068495.8914   21068494.2454   21068501.3384
        50.2004         47.2004
 11 10  1  0 14 30.0000000  0  9G17G22G18G26G12G28G15G09G11
 -24558374.40148 -19098592.98847  21130205.8294   21130204.4224   21130209.8924
        49.3004         46.3004
  -6789529.24446  -4976026.61046  24285242.9634   24285240.2654   24285246.7774
        38.5004         36.2004
  -1575877.50446  -1196330.94045  24716357.1184   24716352.4654   24716361.7934
        36.1004         34.3004
 -12161482.17846  -9458570.18246  23506446.0694   23506444.9284   23506453.3324
        39.4004         36.9004
 -14491557.69947 -11255655.22946  23140546.9454   23140545.3504   23140552.9744
        43.6004         40.9004
  -4891856.76846  -3773942.69746  23651008.0894   23651006.4494   23651011.3164
        39.6004         37.3004
 -18165771.16047 -14118942.24447  21813226.0274   21813224.7434   21813231.5804
        47.4004         44.4004
 -24659307.81348 -19182961.82247  21060631.6734   21060629.7504   21060636.8064
        50.2004         47.2004
  -1261613.61746   -983657.99545  25894187.7744                   25894196.1884
        36.1004         35.3004
 11 10  1  0 15  0.0000000  0  9G17G22G18G26G12G28G15G09G11
 -24545658.54748 -19088684.52847  21132625.2464   21132623.8714   21132629.5814
        49.1004         46.3004
  -6765526.13746  -4957322.91546  24289808.9464   24289807.9614   24289815.8124
        38.3004         36.0004
  -1494680.98645  -1133060.97945  24731806.5944   24731803.9154   24731815.2774
        35.7004         34.0004
 -12054900.13946  -9375519.28546  23526728.5854   23526727.0874   23526735.5074
        39.2004         36.7004
 -14587076.49947 -11330085.41446  23122370.5734   23122369.0854   23122376.0454
        43.9004         41.4004
  -4778777.25146  -3685828.75046  23672526.4864   23672524.4734   23672529.9914
        39.6004         37.1004
 -18086579.34147 -14057234.35747  21828296.2454   21828294.9894   21828301.2534
        47.4004         44.4004
 -24700312.37648 -19214913.42047  21052828.7444   21052827.0194   21052833.6924
        50.2004         47.2004
  -1206327.17546   -940577.49645  25904712.1094   25904709.5604   25904718.7014
        36.1004         34.0004
 11 10  1  0 15 30.0000000  0  9G17G22G18G26G12G28G15G09G11
 -24532290.85848 -19078268.14147  21135169.3574   21135168.0124   21135173.4954
        49.1004         46.3004
  -6740977.24446  -4938193.93846  24294481.4904   24294479.7984   24294488.1494
        38.3004         36.0004
  -1413210.06745  -1069577.19945  24747310.5064   24747308.1414   24747317.4364
        35.6004         33.8004
 -11948106.86446  -9292303.78246  23547049.6754   23547048.8164   23547057.9674
        39.2004         36.9004
 -14682396.24347 -11404360.48146  23104231.1504   23104230.5734   23104237.7024
        44.2004         41.6004
  -4665591.04046  -3597631.68146  23694064.7914   23694063.5014   23694069.9084
        39.7004         37.3004
 -18006945.59047 -13995182.10747  21843450.1474   21843448.2734   21843454.8364
        47.2004         44.2004
 -24740987.65748 -19246608.42947  21045088.3534   21045086.8094   21045093.4234
        50.2004         47.2004
  -1150667.22645   -897205.95745  25915303.1014   25915300.0504   25915307.2174
        35.7004         34.3004
 11 10  1  0 16  0.0000000  0  9G17G22G18G26G12G28G15G09G11
 -24518275.11948 -19067346.77747  21137836.3034   21137834.8434   21137840.6564
        49.1004         46.3004
  -6715886.82846  -4918642.98246  24299255.6924   24299253.0144   24299262.8464
        38.3004         36.0004
  -1331470.64545  -1005884.17745  24762865.9384   24762863.8914   24762871.4154
        35.4004         34.0004
 -11841108.06346  -9208928.12146  23567411.1664   23567409.5694   23567417.8884
        39.2004         36.9004
 -14777519.53447 -11478482.48646  23086130.6984   23086129.2184   23086135.6344
        44.2004         41.4004
  -4552303.06346  -3509355.32246  23715622.8394   23715622.0554   23715628.8294
        39.6004         36.9004
 -17926875.36747 -13932789.74847  21858686.5114   21858685.4464   21858691.8504
        47.0004         44.2004
 -24781335.18548 -19278048.04347  21037410.4564   21037408.7614   21037415.7054
        50.2004         47.2004
  -1094638.67345   -853547.19645  25925964.6264   25925963.8344   25925970.5924
        35.7004         33.6004
 11 10  1  0 16 30.0000000  0  9G17G22G18G26G12G28G15G09G11
 -24503615.21748 -19055923.47447  21140626.0594   21140624.5614   21140630.5184
        49.1004         46.3004
  -6690259.57846  -4898673.72746  24304132.4944   24304130.6304   24304137.1694
        38.2004         36.0004
  -1249469.02945   -941986.85045  24778469.5464   24778469.0624   24778478.1084
        35.7004         34.3004
 -11733909.46346  -9125396.76446  23587811.2984   23587809.1984   23587817.9804
        39.2004         36.9004
 -14872448.06747 -11552452.72346  23068065.6764   23068064.5204   23068071.4364
        44.2004         41.4004
  -4438918.10746  -3421003.38346  23737199.3174   23737197.1604   23737203.8244
        39.4004         36.9004
 -17846374.25347 -13870061.61847  21874005.6794   21874004.4344   21874010.6924
        47.0004         44.0004
 -24821357.27748 -19309234.07147  21029794.4254   21029793.0254   21029799.5904
        50.2004         47.3004
  -1038246.28145   -809604.89045  25936695.7164   25936692.7604   25936700.8654
        34.5004         33.3004
 11 10  1  0 17  0.0000000  0 10G17G22G18G26G12G28G15G09G11G04
 -24488311.15048 -19043998.22147  21143538.3014   21143536.8554   21143542.7494
        49.3004         46.3004
  -6664095.64146  -4878286.30046  24309111.4284   24309109.8254   24309115.7234
        38.3004         36.2004
  -1167207.43446   -877886.95345  24794124.1484   24794122.0594   24794130.2504
        36.4004         34.6004
 -11626512.52146  -9041710.86746  23608247.2454   23608245.9154   23608254.1774
        39.4004         37.1004
 -14967179.82747 -11626269.61246  23050038.8744   23050037.9144   23050044.2074
        44.1004         41.4004
  -4325437.20446  -3332576.69146  23758794.0604   23758792.8654   23758798.4454
        39.2004         36.7004
 -17765443.67947 -13806998.85247  21889406.0224   21889405.0154   21889411.6134
        47.0004         44.2004
 -24861051.66948 -19340164.74447  21022241.0144   21022239.3994   21022246.0594
        50.2004         47.3004
   -981490.76645   -765379.60945  25947495.0614   25947493.7244   25947499.8644
        34.5004         33.1004
  -1741735.53045  -1005562.85145  25675444.0594                   25675447.5554
        35.7004         35.9004
 11 10  1  0 17 30.0000000  0 10G17G22G18G26G12G28G15G09G11G04
 -24472361.97048 -19031570.28747  21146573.2494   21146571.9854   21146577.6154
        49.1004         46.3004
  -6637395.25246  -4857480.80446  24314192.6394   24314190.2164   24314198.8114
        38.5004         36.2004
  -1084687.28445   -813585.55645  24809826.6904   24809825.9194   24809833.8724
        35.9004         34.3004
 -11518918.46946  -8957871.37446  23628721.9634   23628720.1724   23628728.2884
        39.6004         37.3004
 -15061711.89447 -11699930.91346  23032050.4744   23032048.9314   23032055.5144
        44.2004         41.4004
  -4211860.91446  -3244075.65346  23780407.0434   23780404.8864   23780410.8724
        39.0004         36.6004
 -17684084.74147 -13743602.29847  21904888.4454   21904886.8454   21904893.0824
        47.0004         44.0004
 -24900415.57648 -19370837.90447  21014750.3484   21014748.6414   21014755.2944
        50.3004         47.3004
   -924372.16845   -720871.39445  25958365.6714   25958366.2014   25958371.6714
        33.8004         32.7004
  -1831272.52546  -1075331.94845  25658403.8914   25658403.0354   25658412.0154
        37.3004         35.5004
 11 10  1  0 18  0.0000000  0 10G17G22G18G26G12G28G15G09G11G04
 -24455769.53348 -19018641.11347  21149730.8674   21149729.5014   21149735.0434
        49.3004         46.3004
  -6610160.38146  -4836258.83846  24319375.2424   24319373.0904   24319381.0924
        38.3004         36.0004
  -1001912.45545   -749085.72045  24825577.7604   24825576.3454   24825585.3274
        35.9004         34.5004
 -11411130.62046  -8873880.86446  23649233.9734   23649231.5854   23649239.9144
        39.7004         37.4004
 -15156044.45047 -11773436.75246  23014099.5234   23014098.0394   23014104.6514
        44.1004         41.2004
  -4098191.94046  -3155502.39746  23802037.5844   23802035.6324   23802040.4174
        38.9004         36.6004
 -17602301.04047 -13679874.75947  21920451.0964   21920450.1584   21920456.8424
        47.0004         44.2004
 -24939449.08548 -19401253.60547  21007322.4934   21007320.9804   21007327.3674
        50.3004         47.3004
   -866893.29945   -676082.41445  25969302.1604   25969304.0174   25969307.0444
        33.0004         31.9004
  -1920809.77146  -1145101.27845  25641366.8814   25641364.8864   25641372.9884
        37.6004         35.7004
 11 10  1  0 18 30.0000000  0  9G17G22G18G26G12G28G15G09G04
 -24438535.91348 -19005212.31647  21153010.2024   21153008.8014   21153014.2634
        49.3004         46.3004
  -6582393.92746  -4814622.66945  24324658.8204   24324655.6574   24324664.3284
        37.8004         35.5004
   -918887.68845   -684391.13245  24841378.2224   24841374.9364   24841382.9014
        35.9004         34.1004
 -11303152.73546  -8789742.27046  23669780.5184   23669779.3774   23669788.4704
        39.9004         37.8004
 -15250177.08847 -11846786.82346  22996186.0364   22996185.5804   22996191.9354
        43.9004         41.2004
  -3984433.57146  -3066859.46746  23823684.7764   23823683.0904   23823688.7164
        38.9004         36.7004
 -17520096.19647 -13615819.06947  21936094.2294   21936092.9434   21936099.5624
        47.0004         44.2004
 -24978151.95448 -19431411.66347  20999957.5964   20999955.9734   20999962.3714
        50.3004         47.3004
  -2010345.87046  -1214869.69745  25624328.2624   25624327.7224   25624334.2574
        37.3004         35.0004
 11 10  1  0 19  0.0000000  0  9G17G22G18G26G12G28G15G09G04
 -24420659.03148 -18991282.27847  21156412.0274   21156410.6034   21156416.3544
        49.1004         46.3004
  -6554094.36746  -4792571.08845  24330044.5834   24330044.0274   24330048.6974
        37.6004         35.7004
   -835612.53845   -619501.46045  24857224.2214   24857223.0984   24857231.8174
        35.6004         33.8004
 -11194984.64146  -8705455.47046  23690363.8904   23690363.6664   23690371.4524
        39.9004         37.4004
 -15344106.52047 -11919978.53646  22978312.0674   22978310.2724   22978317.5784
        43.9004         40.9004
  -3870584.58946  -2978145.93046  23845349.0524   23845347.6734   23845353.7784
        38.9004         36.4004
 -17437469.63147 -13551434.75147  21951817.9824   21951816.4744   21951823.2804
        47.0004         44.4004
 -25016520.01248 -19461308.82647  20992656.1814   20992654.4894   20992661.4174
        50.3004         47.3004
  -2099875.58046  -1284633.13545  25607292.2034   25607291.1134   25607296.1704
        37.0004         35.0004
 11 10  1  0 19 30.0000000  0  9G17G22G18G26G12G28G15G09G04
 -24402140.08548 -18976851.92647  21159936.3254   21159934.9614   21159940.6724
        49.3004         46.3004
  -6525263.59146  -4770105.57645  24335530.4614   24335528.7084   24335536.7264
        37.8004         35.5004
   -752090.56345   -554419.44345  24873116.6164   24873113.7784   24873122.6604
        35.6004         33.8004
 -11086629.06246  -8621022.59246  23710984.4794   23710983.1824   23710990.7674
        40.1004         37.6004
 -15437831.44347 -11993010.90646  22960476.9814   22960475.6954   22960482.0434
        43.9004         41.1004
  -3756647.48546  -2889363.73746  23867030.7764   23867028.6794   23867036.2234
        38.9004         36.4004
 -17354424.25947 -13486724.10447  21967620.3014   21967618.9654   21967625.7544
        47.0004         44.0004
 -25054552.37248 -19490944.41047  20985418.7634   20985417.1574   20985423.9094
        50.3004         47.3004
  -2189396.35546  -1354389.59845  25590259.8824   25590256.2294   25590263.2414
        37.1004         35.0004
 11 10  1  0 20  0.0000000  0  9G17G22G18G26G12G28G15G09G04
 -24382980.66548 -18961922.50747  21163581.9924   21163580.7114   21163586.4934
        49.3004         46.3004
  -6495903.65946  -4747227.71746  24341117.3894   24341115.4634   24341122.2994
        38.0004         36.0004
   -668325.74545   -489148.18445  24889057.4564   24889055.2784   24889066.5364
        35.0004         33.4004
 -10978088.99046  -8536445.93846  23731638.6944   23731637.8094   23731645.2034
        40.1004         37.8004
 -15531351.27847 -12065883.48046  22942680.3574   22942678.3924   22942686.0404
        43.9004         41.1004
  -3642624.20046  -2800514.36846  23888728.5574   23888727.6094   23888733.0904
        38.7004         36.4004
 -17270962.82547 -13421689.23147  21983503.0884   21983501.2544   21983507.8374
        47.0004         44.0004
 -25092248.47848 -19520317.97847  20978245.5974   20978243.9844   20978250.6264
        50.3004         47.3004
  -2278906.24546  -1424137.63445  25573221.3794   25573221.2644   25573228.6054
        37.1004         35.0004
