     2.11           OBSERVATION DATA    G (GPS)             RINEX VERSION / TYPE
teqc  2016Apr1                          20160930 07:51:16UTCPGM / RUN BY / DATE
Linux 2.4.20-8|Pentium IV|gcc|Linux|486/DX+                 COMMENT
teqc  2016Apr1                          20160816 03:19:52UTCCOMMENT
teqc  2009Mar23                         20111002 00:02:05UTCCOMMENT
Linux 2.4.20-8|Pentium IV|gcc -static|Linux|486/DX+         COMMENT
teqc  2010Oct21                         20111001 00:59:45UTCCOMMENT
MSXP|IAx86-PII|bcc32 5.0|MSWin95->XP|486/DX+                COMMENT
BIT 2 OF LLI FLAGS DATA COLLECTED UNDER A/S CONDITION       COMMENT
 SNR is mapped to RINEX snr flag value [0-9]                COMMENT
  L1 & L2: min(max(int(snr_dBHz/6), 0), 9)                  COMMENT
pseudorange smoothing corrections not applied               COMMENT
Forced Modulo Decimation to 30 seconds                      COMMENT
SCOR                                                        MARKER NAME
43006M002                                                   MARKER NUMBER
DNSC                DNSC                                    OBSERVER / AGENCY
00703               ASHTECH UZ-12       CJ00                REC # / TYPE / VERS
11301               ASH701941.B     SCIS                    ANT # / TYPE
  1982096.1000  -798821.0000  5989464.5000                  APPROX POSITION XYZ
        0.1977        0.0000        0.0000                  ANTENNA: DELTA H/E/N
     1     1                                                WAVELENGTH FACT L1/2
     9    C1    L1    L2    P1    P2    D1    D2    S1    S2# / TYPES OF OBSERV
    30.0000                                                 INTERVAL
teqc windowed: start @ 2011 Oct  1 00:10:00.000             COMMENT
teqc windowed:  end  @ 2011 Oct  1 00:20:00.000             COMMENT
  2011    10     1     0    10    0.0000000     GPS         TIME OF FIRST OBS
                                                            END OF HEADER
 11 10  1  0 10  0.0000000  0 10G07G08G23G05G04G10G16G29G13G02
  22570966.9494  -15550709.37048 -12065130.28047  22570967.1874   22570968.5624
      2651.9484       2066.4274         51.0004         46.0004
  24529631.4534   -4307114.30747  -3335284.95246  24529630.2994   24529635.5264
      3764.5164       2933.3254         46.0004         40.0004
  23724613.2634   -9598826.64047  -7436948.60947  23724614.1344   23724618.4274
     -3472.8224      -2706.0804         47.0004         42.0004
  21505421.1034  -21760823.82149 -16947591.74448  21505420.8494   21505423.0094
      2195.9314       1711.0914         56.0004         50.0004
  24377494.9584   -4793584.18847  -3717581.99046  24377494.9714   24377499.5354
     -3929.4224      -3061.8904         46.0004         40.0004
  20910427.7504  -13719063.88449 -10661080.58248  20910426.0824   20910429.7384
     -1900.2364      -1480.7194         56.0004         50.0004
  23520359.6694   -9538172.18148  -7418670.53847  23520358.2804   23520361.7074
      1495.0924       1164.9984         48.0004         42.0004
  22665344.5594  -10451840.93248  -8128949.74247  22665344.7414   22665348.0034
      -398.6564       -310.6534         51.0004         46.0004
  21685707.4324  -16523879.49449 -12831081.84547  21685707.2014   21685708.6224
     -2464.7094      -1920.5514         55.0004         47.0004
  21404361.6074  -14611969.82849 -11373815.16848  21404360.5344   21404360.9364
     -1842.7084      -1435.8704         56.0004         49.0004
 11 10  1  0 10 30.0000000  0 10G07G08G23G05G04G10G16G29G13G02
  22555867.5054  -15630060.94248 -12126962.77647  22555867.0854   22555869.0574
      2636.5864       2054.4824         52.0004         46.0004
  24508150.7554   -4419996.11347  -3423243.88846  24508149.8294   24508156.0324
      3759.2094       2929.2434         46.0004         40.0004
  23744457.6004   -9494550.62748  -7355695.84447  23744457.1464   23744459.7024
     -3480.5574      -2712.0874         48.0004         42.0004
  21492924.7264  -21826495.21749 -16998764.31848  21492924.2854   21492926.2024
      2180.7464       1699.2614         56.0004         50.0004
  24399933.8134   -4675665.60747  -3625697.36346  24399933.3374   24399938.7484
     -3933.1434      -3064.7944         46.0004         40.0004
  20921320.7654  -13661820.49049 -10616475.03048  20921319.1414   20921322.6014
     -1917.5024      -1494.1644         56.0004         50.0004
  23511877.9674   -9582750.48548  -7453407.21547  23511875.6044   23511880.4114
      1475.3834       1149.6464         48.0004         42.0004
  22667677.8004  -10439584.13748  -8119398.92247  22667676.9894   22667680.5174
      -419.8114       -327.1204         52.0004         46.0004
  21699820.1794  -16449719.84549 -12773295.26847  21699818.9584   21699821.1944
     -2480.6844      -1933.0304         54.0004         47.0004
  21414930.3914  -14556430.15749 -11330537.33548  21414929.3094   21414929.4904
     -1861.4044      -1450.4604         56.0004         49.0004
 11 10  1  0 11  0.0000000  0 10G07G08G23G05G04G10G16G29G13G02
  22540852.5874  -15708965.30148 -12188446.71847  22540852.0684   22540854.5134
      2623.0524       2043.9464         52.0004         46.0004
  24486697.0804   -4532735.34147  -3511092.53946  24486695.8244   24486701.2544
      3755.7954       2926.5944         45.0004         40.0004
  23764344.6804   -9390047.86947  -7274265.69046  23764344.6854   23764344.0144
     -3486.2424      -2716.4174         47.0004         41.0004
  21480512.2364  -21891719.19849 -17049587.83448  21480512.2384   21480514.0434
      2167.0194       1688.5734         56.0004         50.0004
  24422393.2924   -4557640.79347  -3533730.03646  24422393.2344   24422397.2334
     -3935.7584      -3066.8194         45.0004         40.0004
  20932309.4184  -13604074.42949 -10571478.08248  20932308.0514   20932311.5894
     -1932.7604      -1506.0414         56.0004         50.0004
  23503505.6964   -9626744.30848  -7487687.50547  23503503.2644   23503507.8734
      1457.4074       1135.6474         49.0004         42.0004
  22670129.7124  -10426703.72148  -8109362.54347  22670128.3164   22670131.2854
      -439.3814       -342.3874         52.0004         46.0004
  21714020.5774  -16375095.27149 -12715146.77047  21714020.0204   21714021.9234
     -2494.9804      -1944.1494         54.0004         47.0004
  21425602.7194  -14500345.38749 -11286834.92048  21425601.9854   21425602.1724
     -1878.1674      -1463.4994         56.0004         49.0004
 11 10  1  0 11 30.0000000  0 10G07G08G23G05G04G10G16G29G13G02
  22525921.8384  -15787422.39848 -12249582.00947  22525922.1234   22525924.3474
      2607.9074       2032.1494         51.0004         46.0004
  24465270.2184   -4645329.48847  -3598827.64346  24465269.1584   24465272.3534
      3750.8604       2922.7294         45.0004         40.0004
  23784272.5774   -9285320.82847  -7192659.64546  23784272.2374   23784274.5684
     -3494.9394      -2723.4504         46.0004         40.0004
  21468185.3594  -21956497.59049 -17100064.29448  21468184.9864   21468187.1374
      2152.0044       1676.8724         56.0004         50.0004
  24444871.5304   -4439514.52747  -3441683.72246  24444871.0564   24444876.1794
     -3938.7264      -3069.1244         45.0004         39.0004
  20943393.3294  -13545830.43249 -10526093.69148  20943391.7054   20943395.0764
     -1949.6114      -1519.1914         56.0004         50.0004
  23495244.8304   -9670160.00348  -7521519.30347  23495242.4944   23495247.8024
      1437.6874       1120.2854         48.0004         42.0004
  22672698.8914  -10413201.22648  -8098841.17747  22672697.6544   22672701.5714
      -460.2144       -358.6014         52.0004         46.0004
  21728309.2324  -16300008.39849 -12656637.36547  21728308.5474   21728310.3344
     -2510.3504      -1956.1374         54.0004         47.0004
  21436378.3304  -14443718.58349 -11242710.14948  21436377.3284   21436378.0814
     -1896.4274      -1477.7324         55.0004         49.0004
 11 10  1  0 12  0.0000000  0 10G07G08G23G05G04G10G16G29G13G02
  22511079.1574  -15865424.76248 -12310362.99947  22511078.4054   22511080.9974
      2592.4794       2020.1114         52.0004         46.0004
  24443872.7714   -4757772.31247  -3686445.05546  24443871.5564   24443876.6674
      3745.5474       2918.5884         45.0004         40.0004
  23804243.1474   -9180368.66247  -7110877.41146  23804242.8104   23804244.5504
     -3502.0484      -2728.8374         47.0004         41.0004
  21455944.6044  -22020823.98749 -17150188.82248  21455944.2654   21455946.0254
      2136.6974       1664.9604         56.0004         50.0004
  24467370.8784   -4321283.63547  -3349555.76646  24467371.6574   24467374.3624
     -3942.9174      -3072.4124         45.0004         39.0004
  20954572.0774  -13487082.36049 -10480315.72748  20954570.8404   20954574.5904
     -1966.6584      -1532.4984         56.0004         50.0004
  23487094.0994   -9712983.24348  -7554887.47047  23487094.6574   23487096.7244
      1417.7404       1104.7064         48.0004         42.0004
  22675385.9804  -10399072.49748  -8087831.70647  22675385.3184   22675389.2944
      -481.4804       -375.1644         51.0004         46.0004
  21742685.8064  -16224457.46449 -12597766.19047  21742684.8414   21742687.0484
     -2526.1044      -1968.3944         54.0004         47.0004
  21447257.0894  -14386546.21749 -11198160.03948  21447256.8244   21447257.4964
     -1914.7524      -1492.0054         55.0004         49.0004
 11 10  1  0 12 30.0000000  0 10G07G08G23G05G04G10G16G29G13G02
  22496321.3154  -15942978.29248 -12370794.45547  22496320.8414   22496323.1584
      2577.8074       2008.7124         52.0004         47.0004
  24422503.2054   -4870068.84647  -3773948.49646  24422501.3774   24422507.8364
      3740.9624       2915.0444         46.0004         40.0004
  23824255.2814   -9075206.48847  -7028933.48847  23824255.3274   23824256.9174
     -3508.7824      -2734.1494         47.0004         42.0004
  21443787.9784  -22084703.97749 -17199965.35048  21443787.8504   21443790.2334
      2121.9194       1653.4434         56.0004         50.0004
  24489887.7494   -4202959.18247  -3257354.98746  24489887.4324   24489890.0364
     -3945.5744      -3074.4784         46.0004         38.0004
  20965845.3854  -13427842.28049 -10434154.62248  20965844.1094   20965847.2324
     -1982.7054      -1544.9614         56.0004         50.0004
  23479056.9704   -9755225.79848  -7587804.10147  23479056.0584   23479057.9144
      1398.5954       1089.8234         48.0004         42.0004
  22678192.2534  -10384328.15948  -8076343.35747  22678191.8064   22678195.5854
      -501.6834       -390.9494         51.0004         46.0004
  21757148.4544  -16148454.22949 -12538543.07047  21757147.9324   21757150.2444
     -2540.8414      -1979.8694         54.0004         47.0004
  21458239.1924  -14328840.21149 -11153194.92648  21458238.4464   21458239.2544
     -1932.2224      -1505.5764         55.0004         49.0004
 11 10  1  0 13  0.0000000  0 10G07G08G23G05G04G10G16G29G13G02
  22481650.2404  -16020076.33448 -12430871.13347  22481649.9634   22481652.2304
      2561.8284       1996.2214         52.0004         47.0004
  24401163.5114   -4982213.19547  -3861334.16346  24401162.1094   24401166.6574
      3735.1074       2910.4894         46.0004         40.0004
  23844307.7484   -8969827.19147  -6946819.56346  23844307.4874   23844311.6594
     -3516.7594      -2740.3254         46.0004         41.0004
  21431718.0494  -22148132.17849 -17249390.05348  21431717.7244   21431720.2054
      2106.3264       1641.2814         56.0004         50.0004
  24512421.7124   -4084539.05547  -3165079.54746  24512421.1604   24512426.5734
     -3949.5004      -3077.5244         45.0004         39.0004
  20977212.6934  -13368106.88649 -10387607.54948  20977211.1524   20977214.5294
     -1999.8204      -1558.2864         56.0004         50.0004
  23471129.9234   -9796879.97247  -7620262.06647  23471128.0634   23471132.6164
      1378.1184       1073.8254         47.0004         42.0004
  22681117.3574  -10368960.94048  -8064368.47747  22681116.7264   22681119.7464
      -522.9984       -407.5594         52.0004         46.0004
  21771698.3384  -16071995.30949 -12478964.46847  21771697.9204   21771699.6034
     -2556.6394      -1992.2114         54.0004         47.0004
  21469322.9934  -14270595.70649 -11107809.85148  21469322.0534   21469322.7854
     -1950.8924      -1520.1974         55.0004         49.0004
 11 10  1  0 13 30.0000000  0 10G07G08G23G05G04G10G16G29G13G02
  22467066.6194  -16096713.70048 -12490588.56347  22467066.1794   22467068.5194
      2547.2824       1984.8974         52.0004         47.0004
  24379853.4504   -5094197.84047  -3948594.53346  24379851.0094   24379856.6594
      3730.5764       2906.9134         47.0004         41.0004
  23864403.5904   -8864233.63547  -6864539.44046  23864404.0844   23864403.9874
     -3523.1644      -2745.3184         47.0004         41.0004
  21419735.2704  -22211104.66449 -17298459.77448  21419735.0274   21419737.2344
      2091.7924       1629.9844         56.0004         50.0004
  24534974.6124   -3966023.11247  -3072729.39746  24534973.4534   24534977.8144
     -3951.7184      -3079.2704         45.0004         38.0004
  20988674.3384  -13307875.57549 -10340673.94648  20988673.0154   20988676.1574
     -2015.5774      -1570.5794         56.0004         50.0004
  23463315.3714   -9837943.53648  -7652260.50447  23463315.4654   23463319.8914
      1359.3784       1059.3644         48.0004         42.0004
  22684160.0414  -10352971.47348  -8051908.97547  22684159.7254   22684163.1384
      -542.9564       -423.0424         51.0004         46.0004
  21786334.5294  -15995081.58749 -12419031.59347  21786333.6584   21786335.5754
     -2571.0494      -2003.4114         54.0004         47.0004
  21480508.4984  -14211811.00849 -11062002.95648  21480507.7794   21480508.2184
     -1968.0984      -1533.5754         55.0004         49.0004
 11 10  1  0 14  0.0000000  0 10G07G08G23G05G04G10G16G29G13G02
  22452569.9754  -16172892.94848 -12549948.79147  22452569.7524   22452571.5434
      2531.4464       1972.5504         52.0004         47.0004
  24358572.7694   -5206027.27048  -4035734.09746  24358571.2184   24358576.9814
      3724.8704       2902.4654         48.0004         41.0004
  23884538.2454   -8758432.67448  -6782098.14646  23884537.3464   23884537.5344
     -3530.6844      -2751.2214         48.0004         41.0004
  21407838.5044  -22273624.76349 -17347176.92748  21407837.8234   21407840.2834
      2076.1074       1617.7354         56.0004         50.0004
  24557544.1324   -3847419.69647  -2980311.13146  24557543.0784   24557548.5724
     -3955.2834      -3082.0144         45.0004         39.0004
  21000228.8014  -13247155.40949 -10293359.39248  21000227.2954   21000230.5144
     -2032.4234      -1583.7284         56.0004         50.0004
  23455614.3034   -9878418.03648  -7683799.57247  23455614.7284   23455618.9504
      1339.1664       1043.4734         48.0004         42.0004
  22687320.5454  -10336365.54248  -8038969.06147  22687319.3364   22687321.8374
      -563.9154       -439.3914         52.0004         46.0004
  21801055.5284  -15917720.61149 -12358750.32447  21801055.2704   21801057.2634
     -2586.2764      -2015.2624         54.0004         47.0004
  21491795.5494  -14152495.49049 -11015782.65548  21491795.1614   21491794.9824
     -1986.1734      -1547.6574         55.0004         49.0004
 11 10  1  0 14 30.0000000  0 10G07G08G23G05G04G10G16G29G13G02
  22438162.0724  -16248607.17748 -12608946.92247  22438160.6354   22438163.5894
      2516.2554       1960.7344         52.0004         47.0004
  24337323.2314   -5317694.23947  -4122747.84046  24337321.7614   24337327.3134
      3719.7104       2898.5124         47.0004         41.0004
  23904711.3674   -8652418.17448  -6699489.17246  23904707.6654   23904709.9114
     -3537.0734      -2756.1244         48.0004         41.0004
  21396028.6094  -22335684.58449 -17395535.12748  21396028.3074   21396030.8184
      2061.1574       1606.0944         56.0004         50.0004
  24580131.2204   -3728724.80547  -2887821.64346  24580130.9914   24580134.9784
     -3957.5794      -3083.8584         46.0004         39.0004
  21011877.3824  -13185942.59249 -10245661.06548  21011875.8684   21011879.2744
     -2048.3014      -1596.0894         56.0004         50.0004
  23448026.4354   -9918295.50848  -7714872.69947  23448024.4134   23448028.7404
      1319.4244       1028.0924         48.0004         42.0004
  22690598.2514  -10319138.99148  -8025545.80547  22690597.8214   22690600.5474
      -584.2974       -455.2704         52.0004         46.0004
  21815862.7624  -15839909.11349 -12298118.10747  21815862.0634   21815864.0684
     -2600.9954      -2026.7644         54.0004         47.0004
  21503185.0684  -14092645.49649 -10969146.29648  21503184.2914   21503184.7384
     -2003.6744      -1561.3004         55.0004         49.0004
 11 10  1  0 15  0.0000000  0 10G07G08G23G05G04G10G16G29G13G02
  22423842.7374  -16323854.38548 -12667581.09147  22423842.0904   22423844.7264
      2500.3294       1948.3264         52.0004         47.0004
  24316105.4324   -5429194.19647  -4209630.65346  24316103.7644   24316109.5034
      3713.8344       2893.9254         46.0004         40.0004
  23924923.4974   -8546197.00448  -6616720.09246  23924923.8414   23924925.7834
     -3544.2254      -2761.6644         48.0004         41.0004
  21384306.9124  -22397283.76849 -17443534.38148  21384306.6544   21384308.3924
      2045.4964       1593.8934         56.0004         50.0004
  24602734.3994   -3609942.36247  -2795263.85446  24602733.4984   24602737.3474
     -3961.2904      -3086.7094         46.0004         39.0004
  21023618.9794  -13124241.22849 -10197582.77948  21023617.7834   21023620.8794
     -2065.0324      -1609.0884         56.0004         50.0004
  23440551.0444   -9957575.93948  -7745480.16547  23440549.7864   23440554.6074
      1299.3814       1012.4554         48.0004         42.0004
  22693994.2084  -10301292.52348  -8011639.59947  22693993.5604   22693996.7804
      -605.3614       -471.6604         51.0004         46.0004
  21830755.1974  -15761650.36449 -12237137.44047  21830754.8094   21830756.7314
     -2616.2884      -2038.6674         54.0004         47.0004
  21514675.4754  -14032263.02249 -10922095.07248  21514674.4384   21514674.8664
     -2021.6054      -1575.2584         55.0004         49.0004
 11 10  1  0 15 30.0000000  0 10G07G08G23G05G04G10G16G29G13G02
  22409612.5774  -16398636.15948 -12725852.32347  22409612.2234   22409613.7494
      2484.6994       1936.1144         53.0004         47.0004
  24294918.0264   -5540531.10447  -4296387.05346  24294917.5904   24294922.1014
      3708.3774       2889.6414         45.0004         40.0004
  23945176.2364   -8439771.52848  -6533790.37946  23945175.7294   23945177.4124
     -3550.8684      -2766.9444         48.0004         41.0004
  21372671.8594  -22458424.98649 -17491176.71248  21372671.5414   21372673.4724
      2030.2174       1581.9884         56.0004         50.0004
  24625354.2254   -3491079.44647  -2702644.11246  24625353.3364   24625354.8094
     -3963.8834      -3088.7904         44.0004         39.0004
  21035453.1344  -13062054.34549 -10149125.30548  21035451.4544   21035454.6264
     -2081.1744      -1621.7024         56.0004         50.0004
  23433189.4374   -9996264.08148  -7775626.87947  23433188.7154   23433191.2654
      1279.3644        996.8804         48.0004         42.0004
  22697507.1334  -10282830.50648  -7997253.35747  22697506.9824   22697510.2944
      -625.7844       -487.6014         52.0004         46.0004
  21845731.2494  -15682950.73049 -12175812.92447  21845730.0394   21845732.3854
     -2631.0204      -2050.1554         54.0004         47.0004
  21526266.3304  -13971354.94449 -10874634.76548  21526265.4324   21526265.6454
     -2039.2444      -1588.9964         55.0004         49.0004
 11 10  1  0 16  0.0000000  0 10G07G08G23G05G04G10G16G29G13G02
  22395471.2314  -16472947.57048 -12783757.35547  22395470.8074   22395472.6364
      2468.9664       1923.8634         52.0004         47.0004
  24273763.8554   -5651697.03447  -4383009.62646  24273763.0004   24273768.1304
      3703.0034       2885.4624         45.0004         40.0004
  23965467.9314   -8333143.47347  -6450703.07746  23965467.0094   23965468.8064
     -3557.5754      -2772.1304         47.0004         41.0004
  21361124.9374  -22519102.19749 -17538457.18948  21361124.6664   21361126.7114
      2014.6614       1569.8614         56.0004         50.0004
  24647989.2164   -3372133.40347  -2609958.86546  24647987.3504   24647993.3064
     -3966.3404      -3090.6604         45.0004         39.0004
  21047378.9434  -12999382.02249 -10100289.68848  21047377.3584   21047380.7854
     -2097.3224      -1634.2794         56.0004         50.0004
  23425939.5954  -10034353.30347  -7805306.67447  23425939.1984   23425942.4694
      1259.5794        981.4804         47.0004         42.0004
  22701138.1244  -10263751.96248  -7982387.09647  22701137.1344   22701140.3064
      -646.3944       -503.6944         52.0004         46.0004
  21860791.1724  -15603809.15349 -12114144.12047  21860790.5394   21860793.0114
     -2645.4944      -2061.4174         54.0004         47.0004
  21537957.5224  -13909916.99849 -10826760.70148  21537956.3194   21537956.7684
     -2056.8554      -1602.7474         55.0004         49.0004
 11 10  1  0 16 30.0000000  0 10G07G08G23G05G04G10G16G29G13G02
  22381420.8004  -16546783.71848 -12841292.02547  22381420.2814   22381421.9924
      2453.6824       1911.9554         52.0004         46.0004
  24252643.2334   -5762687.17047  -4469494.80246  24252641.3024   24252647.4944
      3697.2494       2880.9694         45.0004         40.0004
  23985795.7834   -8226313.88548  -6367459.33846  23985797.6194   23985795.0454
     -3563.7234      -2776.9344         48.0004         41.0004
  21349667.1114  -22579314.17149 -17585375.67248  21349666.9654   21349668.5734
      1999.7274       1558.2164         56.0004         50.0004
  24670639.6064   -3253105.24247  -2517209.65446  24670639.5824   24670642.8354
     -3968.5444      -3092.3474         44.0004         39.0004
  21059397.7614  -12936223.61049 -10051075.29248  21059396.2854   21059399.5424
     -2112.8924      -1646.4124         56.0004         50.0004
  23418806.3214  -10071841.18348  -7834518.06847  23418806.3824   23418809.8114
      1239.7454        966.0054         48.0004         42.0004
  22704884.8974  -10244054.11348  -7967037.90747  22704884.7214   22704889.1274
      -666.3444       -519.1964         51.0004         46.0004
  21875935.3874  -15524226.16649 -12052131.39047  21875934.2334   21875936.3224
     -2659.5414      -2072.3624         54.0004         46.0004
  21549749.5774  -13847951.55749 -10778476.08048  21549748.6594   21549748.5734
     -2073.9034      -1616.0254         55.0004         49.0004
 11 10  1  0 17  0.0000000  0 11G07G08G23G05G04G26G10G16G29G13G02
  22367460.0804  -16620148.11648 -12898459.03847  22367459.5414   22367462.2114
      2437.6784       1899.5034         53.0004         47.0004
  24231555.9394   -5873506.18347  -4555846.95346  24231553.8804   24231558.4254
      3691.1284       2876.1944         46.0004         40.0004
  24006161.3274   -8119290.22947  -6284064.66746  24006161.4934   24006162.9364
     -3570.9244      -2782.5334         47.0004         40.0004
  21338296.9804  -22639063.11449 -17631933.15148  21338296.7164   21338298.5714
      1983.8234       1545.8364         56.0004         50.0004
  24693303.6104   -3134002.59247  -2424402.30446  24693302.4264   24693307.0284
     -3971.4264      -3094.6174         44.0004         39.0004
  25000533.0814   -1181356.57547   -915282.64646  25000533.1354   25000537.8274
      4443.1044       3462.1434         43.0004         36.0004
  21071507.6504  -12872586.66249 -10001488.08448  21071505.7954   21071508.9004
     -2129.2314      -1659.1524         56.0004         49.0004
  23411788.9544  -10108731.41548  -7863264.06947  23411786.9484   23411790.6834
      1219.5074        950.2204         50.0004         42.0004
  22708748.8644  -10223745.36048  -7951213.33047  22708749.6164   22708754.0084
      -687.2044       -535.4434         51.0004         46.0004
  21891162.0104  -15444209.56949 -11989780.79847  21891161.0554   21891163.6734
     -2674.4834      -2084.0514         54.0004         47.0004
  21561640.3674  -13785465.13749 -10729785.30248  21561639.0314   21561639.3264
     -2091.5164      -1629.7424         55.0004         49.0004
 11 10  1  0 17 30.0000000  0 11G07G08G23G05G04G26G10G16G29G13G02
  22353589.9724  -16693032.88948 -12955252.45647  22353589.9704   22353592.5104
      2421.5714       1886.9644         52.0004         47.0004
  24210500.5354   -5984146.30747  -4642060.17746  24210499.4534   24210504.1394
      3684.8884       2871.3184         46.0004         40.0004
  24026564.6084   -8012068.39348  -6200515.35646  24026564.8754   24026566.1034
     -3577.2264      -2787.4144         48.0004         40.0004
  21327016.7174  -22698342.70149 -17678125.11748  21327016.4684   21327018.1224
      1968.2644       1533.7104         56.0004         51.0004
  24715982.2244   -3014824.78247  -2331537.24446  24715981.8034   24715988.1804
     -3974.2104      -3096.7484         43.0004         39.0004
  24975173.5024   -1314617.60447  -1019121.92746  24975172.4304   24975178.6554
      4441.1124       3460.6164         45.0004         37.0004
  21083708.5064  -12808467.44849  -9951525.05248  21083707.1914   21083710.8814
     -2145.2434      -1671.6174         56.0004         49.0004
  23404883.2954  -10145015.71048  -7891537.12647  23404881.3994   23404885.1504
      1199.4114        934.5854         49.0004         42.0004
  22712733.5274  -10202818.69248  -7934906.77947  22712732.2864   22712735.3634
      -707.5914       -551.3854         52.0004         46.0004
  21906471.1394  -15363756.32949 -11927089.85547  21906471.6504   21906472.8924
     -2688.9534      -2095.2964         54.0004         46.0004
  21573630.4174  -13722454.32649 -10680685.94148  21573629.7574   21573629.5034
     -2108.9954      -1643.3674         55.0004         49.0004
 11 10  1  0 18  0.0000000  0 11G07G08G23G05G04G26G10G16G29G13G02
  22339811.8144  -16765440.55448 -13011673.85047  22339811.1284   22339812.9724
      2405.0464       1874.0584         53.0004         47.0004
  24189479.6934   -6094608.50947  -4728134.38246  24189479.5684   24189484.7064
      3678.6434       2866.4854         47.0004         41.0004
  24047005.3584   -7904657.11347                  24047001.2714
     -3584.1984                         45.0004
  21315824.5754  -22757156.23849 -17723953.72348  21315824.3324   21315826.1234
      1952.1734       1521.1734         56.0004         50.0004
  24738674.8584   -2895575.20247  -2238615.27146  24738674.1654   24738680.5424
     -3976.8104      -3098.8184         42.0004         38.0004
  24949824.6234   -1447824.08147  -1122918.78345  24949822.5794   24949828.6244
      4438.8464       3458.7984         43.0004         35.0004
  21096000.3474  -12743872.80449  -9901191.36048  21095999.0414   21096002.3674
     -2161.5894      -1684.3524         56.0004         49.0004
  23398092.0504  -10180700.24448  -7919343.30847  23398091.3014   23398095.1084
      1178.7244        918.3954         49.0004         42.0004
  22716831.4794  -10181281.31148  -7918124.21447  22716830.9094   22716833.7624
      -728.5964       -567.7694         51.0004         46.0004
  21921863.4734  -15282875.58349 -11864066.16347  21921862.8324   21921864.4754
     -2703.8284      -2106.8554         54.0004         46.0004
  21585719.2714  -13658926.56849 -10631183.91148  21585718.6654   21585718.9344
     -2126.8424      -1657.2914         55.0004         49.0004
 11 10  1  0 18 30.0000000  0 11G07G08G23G05G04G26G10G16G29G13G02
  22326125.9714  -16837363.67548 -13067717.91347  22326124.9674   22326126.5054
      2389.2724       1861.7734         53.0004         47.0004
  24168495.1184   -6204884.84347  -4814063.98746  24168494.4724   24168498.4054
      3672.7354       2861.8434         47.0004         41.0004
  24067482.7074   -7797049.46947  -6032968.21046  24067481.3514   24067482.4664
     -3590.0264      -2797.4124         46.0004         40.0004
  21304722.6794  -22815496.37649 -17769413.54648  21304722.3014   21304724.4314
      1936.8884       1509.2694         56.0004         50.0004
  24761381.2244   -2776252.79347  -2145636.92846  24761381.5574   24761384.9764
     -3978.6034      -3100.2144         45.0004         39.0004
  24924487.5524   -1580969.88547  -1226668.36446  24924486.4924   24924494.3204
      4437.3264       3457.6714         43.0004         36.0004
  21108383.8794  -12678799.13449  -9850484.70248  21108382.3754   21108385.5524
     -2177.0674      -1696.4284         56.0004         49.0004
  23391419.1524  -10215776.10648  -7946674.95147  23391416.9764   23391418.9584
      1159.0344        903.1034         50.0004         42.0004
  22721045.9224  -10159127.43048  -7900860.82147  22721045.9144   22721048.4434
      -748.5804       -583.3134         51.0004         46.0004
  21937336.3154  -15201562.14948 -11800705.35547  21937335.2464   21937338.0084
     -2717.5684      -2117.5604         53.0004         46.0004
  21597907.6014  -13594876.69949 -10581274.76548  21597906.9354   21597906.5834
     -2143.5814      -1670.3204         55.0004         48.0004
 11 10  1  0 19  0.0000000  0 11G07G08G23G05G04G26G10G16G29G13G02
  22312530.7214  -16908802.86248 -13123384.89347  22312530.4124   22312532.9354
      2373.1154       1849.1874         53.0004         47.0004
  24147545.8954   -6314975.63147  -4899848.85946  24147544.4274   24147548.2514
      3666.5174       2857.0234         47.0004         41.0004
  24087993.9494   -7689252.01447  -5948969.36846  24087994.7114   24087997.3024
     -3596.2804      -2802.2814         46.0004         41.0004
  21293710.8904  -22873364.31149 -17814505.55948  21293710.6454   21293712.5944
      1921.0364       1496.9124         56.0004         51.0004
  24784100.4054   -2656862.85047  -2052605.90346  24784099.4714   24784105.1334
     -3980.6394      -3101.7884         45.0004         39.0004
  24899161.8864   -1714054.40146  -1330370.66146  24899164.1304   24899166.2414
      4435.1474       3455.9494         40.0004         36.0004
  21120857.0094  -12613250.56049  -9799407.75748  21120855.4174   21120858.9524
     -2192.8454      -1708.7104         56.0004         49.0004
  23384858.2944  -10250244.85448  -7973533.41847  23384857.5424   23384859.3914
      1138.7434        887.3514         49.0004         42.0004
  22725378.2614  -10136362.12448  -7883121.27747  22725377.8464   22725380.1134
      -769.0944       -599.3064         51.0004         46.0004
  21952891.5874  -15119821.36148 -11737011.41147  21952890.1754   21952893.5894
     -2731.7904      -2128.6684         53.0004         46.0004
  21610194.2474  -13530310.93649 -10530963.77048  21610193.1604   21610193.4154
     -2160.7934      -1683.7584         55.0004         48.0004
 11 10  1  0 19 30.0000000  0 11G07G08G23G05G04G26G10G16G29G13G02
  22299029.0544  -16979753.99548 -13178671.29147  22299028.4904   22299030.2774
      2357.3514       1836.8954         53.0004         47.0004
  24126632.9754   -6424877.88947  -4985486.89746  24126631.2064   24126635.4814
      3660.5824       2852.4114         47.0004         41.0004
  24108543.5834   -7581269.77247  -5864827.86246  24108544.8344   24108545.4094
     -3601.8454      -2806.5764         47.0004         41.0004
  21282789.4134  -22930758.06449 -17859228.06348  21282789.4584   21282791.3294
      1905.7834       1485.0314         56.0004         51.0004
  24806832.2354   -2537405.92747  -1959522.51246  24806832.5324   24806833.3574
     -3982.4734      -3103.2564         44.0004         38.0004
  24873849.6284   -1847073.73046  -1434021.13246  24873848.1244   24873853.1964
      4433.3724       3454.5454         41.0004         37.0004
  21133420.8004  -12547229.70249  -9747963.34748  21133419.1284   21133422.8874
     -2208.0844      -1720.5654         56.0004         49.0004
  23378415.6824  -10284106.68448  -7999919.86647  23378413.0444   23378416.7854
      1119.0284        871.9694         49.0004         42.0004
  22729826.4214  -10112985.94948  -7864905.98147  22729826.5194   22729828.1154
      -788.8564       -614.6924         52.0004         46.0004
  21968526.9264  -15037655.44248 -11672986.14447  21968526.3974   21968528.8464
     -2745.4364      -2139.3074         53.0004         46.0004
  21622578.7004  -13465229.93449 -10480251.28448  21622577.7464   21622577.9724
     -2177.4404      -1696.7154         55.0004         48.0004
 11 10  1  0 20  0.0000000  0 11G07G08G23G05G04G26G10G16G29G13G02
  22285623.5694  -17050202.93148 -13233566.42847  22285622.9404   22285624.4274
      2339.2304       1822.7774         53.0004         47.0004
  24105757.4394   -6534575.53847  -5070965.47046  24105755.1134   24105761.0944
      3652.4304       2846.0414         47.0004         41.0004
  24129130.262
                                        47.000
  21271961.3654  -22987662.94849 -17903569.73948  21271961.0344   21271962.7004
      1887.9544       1471.1214         57.0004         51.0004
  24829579.2344   -2417872.53347  -1866379.21846  24829579.4304   24829585.3194
     -3986.0664      -3106.0044         45.0004         38.0004
  24848551.979
                                        45.000
  21146076.5514  -12480723.68549  -9696140.54748  21146074.9294   21146078.6204
     -2225.4994      -1734.1484         56.0004         49.0004
  23372090.5684  -10317343.65148  -8025818.29547  23372087.8334   23372091.7394
      1096.6324        854.5124         50.0004         42.0004
  22734393.9624  -10088986.44048  -7846205.17447  22734392.8124   22734396.3644
      -810.9964       -631.9434         51.0004         45.0004
  21984245.5694  -14955054.03048 -11608621.61247  21984245.5504   21984247.2594
     -2761.3054      -2151.6704         53.0004         46.0004
  21635063.1354  -13399622.98749 -10429129.22248  21635062.2624   21635062.6964
     -2196.3994      -1711.4794         55.0004         48.0004
