     2.11           OBSERVATION DATA    G (GPS)             RINEX VERSION / TYPE
teqc  2016Apr1                          20160930 07:51:16UTCPGM / RUN BY / DATE
Linux 2.4.20-8|Pentium IV|gcc|Linux|486/DX+                 COMMENT
teqc  2016Apr1                          20160816 03:20:48UTCCOMMENT
teqc  2009Mar23                         20111002 00:02:28UTCCOMMENT
Linux 2.4.20-8|Pentium IV|gcc -static|Linux|486/DX+         COMMENT
teqc  2010Mar17                         20110930 23:59:45UTCCOMMENT
MSXP|IAx86-PII|bcc32 5.0|MSWin95->XP|486/DX+                COMMENT
BIT 2 OF LLI FLAGS DATA COLLECTED UNDER A/S CONDITION       COMMENT
 SNR is mapped to RINEX snr flag value [0-9]                COMMENT
  L1 & L2: min(max(int(snr_dBHz/6), 0), 9)                  COMMENT
pseudorange smoothing corrections not applied               COMMENT
Forced Modulo Decimation to 30 seconds                      COMMENT
THU3                                                        MARKER NAME
43001M002                                                   MARKER NUMBER
DNSC                DNSC                                    OBSERVER / AGENCY
11104               ASHTECH UZ-12       CK00                REC # / TYPE / VERS
G0111               ASH701073.1     SCIS                    ANT # / TYPE
   538093.7000 -1389088.0000  6180979.3000                  APPROX POSITION XYZ
        0.1002        0.0000        0.0000                  ANTENNA: DELTA H/E/N
     1     1                                                WAVELENGTH FACT L1/2
     9    C1    L1    L2    P1    P2    D1    D2    S1    S2# / TYPES OF OBSERV
    30.0000                                                 INTERVAL
teqc windowed: start @ 2011 Oct  1 00:10:00.000             COMMENT
teqc windowed:  end  @ 2011 Oct  1 00:20:00.000             COMMENT
  2011    10     1     0    10    0.0000000     GPS         TIME OF FIRST OBS
                                                            END OF HEADER
 11 10  1  0 10  0.0000000  0 10G05G21G29G10G02G16G30G07G13G23
  21186886.0424  -23329857.95349 -18172456.89248  21186886.1524   21186889.3354
      1412.2534       1100.4664         56.0004         51.0004
  25454256.5194   -3581546.16347  -2776371.32546  25454255.1234   25454262.6204
      3529.8994       2750.5574         43.0004         37.0004
  21492901.6544  -16399806.65449 -12757914.63148  21492901.7114   21492905.4084
      -540.8444       -421.4364         55.0004         50.0004
  21947618.2044  -14810490.10748 -11459852.43347  21947617.1654   21947621.8934
     -2652.2294      -2066.6664         52.0004         47.0004
  21911734.4444  -11238146.44249  -8742471.01748  21911734.0254   21911735.8274
     -2599.1504      -2025.3344         54.0004         48.0004
  23557672.1734  -11025800.39047  -8535269.57347  23557672.1414   23557677.7534
      2313.8024       1802.9884         47.0004         42.0004
  24071871.9194   -7343392.33647  -5647137.53646  24071870.1384   24071878.7474
     -3417.6054      -2663.0704         45.0004         40.0004
  23974833.6314   -9725204.00547  -7520538.53347  23974834.3314   23974834.8824
      3096.8284       2413.0884         46.0004         42.0004
  22429527.9774  -14817516.40748 -11484796.01147  22429528.2664   22429531.5724
     -2315.9484      -1804.6114         52.0004         45.0004
  24303148.6194   -7461626.51247  -5756356.83546  24303148.2444   24303148.7024
     -3398.5264      -2648.2194         46.0004         39.0004
 11 10  1  0 10 30.0000000  0 10G05G21G29G10G02G16G30G07G13G23
  21178876.8474  -23371946.55349 -18205253.06448  21178876.8604   21178880.0184
      1392.8364       1085.3144         56.0004         51.0004
  25434112.9334   -3687402.26847  -2858856.67046  25434113.3644   25434118.4914
      3526.8244       2748.1734         43.0004         37.0004
  21496048.2784  -16383273.71049 -12745031.79448  21496047.9754   21496051.6334
      -562.2224       -438.1094         55.0004         50.0004
  21962802.2734  -14730700.00748 -11397678.59447  21962800.8384   21962805.5784
     -2667.8244      -2078.8464         53.0004         47.0004
  21926612.8344  -11159960.21149  -8681546.66148  21926612.2744   21926614.0764
     -2614.1854      -2037.0354         54.0004         48.0004
  23544512.3254  -11094960.92548  -8589161.32547  23544511.2004   23544515.9634
      2296.0564       1789.1464         48.0004         42.0004
  24091411.3844   -7240707.28947  -5567123.09446  24091411.3304   24091419.6384
     -3428.8234      -2671.8024         45.0004         40.0004
  23957186.7304   -9817936.82147  -7592797.65146  23957187.1074   23957190.0994
      3084.4864       2403.4904         46.0004         41.0004
  22442798.7754  -14747778.05448 -11430454.45447  22442797.9594   22442803.0434
     -2334.2014      -1818.8204         51.0004         44.0004
  24322574.4714   -7359543.15147  -5676811.34646  24322574.6274   24322577.2354
     -3408.1894      -2655.7504         46.0004         40.0004
 11 10  1  0 11  0.0000000  0 10G05G21G29G10G02G16G30G07G13G23
  21170974.5954  -23413473.94149 -18237611.96248  21170974.3054   21170977.3474
      1374.3934       1070.9554         57.0004         51.0004
  25413981.6884   -3793190.38647  -2941289.06846  25413980.1574   25413986.9614
      3524.7114       2746.5394         44.0004         37.0004
  21499311.8604  -16366121.87849 -12731666.87148  21499311.6244   21499315.8934
      -582.4524       -453.8804         55.0004         50.0004
  21978070.5464  -14650462.05048 -11335154.87247  21978069.2914   21978074.8874
     -2682.2754      -2090.1024         53.0004         47.0004
  21941573.3134  -11081345.59549  -8620288.67448  21941572.2214   21941574.3544
     -2627.9474      -2047.7454         54.0004         48.0004
  23531447.2564  -11163619.04648  -8642661.24047  23531446.9474   23531452.1404
      2279.9104       1776.5394         48.0004         42.0004
  24111013.6504   -7137701.20247  -5486858.89446  24111011.3454   24111020.1504
     -3439.0994      -2679.8064         45.0004         40.0004
  23939606.2544   -9910322.64647  -7664786.64846  23939606.0504   23939609.8494
      3073.4094       2394.8394         46.0004         41.0004
  22456169.9644  -14677509.34448 -11375699.46447  22456169.9154   22456174.3554
     -2351.8014      -1832.6214         50.0004         44.0004
  24342051.8614   -7257188.56647  -5597054.30646  24342050.8364   24342054.1704
     -3416.7864      -2662.4414         47.0004         40.0004
 11 10  1  0 11 30.0000000  0 10G05G21G29G10G02G16G30G07G13G23
  21163179.2904  -23454437.56349 -18269531.77448  21163179.6594   21163182.3894
      1356.2874       1056.8564         57.0004         51.0004
  25393864.7464   -3898906.27246  -3023664.98746  25393863.5764   25393870.6814
      3523.2774       2745.4004         41.0004         37.0004
  21502693.6034  -16348348.74049 -12717817.40448  21502693.7364   21502697.5634
      -602.6654       -469.5854         55.0004         50.0004
  21993423.5114  -14569780.46748 -11272286.24447  21993422.2344   21993427.5944
     -2696.5784      -2101.2144         53.0004         47.0004
  21956614.8864  -11002301.91749  -8558696.39048  21956614.2834   21956615.8154
     -2641.8914      -2058.6374         54.0004         48.0004
  23518477.6614  -11231770.32947  -8695765.79446  23518478.2764   23518481.9594
      2263.5794       1763.8204         47.0004         41.0004
  24130676.4494   -7034374.73547  -5406345.06046  24130675.5774   24130682.6034
     -3449.2514      -2687.7214         45.0004         39.0004
  23922092.9824  -10002355.26347  -7736499.66446  23922092.5024   23922096.6834
      3061.9724       2385.9454         46.0004         41.0004
  22469642.7884  -14606710.74548 -11320531.27747  22469642.4334   22469645.7814
     -2368.6944      -1845.8024         51.0004         44.0004
  24361581.1804   -7154564.37047  -5517087.48346  24361580.4644   24361582.3994
     -3425.0934      -2668.8924         47.0004         40.0004
 11 10  1  0 12  0.0000000  0 10G05G21G29G10G02G16G30G07G13G23
  21155492.2764  -23494834.88749 -18301010.33048  21155492.1184   21155495.0304
      1337.0194       1041.8424         57.0004         51.0004
  25373762.1194   -4004547.30947  -3105982.43346  25373761.7824   25373769.0564
      3519.9024       2742.7794         44.0004         37.0004
  21506194.3464  -16329955.83049 -12703485.64748  21506194.2004   21506198.0994
      -623.6094       -485.9214         55.0004         50.0004
  22008861.3944  -14488654.69648 -11209071.39847  22008860.0144   22008864.8404
     -2711.7544      -2113.0534         53.0004         46.0004
  21971737.5504  -10922829.47949  -8496769.55148  21971736.8934   21971739.2444
     -2656.3244      -2069.8794         54.0004         48.0004
  23505605.5854  -11299412.57047  -8748474.02446  23505605.2854   23505608.7794
      2246.1864       1750.2464         47.0004         41.0004
  24150398.6774   -6930729.53547  -5325582.50346  24150397.4374   24150407.1184
     -3460.1464      -2696.2204         45.0004         40.0004
  23904646.9194  -10094032.72447  -7807936.49747  23904647.0854   23904650.2224
      3050.1074       2376.6934         46.0004         42.0004
  22483215.7374  -14535386.90348 -11264955.11147  22483215.3064   22483219.0374
     -2386.4064      -1859.4724         52.0004         45.0004
  24381160.3674   -7051671.75847  -5436911.64246  24381160.1984   24381162.7174
     -3434.3274      -2676.0844         46.0004         40.0004
 11 10  1  0 12 30.0000000  0 10G05G21G29G10G02G16G30G07G13G23
  21147912.2274  -23534667.15449 -18332048.55148  21147912.3164   21147915.4894
      1318.6184       1027.4934         57.0004         51.0004
  25353672.6204   -4110114.65646  -3188242.59946  25353670.7424   25353678.2584
      3517.8324       2741.1544         41.0004         36.0004
  21509812.6084  -16310946.25549 -12688673.98848  21509812.3224   21509816.2684
      -643.5074       -501.3774         55.0004         50.0004
  22024382.4164  -14407089.90548 -11145514.36647  22024381.7124   22024386.5674
     -2725.6004      -2123.8484         53.0004         46.0004
  21986941.0924  -10842934.10149  -8434513.36448  21986940.6884   21986942.2884
     -2669.8724      -2080.4174         54.0004         48.0004
  23492831.0204  -11366544.90648  -8800784.70347  23492829.8124   23492835.8484
      2229.4934       1737.2374         48.0004         42.0004
  24170182.0754   -6826772.18447  -5244576.94146  24170180.9494   24170188.7024
     -3469.8154      -2703.7554         45.0004         40.0004
  23887268.9084  -10185354.12047  -7879096.01647  23887269.0744   23887272.0384
      3038.3064       2367.5124         46.0004         42.0004
  22496888.3994  -14463537.41048 -11208968.00547  22496888.2284   22496891.1034
     -2403.3934      -1872.8284         52.0004         45.0004
  24400790.3904   -6948515.48547  -5356530.13046  24400789.9734   24400793.4044
     -3442.6714      -2682.6054         46.0004         40.0004
 11 10  1  0 13  0.0000000  0 10G05G21G29G10G02G16G30G07G13G23
  21140440.6064  -23573932.68149 -18362645.28248  21140440.8164   21140443.6854
      1299.2074       1012.3904         57.0004         51.0004
  25333598.6074   -4215605.87747  -3270443.42246  25333599.5614   25333604.0364
      3514.9444       2738.9144         43.0004         36.0004
  21513547.9844  -16291317.70349 -12673379.44448  21513548.1754   21513552.2004
      -664.5544       -517.8144         55.0004         50.0004
  22039987.4134  -14325087.58948 -11081616.35347  22039986.2194   22039990.8404
     -2740.8294      -2135.7274         53.0004         47.0004
  22002225.0694  -10762616.91448  -8371928.58648  22002223.9964   22002226.2264
     -2684.3934      -2091.7244         53.0004         48.0004
  23480153.6374  -11433165.28847  -8852696.69646  23480153.4744   23480157.0884
      2211.8984       1723.5484         47.0004         41.0004
  24190022.3334   -6722504.79847  -5163329.70946  24190022.1914   24190031.2004
     -3480.8224      -2712.3354         44.0004         39.0004
  23869959.7754  -10276315.58847  -7949975.08747  23869959.7094   23869963.8864
      3025.7764       2357.7544         47.0004         43.0004
  22510659.9124  -14391169.07348 -11152577.71147  22510659.7524   22510662.7504
     -2421.0584      -1886.5424         52.0004         45.0004
  24420470.8814   -6845097.73247  -5275944.89346  24420470.8614   24420472.4024
     -3451.8544      -2689.7724         46.0004         40.0004
 11 10  1  0 13 30.0000000  0 10G05G21G29G10G02G16G30G07G13G23
  21133076.9314  -23612629.51249 -18392798.82048  21133077.1834   21133080.1454
      1280.3364        997.6594         56.0004         51.0004
  25313539.0914   -4321019.03047  -3352583.63246  25313538.0114   25313545.0774
      3512.2964       2736.8524         42.0004         37.0004
  21517402.0584  -16271073.14549 -12657606.12348  21517401.7034   21517405.7934
      -685.1054       -533.8944         55.0004         50.0004
  22055674.5204  -14242649.67948 -11017378.87047  22055673.3534   22055678.1894
     -2755.1424      -2146.8754         53.0004         47.0004
  22017589.0804  -10681879.16349  -8309016.21948  22017588.6184   22017590.3944
     -2698.3824      -2102.6194         54.0004         48.0004
  23467573.2454  -11499270.52947  -8904207.32346  23467572.9904   23467577.7954
      2194.7354       1710.1654         46.0004         41.0004
  24209923.6354   -6617929.65847  -5081842.55946  24209922.8684   24209930.5894
     -3490.9994      -2720.2554         45.0004         39.0004
  23852719.6764  -10366913.74948  -8020571.05047  23852719.3654   23852723.1074
      3013.8744       2348.4514         48.0004         43.0004
  22524529.6934  -14318280.21748 -11095781.27747  22524529.3074   22524533.6544
     -2438.3344      -1900.0114         51.0004         44.0004
  24440199.4634   -6741421.18447  -5195158.25246  24440199.8304   24440200.6794
     -3460.0874      -2696.1884         46.0004         40.0004
 11 10  1  0 14  0.0000000  0 10G05G21G29G10G02G16G30G07G13G23
  21125821.1014  -23650757.63449 -18422508.71648  21125821.1994   21125824.2124
      1261.6234        983.0764         57.0004         51.0004
  25293495.4164   -4426353.60247  -3434662.53846  25293493.3044   25293499.9994
      3510.1894       2735.2164         44.0004         37.0004
  21521371.5434  -16250207.20249 -12641345.60548  21521371.0204   21521375.3794
      -705.8164       -550.0184         55.0004         50.0004
  22071443.9254  -14159780.48148 -10952805.33747  22071442.8194   22071447.5454
     -2769.2674      -2157.8414         52.0004         46.0004
  22033032.1014  -10600724.53048  -8245778.95847  22033031.9454   22033034.0274
     -2711.7904      -2113.0794         53.0004         47.0004
  23455093.0274  -11564861.71447  -8955318.22346  23455092.1864   23455097.0124
      2177.9524       1697.1304         46.0004         41.0004
  24229880.8204   -6513052.39347  -5000120.11446  24229880.1314   24229887.1904
     -3500.8744      -2727.9514         44.0004         39.0004
  23835548.3834  -10457146.53848  -8090881.84547  23835548.9864   23835551.1284
      3001.6464       2338.9274         48.0004         43.0004
  22538498.6264  -14244877.06248 -11038584.51847  22538497.9744   22538502.6764
     -2454.9804      -1912.9434         51.0004         44.0004
  24459977.1604   -6637489.16847  -5114172.25746  24459976.7964   24459979.5024
     -3468.6204      -2702.8104         47.0004         40.0004
 11 10  1  0 14 30.0000000  0 10G05G21G29G10G02G16G30G07G13G23
  21118674.3044  -23688315.20949 -18451774.32148  21118674.3904   21118677.0814
      1242.4064        968.1004         57.0004         51.0004
  25273465.8704   -4531605.30447  -3516676.80846  25273465.0124   25273471.7104
      3506.8644       2732.6124         43.0004         37.0004
  21525458.7654  -16228726.28349 -12624606.85648  21525458.8814   21525462.8674
      -726.2644       -565.8764         55.0004         50.0004
  22087295.7844  -14076480.32748 -10887896.11147  22087294.0074   22087298.6284
     -2783.6854      -2169.1044         52.0004         46.0004
  22048554.8664  -10519152.79548  -8182216.61747  22048554.2744   22048556.0324
     -2725.8364      -2124.0334         53.0004         47.0004
  23442710.7394  -11629931.83947  -9006022.73047  23442710.0824   23442715.9984
      2160.2924       1683.3354         46.0004         42.0004
  24249895.3164   -6407873.38647  -4918162.26946  24249894.9184   24249903.2194
     -3511.0954      -2735.9214         45.0004         39.0004
  23818447.8014  -10547010.12648  -8160905.02147  23818447.3104   23818451.1554
      2989.3764       2329.3454         48.0004         43.0004
  22552565.0274  -14170958.36748 -10980985.66647  22552564.9734   22552568.1564
     -2472.5844      -1926.7124         51.0004         44.0004
  24479803.1954   -6533302.99547  -5032988.35046  24479803.3204   24479805.1544
     -3476.9984      -2709.3354         46.0004         40.0004
 11 10  1  0 15  0.0000000  0 10G05G21G29G10G02G16G30G07G13G23
  21111636.8784  -23725295.55649 -18480590.18548  21111636.9184   21111640.1214
      1223.2524        953.1804         57.0004         51.0004
  25253454.2654   -4636768.08347  -3598621.75046  25253454.7404   25253460.3394
      3504.5374       2730.8064         44.0004         38.0004
  21529664.4534  -16206624.34249 -12607384.64848  21529664.7174   21529668.8414
      -746.8904       -581.9664         55.0004         50.0004
  22103229.7274  -13992747.44548 -10822650.12147  22103228.2744   22103232.8354
     -2798.1214      -2180.3454         52.0004         46.0004
  22064157.4004  -10437161.04048  -8118326.94747  22064157.0314   22064158.8024
     -2739.7674      -2134.8754         53.0004         47.0004
  23430429.9434  -11694473.87248  -9056315.56247  23430428.9034   23430434.1704
      2142.8314       1669.7534         48.0004         42.0004
  24269968.2804   -6302391.65747  -4835968.87146  24269967.6204   24269974.8454
     -3521.1804      -2743.7714         45.0004         39.0004
  23801418.4074  -10636495.64947  -8230633.15147  23801418.1894   23801421.8054
      2976.7274       2319.5194         47.0004         43.0004
  22566729.3374  -14096522.19648 -10922983.45747  22566729.8394   22566733.3854
     -2489.6304      -1939.9964         51.0004         44.0004
  24499677.8994   -6428860.30447  -4951604.63246  24499677.3154   24499679.5834
     -3485.2634      -2715.7554         46.0004         39.0004
 11 10  1  0 15 30.0000000  0 10G05G21G29G10G02G16G30G07G13G23
  21104706.2294  -23761717.49549 -18508971.05548  21104706.4514   21104709.2714
      1203.9814        938.1764         57.0004         51.0004
  25233456.2064   -4741859.19347  -3680510.97546  25233455.6224   25233462.4684
      3500.8674       2727.9444         43.0004         38.0004
  21533985.1254  -16183921.17849 -12589693.92448  21533984.8144   21533989.0474
      -767.5374       -598.0924         55.0004         50.0004
  22119241.9534  -13908603.81348 -10757084.35447  22119241.0724   22119245.4724
     -2812.2944      -2191.3484         52.0004         46.0004
  22079836.0024  -10354771.16348  -8054127.20547  22079835.2594   22079837.7764
     -2753.7724      -2145.7994         53.0004         47.0004
  23418244.1494  -11758506.22847  -9106211.61247  23418244.2034   23418250.2004
      2125.0374       1655.9064         47.0004         42.0004
  24290093.0134   -6196629.01847  -4753556.29946  24290092.7314   24290100.8364
     -3530.8324      -2751.2954         43.0004         39.0004
  23784457.8394  -10725622.06247  -8300082.03047  23784458.4934   23784460.8784
      2964.0534       2309.6714         47.0004         42.0004
  22580987.9294  -14021591.32648 -10864595.78647  22580988.1214   22580991.3334
     -2506.7664      -1953.3304         50.0004         44.0004
  24519597.4834   -6324183.49147  -4870038.61746  24519596.1994   24519601.0074
     -3493.8524      -2722.4704         45.0004         39.0004
 11 10  1  0 16  0.0000000  0 10G05G21G29G10G02G16G30G07G13G23
  21097886.6334  -23797555.68049 -18536896.96548  21097886.8354   21097889.5984
      1184.8404        923.2454         57.0004         51.0004
  25213476.4334   -4846853.42847  -3762324.46946  25213473.7744   25213483.3184
      3498.5334       2726.1244         43.0004         38.0004
  21538423.9394  -16160594.38349 -12571517.33048  21538423.9784   21538428.2384
      -787.7004       -613.7754         55.0004         50.0004
  22135336.7894  -13824026.35448 -10691179.86047  22135335.2904   22135340.5514
     -2826.4434      -2202.4504         52.0004         46.0004
  22095594.0924  -10271961.63148  -7989600.40347  22095593.3884   22095595.7584
     -2767.3344      -2156.3594         53.0004         47.0004
  23406162.4204  -11822001.59148  -9155688.66747  23406162.7424   23406166.9854
      2107.4194       1642.1534         48.0004         42.0004
  24310277.5424   -6090565.97247  -4670909.77246  24310276.5564   24310283.4334
     -3540.3894      -2758.7504         44.0004         39.0004
  23767571.0634  -10814362.10347  -8369230.01747  23767570.5774   23767574.6744
      2951.5174       2299.8714         47.0004         42.0004
  22595345.3054  -13946143.98348 -10805805.55147  22595345.1134   22595349.6034
     -2523.3964      -1966.3024         51.0004         44.0004
  24539565.3204   -6219251.56147  -4788273.89746  24539563.8234   24539566.9924
     -3501.9474      -2728.8044         45.0004         39.0004
 11 10  1  0 16 30.0000000  0 10G05G21G29G10G02G16G30G07G13G23
  21091175.6154  -23832820.66049 -18564375.94148  21091175.6824   21091178.4464
      1166.2594        908.7634         57.0004         51.0004
  25193513.7204   -4951760.49347  -3844070.22346  25193512.7344   25193519.2234
      3495.7074       2723.9264         44.0004         38.0004
  21542979.5314  -16136654.99149 -12552863.09548  21542979.2804   21542983.4734
      -807.9034       -629.5574         55.0004         50.0004
  22151510.4634  -13739028.63148 -10624947.28047  22151509.1624   22151515.1144
     -2839.9534      -2212.9624         52.0004         46.0004
  22111429.4214  -10188745.70548  -7924756.98847  22111428.7394   22111431.2034
     -2780.2964      -2166.4554         53.0004         47.0004
  23394180.0694  -11884969.72748  -9204754.69947  23394179.5564   23394184.8644
      2090.3864       1628.8754         48.0004         42.0004
  24330513.8904   -5984216.48347  -4588039.93346  24330514.1374   24330522.2454
     -3549.4814      -2765.8304         44.0004         39.0004
  23750756.3044  -10902723.62348  -8438082.88547  23750756.4664   23750759.8524
      2939.3114       2290.3574         48.0004         43.0004
  22609798.0474  -13870195.04548 -10746624.90047  22609797.7814   22609801.9624
     -2539.7654      -1979.0534         51.0004         44.0004
  24559579.4254   -6114078.10047  -4706320.84346  24559579.6374   24559582.4484
     -3508.9654      -2734.2314         44.0004         39.0004
 11 10  1  0 17  0.0000000  0 10G05G21G29G10G02G16G30G07G13G23
  21084574.3734  -23867510.04749 -18591406.65948  21084574.5614   21084577.4544
      1146.7854        893.6004         57.0004         51.0004
  25173566.9284   -5056576.26447  -3925744.72146  25173566.1974   25173573.2014
      3492.4384       2721.3674         44.0004         38.0004
  21547651.6164  -16112102.78849 -12533731.58248  21547651.4254   21547655.3454
      -828.5034       -645.5514         55.0004         50.0004
  22167764.4814  -13653613.05848 -10558389.51547  22167763.0644   22167767.6744
     -2853.8154      -2223.8024         52.0004         46.0004
  22127342.2344  -10105123.45048  -7859596.89247  22127341.4064   22127343.7954
     -2794.0804      -2177.2114         53.0004         47.0004
  23382299.1584  -11947405.24748  -9253405.27547  23382299.7564   23382302.3184
      2072.2524       1614.7104         49.0004         43.0004
  24350806.5954   -5877581.82747  -4504947.75346  24350805.5204   24350812.8804
     -3559.0304      -2773.2764         44.0004         39.0004
  23734014.7744  -10990702.08448  -8506637.22647  23734014.8044   23734017.5144
      2926.2164       2280.1454         48.0004         43.0004
  22624347.0374  -13793744.43148 -10687053.48247  22624347.1534   22624350.0954
     -2556.5034      -1992.0784         51.0004         44.0004
  24579639.3484   -6008663.70647  -4624180.01646  24579639.5824   24579643.4594
     -3517.7984      -2741.1234         44.0004         39.0004
 11 10  1  0 17 30.0000000  0 10G05G21G29G10G02G16G30G07G13G23
  21078083.2974  -23901623.16849 -18617988.83548  21078083.3534   21078086.5064
      1127.5974        878.6574         57.0004         51.0004
  25153639.9174   -5161299.04447  -4007346.84546  25153639.1354   25153646.2534
      3489.2584       2718.9044         45.0004         38.0004
  21552440.5864  -16086938.17649 -12514123.09648  21552440.4854   21552444.5364
      -848.8854       -661.4124         55.0004         50.0004
  22184097.6514  -13567781.71848 -10491507.93447  22184096.9574   22184101.1864
     -2867.6124      -2234.4874         52.0004         46.0004
  22143331.8594  -10021096.80348  -7794121.64547  22143331.3204   22143333.7784
     -2807.5174      -2187.6694         52.0004         47.0004
  23370517.8164  -12009307.95547  -9301640.80647  23370516.8444   23370524.1314
      2054.6294       1600.9854         47.0004         42.0004
  24371151.6674   -5770665.23447  -4421635.99346  24371151.0754   24371159.0514
     -3568.3894      -2780.5694         44.0004         39.0004
  23717346.1654  -11078294.37348  -8574890.61447  23717345.6824   23717348.3654
      2913.4794       2270.2544         48.0004         43.0004
  22638990.0874  -13716793.38448 -10627091.58947  22638990.4824   22638993.7724
     -2573.2554      -2005.1434         50.0004         44.0004
  24599744.9064   -5903010.54247  -4541852.84446  24599744.8574   24599746.8664
     -3525.6144      -2747.2584         45.0004         39.0004
 11 10  1  0 18  0.0000000  0 10G05G21G29G10G02G16G30G07G13G23
  21071701.8784  -23935159.60649 -18644121.70648  21071701.6394   21071705.4754
      1108.1274        863.4804         56.0004         51.0004
  25133728.4334   -5265928.48047  -4088876.31746  25133727.9574   25133736.3844
      3486.3764       2716.6604         42.0004         38.0004
  21557345.5194  -16061163.12049 -12494039.07748  21557345.4964   21557349.8904
      -869.1294       -677.2234         55.0004         50.0004
  22200509.4854  -13481538.03148 -10424305.24547  22200507.7784   22200512.9814
     -2881.4854      -2245.3234         52.0004         46.0004
  22159398.1994   -9936668.78648  -7728333.64547  22159397.6894   22159400.3694
     -2820.8114      -2198.0384         52.0004         47.0004
  23358840.9014  -12070676.44548  -9349460.28647  23358840.2354   23358844.8474
      2036.9574       1587.2384         49.0004         42.0004
  24391549.0204   -5663470.87747  -4338107.82346  24391547.2834   24391556.9044
     -3577.7384      -2787.8584         43.0004         39.0004
  23700751.5894  -11165499.22748  -8642842.34047  23700751.2174   23700754.4634
      2900.4044       2260.0614         48.0004         43.0004
  22653727.6174  -13639346.99348 -10566743.77247  22653726.4924   22653731.1814
     -2589.6754      -2017.9094         50.0004         43.0004
  24619894.6414   -5797123.50347  -4459343.73746  24619893.7954   24619897.7654
     -3533.4584      -2753.3464         45.0004         40.0004
 11 10  1  0 18 30.0000000  0 10G05G21G29G10G02G16G30G07G13G23
  21065429.9984  -23968117.70549 -18669803.19348  21065430.2274   21065433.6134
      1089.1754        848.7204         57.0004         51.0004
  25113836.4454   -5370463.43347  -4170332.28646  25113834.6614   25113842.1974
      3483.0134       2714.0544         44.0004         37.0004
  21562366.3934  -16034779.29849 -12473480.70448  21562366.6754   21562370.8634
      -889.6674       -693.2404         55.0004         50.0004
  22216999.0884  -13394884.95948 -10356783.51547  22216997.9324   22217002.5754
     -2895.4634      -2256.2214         51.0004         46.0004
  22175540.4504   -9851842.75048  -7662235.57747  22175539.9084   22175542.2064
     -2834.2814      -2208.5284         53.0004         47.0004
  23347264.2554  -12131508.96148  -9396862.08247  23347264.0344   23347269.6964
      2018.6524       1572.9624         48.0004         42.0004
  24412001.0474   -5556003.14247  -4254366.58246  24411999.8184   24412008.3824
     -3586.9854      -2795.0584         45.0004         40.0004
  23684230.6674  -11252315.86547  -8710492.13747  23684230.2764   23684233.5314
      2887.2614       2249.8474         47.0004         43.0004
  22668558.5274  -13561407.81048 -10506011.79647  22668558.3934   22668562.1324
     -2606.3704      -2030.9414         50.0004         44.0004
  24640088.5714   -5691005.51947  -4376654.48646  24640087.4374   24640092.2504
     -3541.1844      -2759.3534         47.0004         40.0004
 11 10  1  0 19  0.0000000  0 10G05G21G29G10G02G16G30G07G13G23
  21059268.5454  -24000497.14549 -18695034.16648  21059268.8494   21059272.0044
      1069.3824        833.2924         57.0004         51.0004
  25093962.6714   -5474900.25847  -4251711.69946  25093961.2074   25093968.0124
      3479.1954       2711.0564         43.0004         37.0004
  21567503.1534  -16007785.26849 -12452446.48848  21567502.9754   21567507.9804
      -910.4314       -709.4284         55.0004         50.0004
  22233565.9464  -13307821.41048 -10288940.63247  22233564.6484   22233569.2674
     -2909.6214      -2267.3324         52.0004         46.0004
  22191758.2064   -9766619.91648  -7595828.36847  22191757.3754   22191760.3104
     -2847.9414      -2219.1854         53.0004         47.0004
  23335791.3324  -12191802.51848  -9443844.08947  23335789.8444   23335795.5194
      2000.3164       1558.7084         49.0004         42.0004
  24432502.6994   -5448263.85547  -4170413.87646  24432502.3044   24432509.9594
     -3596.2884      -2802.3004         44.0004         39.0004
  23667784.9594  -11338739.77047  -8777836.07447  23667784.8544   23667788.8014
      2873.7204       2239.2874         46.0004         43.0004
  22683483.4434  -13482977.81548 -10444897.40147  22683483.4584   22683487.5134
     -2622.8484      -2043.7714         50.0004         44.0004
  24660325.5614   -5584658.05547  -4293786.39446  24660324.9484   24660329.1814
     -3548.9404      -2765.3894         47.0004         40.0004
 11 10  1  0 19 30.0000000  0 11G05G21G29G10G02G16G30G26G07G13G23
  21053217.5094  -24032296.45449 -18719812.89648  21053217.5714   21053220.8794
      1050.1764        818.3474         57.0004         52.0004
  25074107.9894   -5579237.49347  -4333013.32146  25074107.4334   25074113.3144
      3475.8064       2708.4154         44.0004         38.0004
  21572756.1724  -15980182.70549 -12430938.01648  21572756.0084   21572760.3274
      -930.4784       -725.0614         55.0004         50.0004
  22250209.4874  -13220352.73648 -10220782.19547  22250208.4984   22250212.6504
     -2922.2464      -2277.0954         52.0004         46.0004
  22208050.5314   -9681001.95248  -7529113.30247  22208050.1874   22208052.6044
     -2860.6584      -2229.0724         52.0004         47.0004
  23324419.4154  -12251554.11247  -9490403.61346  23324419.5824   23324423.8084
      1982.3864       1544.7034         47.0004         41.0004
  24453055.7734   -5340256.91147  -4086252.85946  24453054.6264   24453062.8824
     -3604.8464      -2808.9664         44.0004         39.0004
  25024373.838
                                        43.000
  23651415.1004  -11424766.44547  -8844870.19047  23651414.9044   23651418.4424
      2860.5534       2229.0214         46.0004         42.0004
  22698500.7524  -13404060.11248 -10383403.19247  22698501.0344   22698504.2314
     -2638.9024      -2056.2794         50.0004         44.0004
  24680606.4574   -5478084.84947  -4210743.05346  24680605.8684   24680609.3034
     -3556.5214      -2771.3154         46.0004         40.0004
 11 10  1  0 20  0.0000000  0 11G05G21G29G10G02G16G30G26G07G13G23
  21047277.3504  -24063514.82949 -18744139.54048  21047277.5194   21047280.8594
      1030.8454        803.2594         56.0004         51.0004
  25054272.6444   -5683472.57647  -4414235.39446  25054271.6494   25054277.6704
      3472.6274       2705.9384         43.0004         38.0004
  21578124.4574  -15951971.68349 -12408955.57048  21578124.5664   21578128.9404
      -950.6344       -740.7364         55.0004         50.0004
  22266930.6564  -13132481.32148 -10152310.52947  22266930.0904   22266934.7374
     -2936.0634      -2287.7294         51.0004         46.0004
  22224417.9964   -9594989.82048  -7462091.12647  22224417.7384   22224419.8584
     -2873.7654      -2239.3014         52.0004         47.0004
  23313153.2334  -12310761.77847  -9536539.37147  23313152.3484   23313158.0404
      1964.4504       1530.7394         47.0004         42.0004
  24473659.7974   -5231983.19247  -4001883.79746  24473658.5584   24473666.8794
     -3613.7514      -2815.8994         43.0004         39.0004
  24998891.205
                                        42.000
  23635121.4204  -11510393.98447  -8911593.74447  23635121.8614   23635125.4134
      2847.2194       2218.6084         47.0004         43.0004
  22713610.7654  -13324655.04448 -10321528.79747  22713611.0954   22713613.8034
     -2655.1234      -2068.9454         50.0004         44.0004
  24700929.7264   -5371285.69647  -4127523.06846  24700929.5164   24700932.3734
     -3563.8364      -2776.9844         47.0004         40.0004
