     2.11           OBSERVATION DATA    G (GPS)             RINEX VERSION / TYPE
teqc  2016Apr1                          20160930 07:51:16UTCPGM / RUN BY / DATE
Linux 2.4.20-8|Pentium IV|gcc|Linux|486/DX+                 COMMENT
teqc  2016Apr1                          20160816 03:20:12UTCCOMMENT
teqc  2009Mar23                         20111001 01:06:10UTCCOMMENT
Linux 2.4.20-8|Pentium IV|gcc -static|Linux|486/DX+         COMMENT
    P1 =    P1  TurboRogue; =    Y1  Benchmark              COMMENT
    L1 = L1(CA)                                             COMMENT
    P2 =    P2  TurboRogue; =    Y2  Benchmark              COMMENT
    L2 = L2(P2) TurboRogue; = L2(Y2) Benchmark              COMMENT
 SNR is mapped to RINEX snr flag value [0-9]                COMMENT
  L1 & L2: min(max(int(snr_dBHz/6), 0), 9)                  COMMENT
STJO CACS-GSD 920000 ST. JOHN'S NL CANADA                   MARKER NAME
40101M001                                                   MARKER NUMBER
OPERATOR            NRCan/GEODETIC SURVEY OF CANADA         OBSERVER / AGENCY
T292-U              AOA SNR-8000 ACT    3.3.32.2N           REC # / TYPE / VERS
362                 AOAD/M_T        NONE                    ANT # / TYPE
  2612631.2000 -3426807.0000  4686757.8000                  APPROX POSITION XYZ
        0.1000        0.0000        0.0000                  ANTENNA: DELTA H/E/N
     1     1                                                WAVELENGTH FACT L1/2
     7    L1    L2    C1    P2    P1    S1    S2            # / TYPES OF OBSERV
    30.0000                                                 INTERVAL
teqc windowed: start @ 2011 Oct  1 00:10:00.000             COMMENT
teqc windowed:  end  @ 2011 Oct  1 00:20:00.000             COMMENT
  2011    10     1     0    10    0.0000000     GPS         TIME OF FIRST OBS
                                                            END OF HEADER
 11 10  1  0 10  0.0000000  0  9G02G26G29G04G08G07G05G10G13
 105897867.820 7  82517826.412 7  20151688.546    20151686.052    20151688.285
        45.000          44.000
 118267167.929 5  92156229.124 4  22505501.264    22505502.682    22505500.996
        31.000          24.900
 118539215.466 5  92368220.332 4  22557263.626    22557263.651    22557263.509
        34.000          29.000
 122044670.443 4  95099755.059 3  23224317.966    23224320.307    23224318.394
        24.900          23.000
 127958523.844 3  99707937.319 2  24349700.494    24349701.902    24349700.108
        19.300          15.100
 123748811.154 3  96427646.778 3  23548614.863    23548616.032    23548615.203
        23.800          23.000
 107643203.515 7  83877820.760 7  20483821.548    20483821.409    20483821.816
        46.000          46.000
 113718097.367 6  88611507.715 5  21639833.226    21639833.674    21639832.477
        38.000          31.000
 126992749.777 2  98955395.420    24165912.941    24165912.122    24165912.686
        17.000           3.000
 11 10  1  0 10 30.0000000  0  9G02G26G29G04G08G07G05G10G13
 105924442.312 7  82538533.816 7  20156745.379    20156743.000    20156745.141
        45.000          44.000
 118150049.710 5  92064968.263 4  22483214.117    22483215.647    22483214.026
        31.000          25.900
 118494464.630 5  92333349.601 5  22548747.225    22548747.970    22548747.406
        35.100          31.000
 122143717.601 4  95176934.638 3  23243166.829    23243168.778    23243166.787
        24.900          23.000
 127876146.776 3  99643747.455 3  24334024.731    24334026.913    24334024.395
        19.300          19.300
 123708211.882 4  96396011.024 3  23540889.918    23540890.011    23540889.830
        25.900          21.100
 107617768.973 7  83858001.652 7  20478981.513    20478981.314    20478981.759
        46.000          46.000
 113795028.528 6  88671454.067 5  21654472.808    21654473.389    21654472.017
        38.000          32.000
 127096899.262 2  99036550.914 1  24185731.325    24185731.383    24185731.262
        13.900           9.000
 11 10  1  0 11  0.0000000  0  9G02G26G29G04G08G07G05G10G13
 105951517.123 7  82559631.087 7  20161897.583    20161895.051    20161897.301
        45.000          44.000
 118033221.932 5  91973933.700 4  22460982.828    22460983.833    22460982.594
        32.000          25.900
 118450263.397 5  92298907.121 5  22540336.106    22540336.635    22540336.198
        34.000          30.100
 122242953.514 4  95254261.314 3  23262050.885    23262052.408    23262051.097
        27.100          22.100
 127794017.927 3  99579750.987 2  24318396.400    24318398.035    24318396.308
        21.100          16.100
 123668120.277 4  96364770.830 3  23533260.321    23533260.932    23533260.463
        27.100          23.000
 107592702.412 7  83838469.317 7  20474211.529    20474211.253    20474211.748
        46.000          46.000
 113872184.980 6  88731575.982 5  21669155.336    21669155.846    21669154.496
        38.000          32.000
 127201275.799 2  99117883.317 1  24205592.821    24205593.330    24205592.723
        15.100           6.500
 11 10  1  0 11 30.0000000  0  9G02G26G29G04G08G07G05G10G13
 105979067.137 7  82581098.643 7  20167140.163    20167137.670    20167139.864
        45.000          44.000
 117916662.177 5  91883107.997 4  22438801.896    22438803.023    22438801.612
        31.000          25.900
 118406587.616 5  92264874.066 5  22532024.660    22532025.289    22532024.848
        34.000          31.000
 122342351.104 4  95331713.964 3  23280966.300    23280967.514    23280966.073
        25.900          22.100
 127712114.395 3  99515930.112 2  24302810.894    24302812.037    24302810.408
        22.100          13.900
 123628512.302 4  96333907.506 3  23525723.575    23525723.525    23525723.486
        27.100          23.000
 107567977.911 7  83819203.482 7  20469506.565    20469506.418    20469506.669
        46.000          47.000
 113949539.274 6  88791852.055 5  21683875.593    21683875.850    21683874.664
        38.000          32.000
 127305851.128 2  99199370.612 1  24225493.750    24225493.656    24225493.421
        13.900           9.000
 11 10  1  0 12  0.0000000  0  9G02G26G29G04G08G07G05G10G13
 106007114.107 7  82602953.438 7  20172477.318    20172474.935    20172476.986
        45.000          44.000
 117800395.189 5  91792510.435 4  22416676.786    22416678.606    22416676.447
        31.000          28.100
 118363460.762 5  92231268.740 5  22523817.889    22523818.934    22523818.143
        34.000          31.000
 122441930.924 4  95409308.608 3  23299915.091    23299916.851    23299915.193
        25.900          23.000
 127630461.327 2  99452304.385 2  24287272.566    24287274.336    24287272.086
        17.800          15.100
 123589412.301 4  96303440.007 3  23518282.780    23518283.024    23518282.912
        28.100          23.000
 107543617.472 7  83800221.359 7  20464870.770    20464870.742    20464871.052
        46.000          46.000
 114027112.138 6  88852298.453 5  21698636.649    21698637.548    21698635.965
        38.000          32.000
 127410644.292 2  99281027.686 1  24245435.184    24245434.547    24245434.670
        12.600           9.000
 11 10  1  0 12 30.0000000  0  9G02G26G29G04G08G07G05G10G13
 106035679.564 7  82625212.244 7  20177913.013    20177910.762    20177912.695
        45.000          44.000
 117684445.324 5  91702159.974 4  22394611.680    22394613.664    22394611.779
        31.000          27.100
 118320905.774 5  92198108.999 5  22515720.016    22515720.915    22515720.239
        34.000          30.100
 122541713.370 4  95487061.145 3  23318902.941    23318904.590    23318903.140
        25.900          22.100
 127549083.350 3  99388893.013 2  24271786.745    24271788.476    24271785.835
        19.900          17.000
 123550843.662 4  96273386.575 4  23510943.347    23510943.991    23510943.736
        28.100          24.900
 107519642.551 7  83781539.619 7  20460308.778    20460308.380    20460308.916
        46.000          47.000
 114104923.401 6  88912930.611 5  21713443.690    21713444.712    21713442.854
        38.000          32.000
 127515674.157 1  99362869.181 1  24265420.308    24265420.308    24265420.513
        11.000           6.500
 11 10  1  0 13  0.0000000  0  9G02G26G29G04G08G07G05G10G13
 106064718.923 7  82647840.321 7  20183438.817    20183436.770    20183438.625
        45.000          44.000
 117568771.099 5  91612024.289 4  22372600.072    22372601.558    22372599.735
        32.000          27.100
 118278879.500 5  92165361.252 5  22507722.790    22507723.514    22507722.957
        34.000          31.000
 122641652.158 4  95564935.516 3  23337921.054    23337922.298    23337920.959
        24.900          21.100
 127467938.809 3  99325663.570 2  24256344.876    24256347.065    24256345.025
        19.900          13.900
 123512763.676 4  96243713.881 3  23503697.397    23503696.908    23503697.326
        28.100          22.100
 107496008.716 7  83763123.658 7  20455811.419    20455811.024    20455811.602
        46.000          47.000
 114182927.373 6  88973712.931 5  21728287.210    21728288.203    21728286.510
        37.000          32.000
 127620893.143 1  99444858.062    24285441.739    24285443.270    24285442.821
        11.000           3.000
 11 10  1  0 13 30.0000000  0  9G02G26G29G04G08G07G05G10G13
 106094240.328 7  82670844.021 7  20189056.540    20189054.528    20189056.286
        45.000          44.000
 117453383.100 5  91522111.633 4  22350642.385    22350643.508    22350642.203
        32.000          25.900
 118237391.761 5  92133033.158 5  22499828.283    22499828.662    22499828.310
        35.100          31.000
 122741754.299 4  95642937.164 3  23356969.662    23356970.760    23356969.810
        24.900          21.100
 127387038.654 3  99262624.541 2  24240950.629    24240952.017    24240950.370
        22.100          16.100
 123475181.923 4  96214429.436 3  23496545.428    23496545.511    23496545.467
        28.100          23.000
 107472723.803 7  83744979.602 7  20451380.126    20451380.042    20451380.416
        46.000          47.000
 114261130.416 6  89034650.371 5  21743169.053    21743169.866    21743168.288
        38.000          32.000
 127726306.677 2  99526998.490 1  24305500.878    24305503.233    24305502.424
        12.600           9.000
 11 10  1  0 14  0.0000000  0  9G02G26G29G04G08G07G05G10G13
 106124299.814 7  82694267.004 7  20194776.673    20194774.547    20194776.542
        45.000          44.000
 117338340.612 5  91432468.214 4  22328750.529    22328751.610    22328750.340
        33.000          25.900
 118196499.892 5  92101169.457 5  22492046.577    22492047.126    22492046.653
        35.100          31.000
 122842074.254 3  95721108.534 3  23376059.543    23376061.280    23376059.903
        23.800          21.100
 127306442.182 3  99199822.135 2  24225613.355    24225615.249    24225613.274
        23.000          15.100
 123438156.745 4  96185578.678 3  23489499.930    23489499.532    23489500.068
        28.100          21.100
 107449843.713 7  83727150.949 7  20447026.040    20447026.148    20447026.384
        46.000          47.000
 114339587.396 6  89095785.688 5  21758098.918    21758099.540    21758098.151
        38.000          32.000
 127831968.373 2  99609332.304 1  24325609.089    24325609.919    24325609.238
        12.600           9.000
 11 10  1  0 14 30.0000000  0  9G02G26G29G04G08G07G05G10G13
 106154874.602 7  82718091.523 7  20200595.111    20200592.674    20200594.820
        45.000          44.000
 117223623.581 5  91343078.391 4  22306920.354    22306921.490    22306920.293
        32.000          25.900
 118156182.239 5  92069753.141 5  22484373.899    22484374.976    22484374.241
        34.000          32.000
 122942588.172 4  95799431.056 3  23395186.477    23395188.304    23395186.737
        24.900          19.900
 127226129.272 3  99137240.693 2  24210329.732    24210331.935    24210329.602
        22.100          16.100
 123401667.009 4  96157145.152 3  23482555.558    23482555.668    23482556.107
        27.100          23.000
 107427345.793 7  83709620.067 7  20442744.939    20442744.939    20442745.233
        46.000          47.000
 114418274.235 6  89157100.112 5  21773072.904    21773073.280    21773071.997
        38.000          32.000
 127937852.465 2  99691839.416 1  24345758.546    24345758.936    24345758.568
        12.600           9.000
 11 10  1  0 15  0.0000000  0  9G02G26G29G04G08G07G05G10G13
 106185870.991 7  82742244.563 7  20206493.636    20206491.165    20206493.257
        45.000          44.000
 117109141.178 5  91253871.396 4  22285135.127    22285136.387    22285135.034
        33.000          27.100
 118116347.133 5  92038712.868 5  22476794.139    22476794.736    22476794.102
        35.100          32.000
 123043200.698 4  95877830.432 3  23414332.760    23414334.137    23414332.937
        24.900          19.300
 127146009.293 3  99074809.598 2  24195083.986    24195085.343    24195083.693
        23.000          17.000
 123365620.804 4  96129057.230 3  23475696.957    23475696.636    23475697.066
        27.100          22.100
 107405136.607 7  83692314.241 7  20438518.767    20438518.523    20438519.065
        46.000          47.000
 114497095.615 6  89218519.371 5  21788072.270    21788072.322    21788071.253
        37.000          31.000
 128043862.577 2  99774444.746    24365931.681    24365931.784    24365931.954
        15.100
 11 10  1  0 15 30.0000000  0  9G02G26G29G04G08G07G05G10G13
 106217476.625 7  82766872.335 7  20212507.803    20212505.465    20212507.469
        45.000          44.000
 116995084.204 5  91164995.893 4  22263431.082    22263432.098    22263430.812
        33.000          28.100
 118077183.215 5  92008195.574 5  22469340.994    22469341.998    22469341.096
        34.000          32.000
 123144098.359 4  95956451.959 3  23433533.493    23433534.633    23433533.566
        24.900          19.300
 127066273.103 3  99012677.545 3  24179910.887    24179911.937    24179910.519
        22.100          19.300
 123330207.459 4  96101462.452 3  23468957.167    23468957.542    23468957.384
        25.900          23.000
 107383403.540 7  83675379.429 7  20434383.229    20434382.865    20434383.402
        46.000          47.000
 114576237.578 6  89280188.441 5  21803131.654    21803132.405    21803131.015
        37.000          31.000
 128150183.230 1  99857292.031    24386162.928    24386163.537    24386163.699
         9.000           3.000
 11 10  1  0 16  0.0000000  0  9G02G26G29G04G08G07G05G10G13
 106249571.246 7  82791881.142 7  20218615.125    20218612.934    20218614.903
        45.000          43.000
 116881335.334 5  91076360.489 4  22241785.106    22241786.894    22241784.966
        33.000          29.000
 118038571.622 5  91978108.626 5  22461993.558    22461994.081    22461993.670
        35.100          32.000
 123245159.629 4  96035200.991 3  23452765.663    23452766.197    23452765.386
        25.900          19.300
 126986803.387 3  98950753.134 3  24164788.396    24164789.535    24164787.978
        23.000          19.300
 123295308.953 4  96074268.843 3  23462316.607    23462316.303    23462316.428
        28.100          22.100
 107362026.957 7  83658722.389 7  20430315.249    20430315.086    20430315.488
        46.000          47.000
 114655578.834 6  89342012.796 5  21818230.041    21818230.583    21818229.103
        37.000          30.100
 128256692.341 1  99940286.154    24406431.553    24406431.304    24406431.505
         6.500           3.000
 11 10  1  0 16 30.0000000  0  9G02G26G29G04G08G07G05G10G13
 106282087.074 7  82817218.164 7  20224802.869    20224800.533    20224802.546
        45.000          43.000
 116767829.535 5  90987914.478 4  22220185.800    22220187.073    22220185.621
        33.000          28.100
 118000445.991 5  91948400.329 5  22454738.298    22454739.351    22454738.664
        35.100          32.000
 123346315.366 4  96114023.641 3  23472014.184    23472015.369    23472014.192
        25.900          19.300
 126907535.408 3  98888985.944 3  24149704.429    24149705.324    24149703.953
        23.000          19.900
 123260859.038 4  96047424.785 3  23455760.655    23455760.814    23455760.906
        27.100          22.100
 107340938.149 7  83642289.573 7  20426302.070    20426301.999    20426302.402
        46.000          47.000
 114735050.336 6  89403938.651 5  21833353.259    21833353.362    21833352.413
        37.000          30.100
 128363319.183 2 100023372.044 1  24426723.086    24426721.877    24426723.250
        12.600          11.000
 11 10  1  0 17  0.0000000  0  9G02G26G29G04G08G07G05G10G13
 106315092.724 7  82842936.862 7  20231083.719    20231081.274    20231083.333
        45.000          43.000
 116654638.861 5  90899714.019 4  22198645.765    22198647.776    22198645.725
        33.000          29.000
 117962876.851 5  91919125.745 5  22447589.261    22447589.896    22447589.232
        35.100          31.000
 123447633.301 4  96192972.669 3  23491294.705    23491295.023    23491294.577
        24.900          19.300
 126828540.997 3  98827431.912 2  24134671.715    24134673.221    24134671.461
        23.800          17.800
 123226928.262 4  96020985.256 3  23449304.432    23449304.299    23449304.620
        28.100          23.800
 107320206.405 7  83626134.950 7  20422357.012    20422356.864    20422357.291
        46.000          47.000
 114814719.716 6  89466018.684 5  21848513.602    21848513.735    21848512.794
        36.000          30.100
 128470130.168 2 100106601.433    24447048.804    24447047.636    24447048.838
        16.100           3.000
 11 10  1  0 17 30.0000000  0  9G02G26G29G04G08G07G05G10G13
 106348611.131 7  82869055.115 7  20237461.849    20237459.533    20237461.616
        45.000          43.000
 116541788.892 5  90811779.038 4  22177171.279    22177172.758    22177171.251
        33.000          29.000
 117925888.563 5  91890303.788 5  22440550.722    22440550.990    22440550.763
        35.100          31.000
 123549134.880 3  96272064.801 3  23510609.535    23510610.394    23510609.337
        23.800          19.300
 126749846.104 3  98766111.247 2  24119696.348    24119698.053    24119695.931
        23.000          17.800
 123193541.629 4  95994969.729 3  23442951.191    23442951.084    23442951.339
        28.100          23.800
 107299854.803 7  83610276.560 7  20418484.351    20418484.067    20418484.581
        46.000          47.000
 114894608.360 6  89528269.575 5  21863715.712    21863716.141    21863715.069
        36.000          31.000
 128577145.266 1 100189989.856 1  24467412.441    24467411.750    24467412.597
         9.000           9.000
 11 10  1  0 18  0.0000000  0  9G02G26G29G04G08G07G05G10G13
 106382625.510 7  82895559.845 7  20243934.625    20243932.254    20243934.267
        44.000          43.000
 116429265.858 5  90724098.817 4  22155758.760    22155760.281    22155758.682
        33.000          29.000
 117889465.229 5  91861922.061 5  22433619.331    22433620.054    22433619.366
        34.000          31.000
 123650801.927 3  96351285.864 3  23529955.584    23529956.900    23529955.192
        23.000          19.900
 126671437.058 3  98705013.340 3  24104775.894    24104776.920    24104775.755
        23.000          19.300
 123160683.984 4  95969366.405 3  23436698.092    23436698.755    23436698.298
        27.100          23.000
 107279866.169 7  83594701.057 7  20414680.532    20414680.344    20414680.820
        47.000          47.000
 114974698.095 6  89590677.160 5  21878956.249    21878956.924    21878955.627
        36.000          30.100
 128684344.628 2 100273521.876    24487811.380    24487811.321    24487811.802
        16.100           3.000
 11 10  1  0 18 30.0000000  0  9G02G26G29G04G08G07G05G10G13
 106417100.656 7  82922423.608 7  20250494.862    20250492.751    20250494.629
        44.000          43.000
 116317037.675 5  90636648.340 4  22134402.461    22134403.725    22134402.235
        33.000          28.100
 117853572.807 5  91833953.914 5  22426789.540    22426789.896    22426789.585
        35.100          32.000
 123752598.207 3  96430607.625 3  23549326.091    23549328.102    23549326.866
        23.000          19.300
 126593281.321 3  98644112.814 3  24089903.596    24089904.520    24089903.132
        23.000          19.900
 123128321.765 4  95944149.119 3  23430539.870    23430539.870    23430539.995
        27.100          23.000
 107260205.372 7  83579380.941 7  20410939.197    20410939.058    20410939.426
        46.000          47.000
 115054952.758 6  89653213.271 5  21894228.637    21894228.924    21894227.675
        36.000          30.100
 128791691.302 2 100357168.669 1  24508238.330    24508238.593    24508239.201
        13.900           6.500
 11 10  1  0 19  0.0000000  0  8G02G26G29G04G08G07G05G10
 106452117.782 7  82949709.692 7  20257158.368    20257156.258    20257158.178
        44.000          43.000
 116205188.799 5  90549493.446 4  22113118.096    22113119.786    22113118.086
        34.000          29.000
 117818294.826 5  91806464.547 5  22420076.208    22420076.624    22420076.332
        35.100          32.000
 123854603.793 3  96510092.493 2  23568737.174    23568739.203    23568737.635
        23.000          17.800
 126515463.936 3  98583475.925 3  24075095.600    24075095.968    24075094.993
        23.000          19.300
 123096538.151 4  95919382.706 3  23424491.361    23424491.787    23424491.633
        28.100          22.100
 107240954.601 7  83564380.347 7  20407275.905    20407275.819    20407276.114
        46.000          47.000
 115135452.400 5  89715940.261 5  21909546.680    21909547.731    21909545.872
        35.100          31.000
 11 10  1  0 19 30.0000000  0  8G02G26G29G04G08G07G05G10
 106487627.304 7  82977379.464 7  20263915.950    20263913.392    20263915.523
        45.000          43.000
 116093672.378 5  90462597.591 4  22091897.276    22091898.741    22091897.174
        33.000          29.000
 117783582.490 5  91779415.984 5  22413470.439    22413471.328    22413470.551
        34.000          31.000
 123956767.744 3  96589700.736 2  23588179.273    23588180.135    23588179.313
        23.800          17.800
 126437937.786 3  98523066.000 3  24060342.314    24060343.229    24060342.017
        23.000          21.100
 123065285.636 4  95895030.121 3  23418544.539    23418544.709    23418544.808
        29.000          23.000
 107222063.465 7  83549660.003 7  20403680.894    20403680.759    20403681.232
        46.000          47.000
 115216146.003 6  89778818.394 5  21924902.851    21924902.959    21924901.840
        36.000          30.100
 11 10  1  0 20  0.0000000  0  8G02G26G29G04G08G07G05G10
 106523617.514 7  83005423.797 7  20270764.591    20270762.120    20270764.258
        45.000          43.000
 115982479.882 5  90375954.161 5  22070738.014    22070739.497    22070738.181
        34.000          30.100
 117749425.782 5  91752800.435 5  22406971.043    22406971.454    22406970.955
        35.100          32.000
 124059076.988 3  96669422.230 2  23607647.687    23607648.762    23607647.845
        23.800          17.000
 126360694.365 4  98462876.380 2  24045643.546    24045644.222    24045643.399
        24.900          17.800
 123034553.857 4  95871083.295 3  23412696.447    23412696.693    23412696.551
        29.000          23.800
 107203520.663 7  83535211.085 7  20400152.400    20400152.018    20400152.669
        47.000          47.000
 115297020.567 5  89841837.525 4  21940292.309    21940293.012    21940291.611
        35.100          29.000
