     2.11           OBSERVATION DATA    M (MIXED)           RINEX VERSION / TYPE
teqc  2016Apr1                          20160930 07:51:16UTCPGM / RUN BY / DATE
Linux 2.4.20-8|Pentium IV|gcc|Linux|486/DX+                 COMMENT
teqc  2016Apr1                          20160816 03:32:09UTCCOMMENT
     2              OBSERVATION DATA    M (MIXED)           COMMENT
CCRINEXO V2.4.1 LH  imvp                02-OCT-11 06:17     COMMENT
no comments                                                 COMMENT
TPS2RIN 8.1         IMVP                01-OCT-11 06:17     COMMENT
BUILD MAY 14 2009 (C) TOPCON POSITIONING SYSTEMS            COMMENT
NJ11100100.JPS                                              COMMENT
SE TPS 00000000                                             COMMENT
NOVM                                                        MARKER NAME
12367M002                                                   MARKER NUMBER
                    SNIIM, NOVOSIBIRSK                      OBSERVER / AGENCY
00202               JPS LEGACY          2.6.0 OCT,24,2007 OBREC # / TYPE / VERS
RA0038              JPSREGANT_SD_E  NONE                    ANT # / TYPE
   452260.9734  3635878.5965  5203453.4067                  APPROX POSITION XYZ
        0.0800        0.0000        0.0000                  ANTENNA: DELTA H/E/N
     1     1                                                WAVELENGTH FACT L1/2
     7    C1    P1    P2    L1    L2    D1    D2            # / TYPES OF OBSERV
    30.0000                                                 INTERVAL
teqc windowed: start @ 2011 Oct  1 00:10:00.000             COMMENT
teqc windowed:  end  @ 2011 Oct  1 00:20:00.000             COMMENT
  2011    10     1     0    10    0.0000000     GPS         TIME OF FIRST OBS
    15                                                      LEAP SECONDS
                                                            END OF HEADER
 11 10  1  0 10  0.0000000  0 13G03G06G07G10G13G16G23R01R02R08R10R11
                                R19
  22588100.143    22588098.7904   22588103.4144  118701292.667 6  92494535.69842
      3199.202        2492.877
  22736751.087    22736750.3954   22736754.9464  119482476.448 6  93103239.36342
      2232.936        1739.965
  23294825.774    23294825.5634   23294827.4034  122415156.100 6  95388442.33442
      3118.987        2430.390
  22897800.114    22897798.3384   22897801.3544  120328760.164 6  93762689.94842
       145.585         113.429
  20426106.824    20426106.5814   20426107.9254  107339942.461 8  83641517.61545
       789.060         614.858
  20566449.872    20566448.6184   20566450.6774  108077460.240 8  84216234.55746
      -210.571        -164.081
  20499270.436    20499269.2814   20499269.5114  107724406.982 8  83941111.90045
     -1155.848        -900.657
  20578182.786    20578182.405    20578186.905   110002177.686 6  85557275.370 6
     -1374.557       -1069.094
  22271087.299    22271087.498    22271091.035   118842795.436 5  92433308.915 6
      2804.946        2181.626
  22756419.635    22756421.507    22756425.790   121859591.744 4  94779717.083 6
     -4378.812       -3405.734
  20085618.531    20085617.928    20085623.469   107067658.914 7  83274886.374 6
     -1947.363       -1514.615
  19976814.460    19976814.279    19976819.569   106750053.625 6  83027833.768 6
      1718.472        1336.584
  21929151.461    21929151.642    21929155.507   117306174.685 6  91238162.866 6
      -887.722        -690.443
 11 10  1  0 10 30.0000000  0 14G03G06G07G10G13G16G23R01R02R08R10R11
                                R19R20
  22569868.315    22569867.9714   22569871.2764  118605489.947 6  92419884.26942
      3187.639        2483.880
  22724046.039    22724044.7044   22724048.7004  119415709.124 6  93051212.86642
      2218.251        1728.511
  23277032.960    23277032.9734   23277034.6484  122321659.287 6  95315587.68142
      3114.171        2426.630
  22897028.101    22897026.1004   22897028.5434  120324703.404 6  93759528.81842
       124.927          97.359
  20421656.104    20421655.2954   20421656.8964  107316551.485 8  83623290.86645
       770.367         600.293
  20567707.541    20567706.3624   20567708.3504  108084069.594 8  84221384.69646
      -229.962        -179.194
  20505921.929    20505921.1094   20505921.3604  107759362.159 8  83968349.68445
     -1174.428        -915.143
  20585972.250    20585971.434    20585976.711   110043815.193 6  85589660.090 6
     -1401.236       -1089.845
  22255375.769    22255375.266    22255379.449   118758954.355 5  92368099.198 6
      2784.498        2165.716
  22780975.724    22780974.804    22780978.198   121991070.284 4  94881978.069 5
     -4386.477       -3411.706
  20096615.639    20096614.580    20096620.178   107126276.474 7  83320477.783 6
     -1960.363       -1524.722
  19967207.480    19967207.087    19967212.226   106698715.786 6  82987904.327 6
      1704.106        1325.419
  21934207.929    21934206.889    21934210.675   117333218.323 6  91259196.798 6
      -915.117        -711.752
  21937302.147                                   117308610.974 5
      3018.206
 11 10  1  0 11  0.0000000  0 14G03G06G07G10G13G16G23R01R02R08R10R11
                                R19R20
  22551704.167    22551704.5604   22551708.7334  118510039.429 6  92345507.28942
      3175.793        2474.648
  22711424.705    22711424.0584   22711427.7604  119349385.848 6  92999532.38842
      2203.348        1716.886
  23259270.708    23259269.5554   23259271.4874  122228310.107 6  95242848.09042
      3109.218        2422.768
  22896374.263    22896372.3594   22896376.6084  120321269.438 6  93756853.01542
       104.090          81.131
  20417312.026    20417311.4644   20417312.8644  107293723.966 8  83605503.18345
       751.539         585.614
  20569076.284    20569075.2494   20569077.3864  108091263.630 8  84226990.43046
      -249.525        -194.436
  20512680.467    20512679.4154   20512679.5974  107794877.794 8  83996024.18745
     -1193.180        -929.752
  20593911.262    20593911.055    20593916.119   110086255.916 6  85622669.525 6
     -1428.059       -1110.718
  22239779.842    22239779.634    22239783.314   118675730.745 5  92303369.699 6
      2763.792        2149.641
  22805571.812    22805570.829    22805573.916   122122778.440 4  94984417.685 5
     -4394.139       -3417.662
  20107685.348    20107684.663    20107690.098   107185286.028 7  83366374.078 6
     -1973.483       -1534.931
  19957681.338    19957681.189    19957686.350   106647812.507 6  82948312.878 6
      1689.542        1314.088
  21939417.973    21939416.488    21939419.950   117361085.476 6  91280871.235 6
      -942.570        -733.112
  21920423.566    21920424.288    21920432.305   117218359.235 4  91169864.806 6
      2998.713        2332.327
 11 10  1  0 11 30.0000000  0 14G03G06G07G10G13G16G23R01R02R08R10R11
                                R19R20
  22533609.487    22533608.7084   22533612.0204  118414943.979 6  92271406.93342
      3163.759        2465.247
  22698888.952    22698887.8124   22698892.0594  119283508.585 6  92948199.44142
      2188.362        1705.211
  23241534.522    23241533.2134   23241535.5554  122135109.190 6  95170224.01742
      3104.122        2418.799
  22895839.513    22895837.5824   22895840.2824  120318457.558 6  93754661.91442
        83.266          64.900
  20413075.499    20413074.7774   20413076.4464  107271461.116 8  83588155.49645
       732.548         570.814
  20570556.319    20570555.4154   20570557.3454  108099041.466 8  84233051.07846
      -269.082        -209.680
  20519545.595    20519544.4444   20519544.6194  107830953.368 8  84024135.00545
     -1211.946        -944.372
  20602000.922    20602000.353    20602005.250   110129497.741 6  85656302.039 6
     -1454.854       -1131.558
  22224298.554    22224299.499    22224303.459   118593127.851 5  92239122.987 6
      2742.914        2133.378
  22830209.116    22830208.567    22830211.539   122254712.169 4  95087032.745 5
     -4401.571       -3423.443
  20118828.744    20118828.009    20118833.476   107244686.133 7  83412574.131 6
     -1986.599       -1545.130
  19948236.696    19948236.909    19948241.973   106597344.210 7  82909059.752 6
      1674.907        1302.705
  21944781.400    21944779.588    21944783.521   117389774.547 6  91303184.947 6
      -970.128        -754.547
  21903658.460    21903656.681    21903664.090   117128693.209 4  91100124.606 6
      2978.830        2316.862
 11 10  1  0 12  0.0000000  0 14G03G06G07G10G13G16G23R01R02R08R10R11
                                R19R20
  22515581.320    22515579.6934   22515584.7414  118320207.353 6  92197586.19642
      3151.848        2455.994
  22686438.632    22686437.4384   22686441.3264  119218080.102 6  92897216.18343
      2173.494        1693.631
  23223827.193    23223826.8344   23223829.2964  122042058.058 6  95097716.65242
      3099.212        2414.978
  22895422.818    22895420.6244   22895424.3394  120316267.881 6  93752955.67142
        62.613          48.788
  20408946.615    20408946.1554   20408947.7814  107249764.023 7  83571248.65945
       713.791         556.198
  20572147.311    20572146.3384   20572148.4304  108107402.310 8  84239566.01546
      -288.395        -224.724
  20526517.252    20526516.0884   20526515.8134  107867588.314 8  84052681.69945
     -1230.466        -958.806
  20610239.854    20610239.139    20610243.826   110173538.982 6  85690556.326 6
     -1481.295       -1152.121
  22208939.241    22208937.100    22208941.116   118511149.772 5  92175362.265 6
      2722.125        2117.221
  22854887.662    22854887.487    22854890.718   122386867.663 4  95189820.263 5
     -4408.804       -3429.063
  20130045.168    20130044.416    20130049.957   107304475.721 7  83459077.121 6
     -1999.439       -1555.122
  19938874.292    19938873.931    19938879.066   106547311.656 7  82870145.528 6
      1660.449        1291.457
  21950295.771    21950296.095    21950299.997   117419284.024 5  91326136.739 6
      -997.309        -775.688
  21886998.954    21886998.524    21887006.341   117039617.344 4  91030843.432 6
      2959.189        2301.590
 11 10  1  0 12 30.0000000  0 14G03G06G07G10G13G16G23R01R02R08R10R11
                                R19R20
  22497622.561    22497621.0514   22497625.8614  118225832.452 6  92124047.31642
      3139.756        2446.566
  22674072.940    22674072.8664   22674076.3314  119153102.609 6  92846584.37243
      2158.360        1681.837
  23206148.954    23206148.6094   23206150.1364  121949157.912 6  95025326.93042
      3094.092        2410.994
  22895124.404    22895123.0234   22895126.0794  120314700.075 6  93751733.98742
        41.885          32.636
  20404925.807    20404925.0404   20404926.7974  107228634.112 8  83554783.78145
       694.844         541.437
  20573849.224    20573848.3484   20573850.2764  108116345.495 8  84246534.71946
      -307.800        -239.840
  20533594.624    20533593.6884   20533593.8084  107904781.860 8  84081663.66745
     -1249.102        -973.326
  20618627.491    20618626.859    20618631.903   110218377.226 6  85725430.501 6
     -1507.871       -1172.785
  22193691.841    22193692.099    22193696.371   118429799.597 5  92112089.925 6
      2701.111        2100.860
  22879607.004    22879606.699    22879611.284   122519240.497 4  95292776.838 6
     -4415.996       -3434.669
  20141333.880    20141333.479    20141339.253   107364653.259 7  83505881.840 6
     -2012.360       -1565.169
  19929593.285    19929592.617    19929597.877   106497715.813 7  82831570.976 6
      1645.905        1280.149
  21955968.049    21955966.025    21955969.705   117449612.899 6  91349725.849 6
     -1024.655        -796.954
  21870452.260    21870451.914    21870459.916   116951135.944 4  90962024.595 6
      2939.490        2286.272
 11 10  1  0 13  0.0000000  0 14G03G06G07G10G13G16G23R01R02R08R10R11
                                R19R20
  22479733.236    22479731.6684   22479736.2284  118131822.836 6  92050793.09342
      3127.585        2437.074
  22661794.502    22661794.0214   22661798.4174  119088578.609 6  92796305.95243
      2143.246        1670.061
  23188499.268    23188499.0714   23188499.7464  121856409.890 6  94953055.75942
      3089.075        2407.069
  22894944.161    22894942.8444   22894946.2564  120313754.360 6  93750997.07542
        21.165          16.495
  20401012.987    20401012.4064   20401013.9794  107208072.383 8  83538761.64745
       675.923         526.688
  20575661.654    20575660.6224   20575662.7504  108125869.938 8  84253956.35546
      -327.125        -254.906
  20540778.439    20540777.6944   20540777.8694  107942533.685 8  84111080.65545
     -1267.668        -987.796
  20627164.698    20627163.719    20627168.583   110264010.705 6  85760923.195 6
     -1534.317       -1193.361
  22178566.831    22178565.553    22178569.833   118349080.771 5  92049308.601 6
      2680.120        2084.542
  22904365.407    22904366.796    22904370.749   122651826.334 4  95395899.089 5
     -4423.047       -3440.155
  20152695.550    20152695.061    20152700.633   107425216.920 7  83552986.889 6
     -2025.201       -1575.159
  19920393.872    19920393.335    19920398.385   106448557.154 7  82793336.454 6
      1631.328        1268.807
  21961788.635    21961788.278    21961792.348   117480759.671 6  91373951.109 6
     -1051.852        -818.118
  21854017.241    21854018.062    21854024.806   116863253.047 4  90893671.267 6
      2919.237        2270.509
 11 10  1  0 13 30.0000000  0 14G03G06G07G10G13G16G23R01R02R08R10R11
                                R19R20
  22461913.351    22461912.8254   22461917.3814  118038181.335 6  91977825.70642
      3115.195        2427.424
  22649602.846    22649602.1304   22649606.6534  119024510.271 6  92746382.57043
      2127.944        1658.136
  23170879.261    23170878.1134   23170880.6084  121763814.855 6  94880903.78542
      3083.929        2403.053
  22894882.611    22894880.5364   22894884.3434  120313430.305 6  93750744.55942
         0.396           0.323
  20397208.611    20397208.0674   20397209.6284  107188080.220 8  83523183.32345
       656.842         511.820
  20577584.535    20577583.5924   20577585.4934  108135974.782 8  84261830.25146
      -346.474        -269.978
  20548068.582    20548067.5944   20548067.6044  107980842.898 8  84140931.97445
     -1286.278       -1002.297
  20635849.840    20635848.897    20635853.718   110310437.194 6  85797032.663 6
     -1560.755       -1213.921
  22163559.530    22163557.955    22163562.107   118268996.990 5  91987021.222 6
      2658.778        2067.938
  22929168.037    22929164.781    22929168.964   122784621.334 4  95499184.033 5
     -4430.012       -3445.567
  20164129.733    20164128.901    20164134.592   107486165.700 7  83600391.469 6
     -2038.080       -1585.179
  19911276.296    19911276.026    19911281.021   106399836.618 7  82755442.691 6
      1616.685        1257.419
  21967764.396    21967763.492    21967767.165   117512722.762 6  91398811.272 6
     -1079.049        -839.263
  21837695.164    21837695.860    21837703.629   116775972.436 4  90825786.398 6
      2899.244        2254.964
 11 10  1  0 14  0.0000000  0 14G03G06G07G10G13G16G23R01R02R08R10R11
                                R19R20
  22444165.373    22444164.1814   22444168.0844  117944911.246 6  91905147.72142
      3102.761        2417.725
  22637498.266    22637497.0784   22637501.3204  118960900.111 6  92696816.17243
      2112.677        1646.247
  23153288.554    23153287.5564   23153289.9034  121671374.187 6  94808872.10442
      3078.789        2399.039
  22894939.408    22894938.2064   22894940.4994  120313727.792 6  93750976.34942
       -20.229         -15.762
  20393513.121    20393512.3234   20393513.8744  107168658.924 8  83508049.83145
       637.852         497.027
  20579617.984    20579616.6104   20579618.6274  108146658.800 8  84270155.45446
      -365.746        -284.994
  20555464.624    20555463.7144   20555463.7364  108019709.105 8  84171217.31045
     -1304.808       -1016.728
  20644682.351    20644681.673    20644686.631   110357654.690 6  85833757.367 6
     -1587.079       -1234.396
  22148671.457    22148669.935    22148673.612   118189551.895 5  91925230.602 6
      2637.533        2051.419
  22954000.950    22954002.216    22954005.817   122917621.260 4  95602628.368 5
     -4436.604       -3450.678
  20175635.520    20175634.912    20175640.608   107547498.218 7  83648094.512 6
     -2050.773       -1595.047
  19902241.032    19902240.755    19902245.974   106351554.564 7  82717889.974 6
      1602.090        1246.069
  21973892.453    21973890.853    21973895.203   117545500.810 5  91424305.292 6
     -1106.171        -860.352
  21821486.705    21821486.961    21821495.191   116689298.790 4  90758373.591 6
      2878.933        2239.164
 11 10  1  0 14 30.0000000  0 14G03G06G07G10G13G16G23R01R02R08R10R11
                                R19R20
  22426488.574    22426486.6554   22426490.5564  117852015.877 6  91832761.74142
      3090.293        2408.021
  22625481.427    22625480.5634   22625484.3214  118897750.611 6  92647608.76643
      2097.271        1634.223
  23135726.735    23135727.2564   23135728.0564  121579089.022 6  94736961.59842
      3073.614        2395.017
  22895114.078    22895112.8944   22895116.3534  120314646.856 6  93751692.48742
       -40.932         -31.888
  20389925.952    20389925.2324   20389926.8734  107149809.612 8  83493362.03945
       618.789         482.173
  20581760.828    20581759.9034   20581761.8714  108157921.478 8  84278931.56246
      -385.037        -300.029
  20562966.293    20562965.4244   20562965.5884  108059131.674 8  84201936.17745
     -1323.300       -1031.144
  20653663.022    20653662.465    20653667.242   110405661.172 6  85871095.726 6
     -1613.297       -1254.787
  22133903.558    22133902.535    22133905.871   118110748.960 5  91863939.448 6
      2616.105        2034.735
  22978875.529    22978875.808    22978880.530   123050821.932 4  95706228.834 5
     -4443.123       -3455.758
  20187213.161    20187212.493    20187218.031   107609212.902 7  83696094.795 6
     -2063.459       -1604.914
  19893288.064    19893287.526    19893292.647   106303712.170 7  82680679.215 6
      1587.432        1234.667
  21980170.584    21980170.458    21980174.373   117579092.323 5  91450432.006 6
     -1133.216        -881.391
  21805394.031    21805393.404    21805400.636   116603235.565 4  90691435.552 6
      2858.549        2223.311
 11 10  1  0 15  0.0000000  0 14G03G06G07G10G13G16G23R01R02R08R10R11
                                R19R20
  22408880.935    22408880.8664   22408884.2714  117759498.162 6  91760670.04942
      3077.635        2398.159
  22613551.990    22613551.8684   22613556.6294  118835063.999 6  92598762.04443
      2081.823        1622.189
  23118194.938    23118194.9234   23118196.8684  121486960.371 6  94665173.05442
      3068.303        2390.865
  22895407.321    22895404.5024   22895409.1644  120316186.905 6  93752892.51442
       -61.650         -48.048
  20386448.187    20386447.5824   20386449.0164  107131533.345 8  83479120.78445
       599.653         467.259
  20584014.344    20584013.0884   20584015.0704  108169761.687 8  84288157.69345
      -404.264        -315.012
  20570573.904    20570572.9394   20570572.9894  108099109.635 8  84233087.82345
     -1341.848       -1045.596
  20662791.457    20662790.331    20662795.161   110454454.109 6  85909045.774 6
     -1639.520       -1275.182
  22119255.260    22119255.799    22119259.486   118032591.208 6  91803150.079 6
      2594.435        2017.898
  23003790.869    23003787.761    23003790.957   123184219.277 4  95809982.259 5
     -4449.909       -3461.039
  20198862.276    20198861.449    20198867.049   107671308.242 7  83744391.145 6
     -2076.160       -1614.795
  19884417.432    19884416.913    19884421.923   106256309.955 7  82643810.809 6
      1572.761        1223.263
  21986602.146    21986601.639    21986605.744   117613495.696 5  91477190.176 6
     -1160.289        -902.450
  21789416.193    21789413.615    21789421.329   116517787.083 4  90624975.661 6
      2837.992        2207.325
 11 10  1  0 15 30.0000000  0 14G03G06G07G10G13G16G23R01R02R08R10R11
                                R19R20
  22391348.762    22391347.4904   22391352.1834  117667361.407 6  91688875.20842
      3064.808        2388.149
  22601713.086    22601711.2124   22601715.7484  118772842.701 6  92550277.91543
      2066.218        1610.048
  23100693.511    23100693.1624   23100695.9844  121394989.254 6  94593507.25542
      3063.034        2386.787
  22895818.719    22895817.7674   22895819.4934  120318347.462 6  93754576.06742
       -82.400         -64.214
  20383079.497    20383078.9124   20383080.5154  107113830.847 8  83465326.61445
       580.455         452.297
  20586377.014    20586375.9834   20586377.9074  108182178.699 8  84297833.27846
      -423.520        -330.025
  20578287.231    20578286.1834   20578286.1934  108139642.357 8  84264671.74345
     -1360.374       -1060.030
  20672065.268    20672064.681    20672069.695   110504031.295 6  85947605.786 6
     -1665.651       -1295.507
  22104730.777    22104730.686    22104734.406   117955082.562 6  91742865.576 6
      2572.753        2001.014
  23028733.273    23028734.597    23028738.677   123317809.037 4  95913885.367 5
     -4456.222       -3465.950
  20210582.163    20210581.378    20210587.037   107733782.872 7  83792982.495 6
     -2088.811       -1624.631
  19875629.140    19875628.807    19875633.923   106209348.600 7  82607285.299 6
      1558.034        1211.805
  21993185.673    21993184.676    21993188.601   117648709.182 5  91504578.422 6
     -1187.219        -923.402
  21773551.219    21773550.145    21773556.976   116432956.582 4  90558996.401 6
      2817.245        2191.194
 11 10  1  0 16  0.0000000  0 14G03G06G07G10G13G16G23R01R02R08R10R11
                                R19R20
  22373890.353    22373888.0164   22373891.7734  117575608.930 6  91617379.80442
      3051.993        2378.179
  22589960.789    22589960.5564   22589964.6864  118711089.011 6  92502158.17843
      2050.670        1597.923
  23083221.655    23083222.1314   23083223.9874  121303177.104 6  94521965.32442
      3057.819        2382.684
  22896347.603    22896346.3384   22896349.1554  120321128.375 6  93756743.00842
      -102.970         -80.243
  20379820.355    20379819.6634   20379821.4704  107096703.914 8  83451980.93745
       561.317         437.390
  20588849.454    20588848.3764   20588850.1844  108195171.272 8  84307957.34746
      -442.619        -344.902
  20586105.739    20586104.7864   20586104.8594  108180729.150 8  84296687.40745
     -1378.763       -1074.364
  20681486.607    20681485.163    20681490.468   110554390.555 6  85986774.082 6
     -1691.620       -1315.704
  22090329.110    22090327.744    22090331.743   117878226.185 6  91683088.344 6
      2551.037        1984.150
  23053717.675    23053716.582    23053721.007   123451586.870 4  96017934.751 5
     -4462.364       -3470.740
  20222372.912    20222372.512    20222378.237   107796635.614 7  83841867.936 6
     -2101.325       -1634.364
  19866922.930    19866923.038    19866928.330   106162828.823 7  82571103.241 6
      1543.334        1200.369
  21999918.879    21999918.816    21999922.469   117684731.134 5  91532595.475 6
     -1214.194        -944.375
  21757805.020    21757803.060    21757810.114   116348748.439 5  90493501.211 6
      2796.590        2175.123
 11 10  1  0 16 30.0000000  0 15G03G06G07G10G13G16G23R01R02R04R08R10
                                R11R19R20
  22356502.855    22356501.7434   22356506.1224  117484243.942 6  91546186.31942
      3039.016        2368.074
  22578299.000    22578298.2154   22578302.1884  118649805.073 6  92454404.45743
      2034.925        1585.656
  23065781.233    23065781.3314   23065782.4724  121211525.035 6  94450548.13642
      3052.369        2378.463
  22896994.233    22896993.1074   22896997.4434  120324529.636 6  93759393.31842
      -123.685         -96.389
  20376671.238    20376670.3504   20376671.9334  107080153.590 8  83439084.56745
       542.049         422.374
  20591431.124    20591430.1104   20591431.9244  108208738.240 8  84318528.99646
      -461.794        -359.839
  20594029.551    20594028.6214   20594028.8894  108222369.379 8  84329134.31945
     -1397.211       -1088.741
  20691052.762    20691051.883    20691056.964   110605529.477 6  86026548.785 6
     -1717.629       -1335.927
  22076048.480    22076047.907    22076051.630   117802025.574 6  91623821.198 3
      2529.085        1967.073
  23708130.935    23708130.080    23708134.694   126466636.855 5  98362975.171 5
      4405.688        3426.645
  23078733.710    23078733.090    23078737.545   123585549.204 4  96122127.606 5
     -4468.300       -3475.337
  20234235.298    20234234.312    20234239.752   107859864.981 7  83891046.302 6
     -2113.895       -1644.137
  19858301.477    19858300.517    19858305.607   106116751.305 7  82535265.156 6
      1528.539        1188.864
  22006804.813    22006803.732    22006807.316   117721560.216 5  91561240.295 6
     -1241.045        -965.254
  21742174.233    21742173.063    21742179.414   116265166.561 5  90428493.107 6
      2775.549        2158.761
 11 10  1  0 17  0.0000000  0 15G03G06G07G10G13G16G23R01R02R04R08R10
                                R11R19R20
  22339190.875    22339190.1874   22339194.1784  117393269.583 6  91475297.22342
      3025.950        2357.893
  22566727.025    22566725.7284   22566729.4824  118588993.251 6  92407018.62843
      2019.182        1573.389
  23048371.739    23048371.1334   23048372.9714  121120033.846 6  94379256.28842
      3047.056        2374.324
  22897760.278    22897758.9614   22897761.4324  120328550.750 6  93762526.64042
      -144.349        -112.461
  20373631.481    20373630.8044   20373632.4704  107064180.978 8  83426638.36145
       522.795         407.374
  20594122.073    20594120.9594   20594123.0094  108222879.108 8  84329547.84346
      -480.868        -374.699
  20602058.662    20602057.6254   20602057.7794  108264562.133 8  84362011.76945
     -1415.599       -1103.067
  20700764.133    20700763.950    20700769.102   110657445.816 6  86066928.145 6
     -1743.483       -1356.043
  22061891.745    22061891.553    22061895.364   117726483.974 6  91565066.600 6
      2507.037        1949.925
  23683362.872    23683362.787    23683367.630   126334521.489 5  98260218.899 5
      4401.983        3423.766
  23103783.694    23103783.676    23103786.849   123719691.769 4  96226460.655 5
     -4474.325       -3480.034
  20246166.890    20246166.323    20246171.808   107923469.147 7  83940516.176 6
     -2126.352       -1653.831
  19849760.543    19849760.566    19849765.878   106071116.653 7  82499771.520 6
      1513.792        1177.393
  22013840.798    22013839.092    22013842.380   117759194.360 6  91590511.284 6
     -1267.879        -986.129
  21726659.836    21726659.906    21726667.228   116182215.162 5  90363975.374 6
      2754.600        2142.468
 11 10  1  0 17 30.0000000  0 15G03G06G07G10G13G16G23R01R02R04R08R10
                                R11R19R20
  22321953.605    22321952.8444   22321956.7534  117302689.047 6  91404715.03442
      3012.692        2347.545
  22555244.443    22555243.5124   22555248.5254  118528655.832 6  92360002.47043
      2003.267        1560.988
  23030992.531    23030992.2704   23030993.7284  121028705.188 6  94308091.08642
      3041.535        2370.037
  22898642.638    22898642.2414   22898644.8044  120333191.219 6  93766142.56142
      -165.043        -128.586
  20370701.854    20370701.5284   20370703.1334  107048787.005 8  83414643.04245
       503.423         392.279
  20596921.899    20596920.8714   20596922.8294  108237592.180 8  84341012.56146
      -500.000        -389.607
  20610192.705    20610191.8524   20610191.6024  108307306.667 8  84395319.17845
     -1434.050       -1117.435
  20710621.424    20710620.982    20710626.109   110710137.271 6  86107910.364 6
     -1769.305       -1376.127
  22047859.464    22047859.326    22047862.601   117651604.936 6  91506827.335 6
      2484.884        1932.699
  23658611.384    23658616.460    23658621.908   126202520.766 4  98157551.783 5
      4398.117        3420.760
  23128867.341    23128866.874    23128869.932   123854010.640 4  96330930.824 5
     -4480.122       -3484.539
  20258169.101    20258168.283    20258173.781   107987447.024 7  83990276.722 6
     -2138.840       -1663.539
  19841304.223    19841303.657    19841308.734   106025925.557 7  82464622.873 6
      1498.965        1165.864
  22021025.372    22021024.464    22021028.210   117797631.846 5  91620407.086 6
     -1294.652       -1006.944
  21711266.914    21711267.042    21711273.268   116099898.109 5  90299951.014 6
      2733.323        2125.921
 11 10  1  0 18  0.0000000  0 15G03G06G07G10G13G16G23R01R02R04R08R10
                                R11R19R20
  22304793.423    22304791.7834   22304796.1584  117212505.152 6  91334441.86542
      2999.510        2337.275
  22543853.281    22543852.7054   22543857.0084  118468795.052 6  92313357.72843
      1987.441        1548.661
  23013643.724    23013644.2034   23013646.0744  120937540.108 6  94237053.36642
      3036.080        2365.775
  22899644.214    22899641.6954   22899646.0134  120338450.660 6  93770240.82042
      -185.651        -144.677
  20367882.941    20367882.4764   20367883.9274  107033972.262 8  83403099.07345
       484.172         377.274
  20599830.277    20599829.2654   20599831.4504  108252876.508 7  84352922.41646
      -518.963        -404.389
  20618431.692    20618430.5634   20618430.4924  108350602.208 8  84429055.94945
     -1452.350       -1131.703
  20720623.971    20720622.646    20720627.680   110763601.194 6  86149493.397 6
     -1794.960       -1396.085
  22033952.244    22033951.790    22033955.424   117577391.491 6  91449105.759 6
      2462.667        1915.423
  23633893.989    23633893.602    23633897.891   126070638.705 5  98054976.945 5
      4393.989        3417.551
  23153982.603    23153981.986    23153984.797   123988501.328 4  96435534.653 5
     -4485.930       -3489.059
  20270241.633    20270240.233    20270245.923   108051797.266 7  84040326.883 6
     -2151.195       -1673.154
  19832930.194    19832929.772    19832934.946   105981178.833 7  82429819.855 6
      1484.142        1154.332
  22028360.217    22028359.845    22028364.037   117836870.967 5  91650926.390 6
     -1321.281       -1027.668
  21695991.390    21695992.043    21695999.043   116018219.424 5  90236423.185 6
      2711.946        2109.284
 11 10  1  0 18 30.0000000  0 15G03G06G07G10G13G16G23R01R02R04R08R10
                                R11R19R20
  22287707.742    22287706.3214   22287709.8914  117122721.192 6  91264480.33443
      2986.186        2326.906
  22532554.344    22532553.2694   22532556.7714  118409413.336 6  92267086.27943
      1971.487        1536.220
  22996327.320    22996326.7644   22996328.7364  120846539.599 6  94166143.87842
      3030.698        2361.597
  22900761.917    22900761.0814   22900764.3384  120344328.831 6  93774821.21142
      -206.173        -160.668
  20365174.479    20365173.8684   20365175.3564  107019738.573 8  83392007.87145
       464.835         362.210
  20602847.420    20602846.2924   20602848.4084  108268731.201 8  84365276.70646
      -537.914        -419.152
  20626775.001    20626774.0104   20626774.1264  108394447.907 8  84463221.40845
     -1470.604       -1145.925
  20730768.965    20730768.272    20730773.085   110817835.122 6  86191675.321 6
     -1820.560       -1415.995
  22020170.629    22020169.337    22020173.392   117503846.944 6  91391904.424 6
      2440.379        1898.085
  23609192.799    23609191.800    23609197.716   125938879.900 5  97952498.014 5
      4389.875        3414.339
  23179128.593    23179128.667    23179131.180   124123160.018 4  96540269.131 5
     -4491.251       -3493.192
  20282381.850    20282381.704    20282387.747   108116518.190 7  84090665.350 6
     -2163.468       -1682.701
  19824638.991    19824639.323    19824644.587   105936877.100 7  82395362.937 6
      1469.383        1142.849
  22035845.282    22035844.525    22035848.484   117876909.880 5  91682067.738 6
     -1347.872       -1048.343
  21680835.935    21680837.816    21680844.575   115937182.305 5  90173394.327 6
      2690.590        2092.679
 11 10  1  0 19  0.0000000  0 15G03G06G07G10G13G16G23R01R02R04R08R10
                                R11R19R20
  22270698.734    22270696.9894   22270701.5454  117033340.525 6  91194833.08542
      2972.640        2316.335
  22521345.491    22521344.3684   22521348.9184  118350512.859 6  92221189.83043
      1955.298        1523.607
  22979042.255    22979041.5104   22979043.2984  120755704.689 6  94095363.43942
      3025.052        2357.193
  22901999.018    22901996.6244   22902000.9214  120350825.040 6  93779883.17142
      -226.833        -176.753
  20362576.763    20362576.1264   20362577.6914  107006086.764 8  83381370.08445
       445.370         347.043
  20605972.993    20605971.8654   20605973.5994  108285155.307 8  84378074.69446
      -556.958        -433.988
  20635223.511    20635222.3904   20635222.4574  108438843.075 8  84497815.02145
     -1488.981       -1160.244
  20741058.228    20741057.324    20741062.233   110872836.804 6  86234454.398 6
     -1846.181       -1435.919
  22006513.007    22006512.843    22006517.490   117430974.919 6  91335226.180 6
      2417.856        1880.537
  23584514.259    23584516.535    23584521.931   125807248.687 5  97850118.322 5
      4385.630        3411.044
  23204305.586    23204305.109    23204309.743   124257982.914 4  96645131.359 5
     -4496.854       -3497.549
  20294593.145    20294592.724    20294598.430   108181608.962 7  84141291.480 6
     -2175.824       -1692.304
  19816431.964    19816432.286    19816437.726   105893021.002 7  82361252.630 6
      1454.444        1131.234
  22043480.839    22043478.531    22043482.373   117917746.815 5  91713829.777 6
     -1374.492       -1069.052
  21665804.764    21665804.750    21665811.699   115856791.515 5  90110868.187 6
      2668.947        2075.846
 11 10  1  0 19 30.0000000  0 15G03G06G07G10G13G16G23R01R02R04R08R10
                                R11R19R20
  22253767.980    22253766.6554   22253770.1474  116944366.411 6  91125502.62542
      2958.873        2305.624
  22510229.136    22510227.8944   22510232.0044  118292095.683 6  92175669.95843
      1939.126        1511.009
  22961788.019    22961788.3454   22961789.8914  120665037.111 6  94024713.37642
      3019.321        2352.726
  22903352.646    22903350.9034   22903353.8394  120357938.833 6  93785426.39142
      -247.494        -192.846
  20360089.710    20360089.0994   20360090.5334  106993017.530 8  83371186.24945
       425.818         331.808
  20609206.411    20609205.3644   20609207.4384  108302147.660 8  84391315.47846
      -575.968        -448.808
  20643775.972    20643774.8174   20643775.0504  108483786.786 8  84532836.07045
     -1507.354       -1174.563
  20751489.750    20751489.398    20751494.499   110928603.501 6  86277828.482 6
     -1871.729       -1455.792
  21992984.148    21992983.016    21992987.910   117358778.556 6  91279073.429 6
      2395.105        1862.857
  23559866.524    23559865.072    23559870.008   125675749.057 5  97747840.934 5
      4380.985        3407.434
  23229512.412    23229511.957    23229515.769   124392965.136 4  96750117.503 5
     -4502.357       -3501.831
  20306873.111    20306872.544    20306878.297   108247067.579 7  84192203.708 6
     -2188.180       -1701.919
  19808309.264    19808308.966    19808313.933   105849611.296 7  82327489.507 6
      1439.420        1119.550
  22051262.361    22051260.920    22051265.251   117959379.562 5  91746210.786 6
     -1401.131       -1089.769
  21650892.311    21650892.332    21650899.728   115777049.734 5  90048846.823 6
      2647.151        2058.892
 11 10  1  0 20  0.0000000  0 15G03G06G07G10G13G16G23R01R02R04R08R10
                                R11R19R20
  22236913.613    22236913.3974   22236917.0034  116855801.376 6  91056490.88843
      2945.303        2295.035
  22499204.671    22499204.1994   22499208.2544  118234163.945 6  92130528.35943
      1922.965        1498.409
  22944567.479    22944566.2874   22944568.5894  120574537.510 6  93954194.19842
      3013.829        2348.441
  22904823.627    22904821.7534   22904825.7084  120365669.588 6  93791450.33642
      -267.951        -208.787
  20357713.732    20357713.1134   20357714.7504  106980531.780 8  83361457.08045
       406.465         316.730
  20612547.694    20612546.5734   20612548.6844  108319706.564 8  84404997.73246
      -594.696        -463.402
  20652432.543    20652431.3504   20652431.6954  108529277.893 8  84568283.66045
     -1525.452       -1188.655
  20762065.353    20762064.515    20762069.434   110985132.762 6  86321795.658 6
     -1896.969       -1475.416
  21979581.102    21979580.899    21979585.553   117287260.909 6  91223448.552 6
      2372.619        1845.366
  23535237.780    23535239.137    23535243.548   125544385.414 5  97645669.348 5
      4376.462        3403.920
  23254749.744    23254748.738    23254752.493   124528103.199 4  96855224.828 5
     -4507.189       -3505.592
  20319221.873    20319221.218    20319226.801   108312892.720 7  84243401.010 6
     -2200.275       -1711.322
  19800268.964    19800269.080    19800274.371   105806648.431 7  82294073.927 6
      1424.667        1108.077
  22059193.826    22059192.290    22059196.899   118001806.551 5  91779209.524 6
     -1427.438       -1110.229
  21636103.595    21636102.195    21636109.645   115697961.221 5  89987333.549 6
      2625.394        2041.973
