     2.11           OBSERVATION DATA    G (GPS)             RINEX VERSION / TYPE
teqc  2016Apr1                          20160930 07:51:15UTCPGM / RUN BY / DATE
Linux 2.4.20-8|Pentium IV|gcc|Linux|486/DX+                 COMMENT
teqc  2016Apr1                          20160816 03:08:30UTCCOMMENT
teqc  2007Jun25                         20111002 03:04:27UTCCOMMENT
Linux 2.4.20-8|Pentium IV|gcc -static|Linux|486/DX+         COMMENT
teqc  2007Jun25     GPS Data Reception  20111002 03:04:26UTCCOMMENT
BIT 2 OF LLI FLAGS DATA COLLECTED UNDER A/S CONDITION       COMMENT
Forced Modulo Decimation to 30 seconds                      COMMENT
Data supplied by the GeoNet project.  GeoNet is core        COMMENT
funded by EQC, with support from LINZ, and is               COMMENT
operated by GNS on behalf of EQC and all New Zealanders.    COMMENT
Contact: www.geonet.org.nz  email: info@geonet.org.nz       COMMENT
 SNR is mapped to RINEX snr flag value [0-9]                COMMENT
  L1 & L2: min(max(int(snr_dBHz/6), 0), 9)                  COMMENT
pseudorange smoothing corrections not applied               COMMENT
CHAT                                                        MARKER NAME
50207M001                                                   MARKER NUMBER
GeoNet              GNS                                     OBSERVER / AGENCY
LP419994101         ASHTECH Z-XII3      CD00                REC # / TYPE / VERS
CR519993903         ASH701945C_M    NONE                    ANT # / TYPE
 -4590670.9773  -275482.8769 -4404596.7075                  APPROX POSITION XYZ
        0.0062        0.0000        0.0000                  ANTENNA: DELTA H/E/N
     1     1                                                WAVELENGTH FACT L1/2
     7    L1    L2    C1    P2    P1    S1    S2            # / TYPES OF OBSERV
    30.0000                                                 INTERVAL
teqc windowed: start @ 2011 Oct  1 00:10:00.000             COMMENT
teqc windowed:  end  @ 2011 Oct  1 00:20:00.000             COMMENT
  2011    10     1     0    10    0.0000000     GPS         TIME OF FIRST OBS
                                                            END OF HEADER
 11 10  1  0 10  0.0000000  0  9G09G22G12G18G14G31G11G19G25
 -12180440.68448  -9481461.41646  23047385.1164   23047391.7294   23047385.5874
        48.5004         36.6004
 -27065161.32749 -20900643.42248  20057924.2574   20057925.8594   20057923.6384
        55.5004         52.2004
  -9231048.44747  -7034556.03444  23916161.0654   23916166.8534   23916160.6864
        45.7004         29.7004
 -17723208.43848 -13588570.98846  21837371.6384   21837375.8904   21837371.5424
        51.6004         40.1004
 -22916260.77048 -17832440.23247  20386537.5774   20386540.9894   20386537.4844
        52.3004         46.7004
  -5385184.98247  -2913963.79944  24522691.0924   24522698.0374   24522690.9844
        43.0004         25.1004
  -3055214.86246  -2362284.95343  24682235.8364   24682243.0994   24682237.1134
        40.2004         22.4004
    702882.76846    556917.97543  25016526.7544   25016533.9454   25016526.2094
        40.2004         19.9004
  -6205354.06647  -4823417.04944  24428353.5004   24428364.6114   24428353.1934
        42.3004         26.9004
 11 10  1  0 10 30.0000000  0 10G09G22G12G18G14G31G11G21G19G25
 -12100549.35148  -9419208.49846  23062588.0074   23062594.1894   23062588.3024
        48.5004         36.6004
 -27059879.58049 -20896527.79148  20058929.3374   20058930.8614   20058928.5134
        55.5004         52.2004
  -9296188.29847  -7085314.27345  23903765.2154   23903771.4624   23903765.5574
        45.4004         30.0004
 -17642664.95748 -13525809.88546  21852698.6584   21852702.5814   21852698.7314
        51.0004         40.1004
 -22945436.56248 -17855174.61747  20380985.6414   20380989.1934   20380985.4174
        52.3004         46.7004
  -5501186.80847  -3004354.69444  24500616.5844   24500621.6884   24500616.5164
        43.7004         25.1004
  -3114463.46246  -2408452.67743  24670961.1334   24670968.3444   24670960.3304
        41.2004         23.1004
  -1415519.60746  -1154930.8764
        41.2004          1.5004
    766419.18846    606426.71343  25028617.5714   25028627.3654   25028617.0494
        38.4004         20.6004
  -6295871.02747  -4893949.62444  24411128.8944   24411139.7384   24411128.6474
        42.6004         26.9004
 11 10  1  0 11  0.0000000  0 10G09G22G12G18G14G31G11G21G19G25
 -12020372.98248  -9356733.46246  23077845.1404   23077850.4404   23077845.4304
        48.9004         36.6004
 -27054149.69649 -20892062.95948  20060019.7414   20060021.2304   20060019.1284
        55.5004         52.2004
  -9360979.14547  -7135800.57745  23891435.9314   23891442.0834   23891436.0834
        46.1004         30.0004
 -17561841.08348 -13462830.29446  21868078.9714   21868083.2514   21868078.9244
        51.0004         40.1004
 -22974246.31148 -17877623.77347  20375503.3084   20375506.7334   20375503.2634
        52.3004         46.7004
  -5617119.06747  -3094691.36544  24478555.4824   24478562.9794   24478556.1984
        43.0004         25.8004
  -3173313.84246  -2454310.08843  24659762.2794   24659770.5964   24659762.4224
        41.9004         23.7004
  -1304400.39646  -1068345.6984
        41.2004          1.5004
    830237.73246    656155.27843  25040761.9974   25040769.7794   25040760.8024
        38.8004         20.6004
  -6386291.72547  -4964407.17044  24393922.6114   24393933.6264   24393923.3484
        42.6004         27.2004
 11 10  1  0 11 30.0000000  0 10G09G22G12G18G14G31G11G21G19G25
 -11939913.72848  -9294037.99646  23093156.1464   23093162.2664   23093156.5204
        48.9004         36.6004
 -27047970.87349 -20887248.30948  20061195.5434   20061197.1594   20061194.8244
        55.8004         52.2004
  -9425417.94647  -7186012.57545  23879173.5094   23879179.1884   23879173.0724
        45.4004         30.0004
 -17480737.23848 -13399632.55446  21883512.5434   21883516.9494   21883512.3304
        51.0004         40.1004
 -23002689.91648 -17899787.62447  20370090.7414   20370094.2314   20370090.6904
        52.3004         46.7004
  -5732979.41847  -3184971.97944  24456507.9804   24456515.5594   24456508.1424
        42.6004         25.8004
  -3231764.16846  -2499855.79943  24648639.6874   24648645.4774   24648640.2114
        41.2004         23.7004
  -1193361.80646   -981823.7654
        41.2004          1.5004
    894335.64446    706101.54443  25052959.4504   25052967.2614   25052959.7774
        38.4004         19.9004
  -6476612.92847  -5034787.16344  24376735.1374   24376745.3354   24376734.8984
        42.3004         27.2004
 11 10  1  0 12  0.0000000  0 10G09G22G12G18G14G31G11G21G19G25
 -11859173.69248  -9231123.73046  23108520.4434   23108526.4604   23108520.8244
        48.5004         36.9004
 -27041342.31949 -20882083.22048  20062456.9444   20062458.4064   20062456.1414
        55.5004         52.2004
  -9489501.77547  -7235947.98844  23866978.6344   23866984.1574   23866978.8944
        45.4004         29.7004
 -17399354.25148 -13336217.29546  21898999.2444   21899003.2314   21898999.1284
        51.0004         40.1004
 -23030767.38248 -17921666.16847  20364747.7854   20364751.2004   20364747.5494
        52.3004         46.7004
  -5848765.27547  -3275194.55044  24434474.4044   24434479.7724   24434474.8054
        43.0004         25.1004
  -3289812.39646  -2545088.16843  24637593.5484   24637600.4544   24637594.7784
        41.6004         23.4004
  -1082405.49246  -1216207.3084
        41.6004          1.5004
    958709.89746    756263.14343  25065209.6244   25065219.7334   25065211.3354
        37.7004         18.9004
  -6566831.33147  -5105087.01044  24359567.1574   24359577.9904   24359566.8934
        42.6004         27.2004
 11 10  1  0 12 30.0000000  0 10G09G22G12G18G14G31G11G21G19G25
 -11778155.12948  -9167992.43246  23123937.8404   23123944.2784   23123937.9214
        48.5004         36.6004
 -27034263.35849 -20876567.16048  20063804.0284   20063805.6534   20063803.3484
        55.5004         52.2004
  -9553227.50347  -7285604.36944  23854852.1434   23854858.7224   23854853.4294
        45.4004         29.7004
 -17317692.76148 -13272585.01546  21914538.9604   21914543.3224   21914538.8404
        51.0004         40.1004
 -23058478.86448 -17943259.53547  20359474.4474   20359478.2204   20359474.1694
        52.3004         46.7004
  -5964474.26147  -3365357.21244  24412455.6204   24412461.9224   24412456.1584
        43.3004         25.8004
  -3347456.94646  -2590005.97543  24626624.3464   24626631.3354   24626625.1624
        41.2004         23.1004
   -971533.69746  -1129812.5314
        41.9004          1.5004
   1023358.04146    806638.15942  25077511.9484   25077519.8604   25077513.3194
        36.4004         17.8004
  -6656943.60947  -5175304.14944  24342419.2504   24342430.2414   24342418.2844
        42.6004         27.2004
 11 10  1  0 13  0.0000000  0 10G09G22G12G18G14G31G11G21G19G25
 -11696860.50748  -9104646.02846  23139407.7074   23139413.6634   23139407.3324
        48.5004         36.6004
 -27026733.37149 -20870699.65748  20065236.9314   20065238.3734   20065236.1764
        55.5004         52.2004
  -9616592.68547  -7334979.81444  23842794.1284   23842800.1274   23842794.1874
        45.4004         29.7004
 -17235754.42848 -13208737.02646  21930131.3504   21930135.6134   21930131.3164
        51.0004         39.7004
 -23085824.53448 -17964567.85347  20354270.7614   20354274.3324   20354270.5524
        52.3004         46.7004
  -6080104.47746  -3455458.45644  24390451.8364   24390459.8474   24390453.0114
        41.2004         25.8004
  -3404696.12847  -2634607.92643  24615732.1594   24615738.8194   24615732.3834
        42.3004         23.4004
   -860748.69446  -1043484.5714
        41.2004          1.5004
   1088276.80546    857224.01742  25089865.7354   25089872.1584   25089864.0494
        36.0004         15.4004
  -6746946.92647  -5245436.37644  24325292.0254   24325302.2734   24325291.1114
        42.6004         27.6004
 11 10  1  0 13 30.0000000  0  9G09G22G12G18G14G31G11G19G25
 -11615291.43448  -9041085.75746  23154929.8524   23154935.8814   23154929.5964
        48.2004         36.3004
 -27018751.23649 -20864479.82748  20066755.9224   20066757.3464   20066755.4044
        55.5004         52.2004
  -9679593.78147  -7384071.55944  23830805.3164   23830811.1384   23830805.0674
        45.4004         29.3004
 -17153539.50348 -13144673.49746  21945776.4034   21945780.1514   21945776.1654
        51.0004         39.7004
 -23112804.04248 -17985590.85347  20349136.7134   20349140.4014   20349136.4564
        52.3004         46.7004
  -6195653.12646  -3545496.15344  24368463.3684   24368469.6444   24368463.1744
        41.9004         26.2004
  -3461527.67946  -2678892.23643  24604917.4454   24604924.8484   24604917.2204
        41.6004         23.1004
   1153463.91945    908019.01442  25102270.2884   25102273.7294   25102266.5824
        33.2004         14.7004
  -6836837.51347  -5315480.78644  24308186.1764   24308195.8704   24308185.6434
        43.3004         28.3004
 11 10  1  0 14  0.0000000  0  9G09G22G12G18G14G31G11G19G25
 -11533450.88948  -8977313.95245  23170503.6354   23170509.1784   23170503.7544
        48.2004         35.9004
 -27010317.24149 -20857907.89948  20068360.8584   20068362.3824   20068360.1934
        55.1004         52.2004
  -9742228.40247  -7432877.74444  23818886.3564   23818892.4964   23818886.5484
        44.7004         29.7004
 -17071049.52048 -13080395.65046  21961473.8114   21961478.5104   21961473.6884
        51.0004         39.7004
 -23139417.50248 -18006328.62147  20344072.4034   20344075.9164   20344072.1524
        52.3004         47.0004
  -6311118.00747  -3635468.56444  24346491.1344   24346497.7224   24346489.2264
        42.6004         26.9004
  -3517950.33246  -2722857.92143  24594180.5454   24594187.5204   24594180.4534
        41.2004         23.1004
   1218916.10845    959020.50442  25114725.0874   25114732.6344   25114727.0064
        34.3004         14.4004
  -6926612.64647  -5385435.23444  24291102.2734   24291113.0744   24291101.4604
        43.7004         28.3004
 11 10  1  0 14 30.0000000  0  9G09G22G12G18G14G31G11G19G25
 -11451341.21647  -8913332.44045  23186128.6164   23186135.0014   23186128.7574
        47.8004         35.9004
 -27001430.75349 -20850983.38148  20070051.9534   20070053.4824   20070051.3234
        55.1004         52.2004
  -9804494.13447  -7481396.48144  23807037.4774   23807044.7844   23807038.3904
        44.7004         29.3004
 -16988285.66048 -13015904.39246  21977223.2914   21977227.7104   21977222.9254
        51.0004         39.7004
 -23165665.87848 -18026781.90247  20339077.4534   20339081.3364   20339077.0704
        52.3004         47.0004
  -6426497.64147  -3725374.55844  24324535.0204   24324541.3724   24324534.3454
        43.7004         27.9004
  -3573963.21246  -2766504.32643  24583521.6364   24583527.9214   24583521.9924
        40.9004         22.4004
   1284629.65245   1010225.66742  25127230.1784   25127232.5024   25127232.2194
        33.9004         14.4004
  -7016269.63647  -5455297.63744  24274040.7994   24274051.5364   24274039.7924
        44.0004         28.6004
 11 10  1  0 15  0.0000000  0  9G09G22G12G18G14G31G11G19G25
 -11368964.28047  -8849142.67645  23201804.4264   23201810.6864   23201803.6464
        47.5004         35.6004
 -26992090.75249 -20843705.47948  20071829.2894   20071830.8444   20071828.4924
        55.1004         52.2004
  -9866387.20647  -7529624.82144  23795259.6254   23795265.2574   23795260.0844
        44.4004         29.7004
 -16905248.34048 -12951200.04746  21993024.8004   21993029.0104   21993024.3864
        51.0004         39.7004
 -23191548.75648 -18046950.38547  20334152.0884   20334155.6664   20334151.9004
        52.3004         47.0004
  -6541788.98347  -3815211.76944  24302595.5424   24302601.5344   24302596.1934
        43.7004         27.9004
  -3629563.87246  -2809829.52043  24572941.1074   24572946.5874   24572939.7684
        40.9004         21.7004
   1350602.82245   1061633.19442  25139784.5984   25139791.2644   25139787.5274
        35.3004         15.1004
  -7105804.67147  -5525065.02544  24257002.6764   24257012.9794   24257002.1374
        44.7004         28.6004
 11 10  1  0 15 30.0000000  0  9G09G22G12G18G14G31G11G19G25
 -11286322.94047  -8784746.88845  23217530.5624   23217537.1454   23217530.6384
        47.1004         34.9004
 -26982297.46049 -20836074.36148  20073692.8904   20073694.4834   20073692.1824
        55.1004         52.2004
  -9927905.27147  -7577560.95644  23783553.0874   23783559.4374   23783552.9194
        44.4004         29.7004
 -16821939.32648 -12886283.99846  22008878.0044   22008882.1374   22008878.0114
        51.0004         39.7004
 -23217066.42048 -18066834.28247  20329296.2304   20329299.9154   20329296.0714
        52.3004         47.0004
  -6656990.64747  -3904979.11244  24280673.2274   24280680.7814   24280673.2404
        42.3004         28.6004
  -3684751.30146  -2852832.70843  24562439.1344   24562444.6304   24562438.7284
        40.5004         21.7004
   1416831.96645   1113240.21242  25152387.9254   25152395.7104   25152388.1044
        35.3004         14.7004
  -7195215.16447  -5594735.36744  24239988.4094   24239998.5974   24239988.8554
        44.7004         28.6004
 11 10  1  0 16  0.0000000  0  9G09G22G12G18G14G31G11G19G25
 -11203419.17047  -8720146.61045  23233306.6914   23233312.5484   23233307.0964
        47.8004         34.5004
 -26972050.14749 -20828089.45948  20075642.8904   20075644.3614   20075642.2424
        55.1004         52.2004
  -9989046.10247  -7625203.13945  23771918.3034   23771924.0214   23771918.7234
        44.7004         30.0004
 -16738359.31448 -12821156.77646  22024782.8164   22024787.3574   22024782.3604
        51.0004         39.7004
 -23242219.40648 -18086434.01847  20324509.7704   20324513.3174   20324509.4654
        52.3004         47.0004
  -6772099.92747  -3994674.47544  24258768.5324   24258774.5084   24258767.7354
        44.7004         29.0004
  -3739523.99246  -2895512.72943  24552016.1664   24552021.5544   24552016.4134
        41.9004         22.0004
   1483313.97645   1165044.23742  25165039.0784                   25165042.4044
        35.3004         14.0004
  -7284497.84747  -5664306.12444  24222998.3954   24223009.6414   24222998.0874
        44.7004         29.0004
 11 10  1  0 16 30.0000000  0 10G09G22G30G12G18G14G31G11G19G25
 -11120255.75747  -8655344.01845  23249132.1324   23249138.4094   23249132.3914
        47.1004         34.2004
 -26961348.61949 -20819750.62348  20077679.3714   20077680.9644   20077678.7024
        55.1004         52.2004
  -1565314.47946  -1038658.72842  25155092.7434   25155102.9164   25155090.4634
        37.1004         16.4004
 -10049806.78747  -7672549.09445  23760355.9624   23760362.0024   23760356.0884
        44.4004         30.0004
 -16654509.65248 -12755819.44146  22040738.8684   22040743.0554   22040739.0544
        51.0004         39.7004
 -23267007.93848 -18105749.75847  20319792.6774   20319796.3384   20319792.6504
        52.7004         47.0004
  -6887114.89947  -4084296.38044  24236881.7344   24236888.5164   24236881.7164
        43.3004         29.3004
  -3793880.43347  -2937868.39743  24541672.5564   24541679.2384   24541672.0144
        42.3004         22.0004
   1550045.99645   1217043.15042  25177737.7514                   25177739.6644
        31.8004         13.3004
  -7373649.86447  -5733775.07244  24206033.3044   24206043.7594   24206033.2224
        44.7004         29.0004
 11 10  1  0 17  0.0000000  0 10G09G22G30G12G18G14G31G11G19G25
 -11036835.23847  -8590341.09245  23265006.5714   23265012.9754   23265006.3414
        47.5004         33.8004
 -26950192.43749 -20811057.51448  20079802.3294   20079803.8934   20079801.5634
        55.1004         52.2004
  -1660568.13246  -1112882.11142  25136966.6844   25136975.3594   25136967.0804
        38.8004         17.8004
 -10110184.89247  -7719596.93345  23748866.2674   23748872.2294   23748866.2424
        44.0004         30.0004
 -16570391.71748 -12690273.06746  22056746.1054   22056750.5714   22056746.1424
        51.0004         39.4004
 -23291432.42648 -18124781.82847  20315144.8684   20315148.5174   20315144.6684
        52.3004         47.0004
  -7002033.60646  -4173843.26644  24215013.3194   24215019.9714   24215012.9054
        41.6004         29.3004
  -3847819.23247  -2979898.64643  24531408.4824   24531415.3894   24531410.2384
        42.3004         22.7004
   1617024.67545   1269234.19742  25190482.8994   25190494.5294   25190484.7704
        35.3004         13.7004
  -7462668.21247  -5803139.86944  24189093.6054   24189104.2724   24189093.3594
        44.4004         29.0004
 11 10  1  0 17 30.0000000  0 10G09G22G30G12G18G14G31G11G19G25
 -10953159.50547  -8525139.30245  23280929.6404   23280935.1584   23280929.9984
        46.4004         33.8004
 -26938581.15949 -20802009.78448  20082011.8964   20082013.4744   20082011.1834
        55.1004         52.2004
  -1755908.75646  -1187173.26942  25118823.8084   25118833.9124   25118823.4304
        38.4004         17.8004
 -10170177.05947  -7766344.04745  23737450.0224   23737457.2634   23737450.6554
        44.0004         30.0004
 -16486006.19248 -12624518.17646  22072804.1544   22072809.2914   22072803.5664
        50.6004         39.4004
 -23315492.51048 -18143529.94947  20310566.4294   20310570.0484   20310566.1784
        52.3004         47.0004
  -7116853.32847  -4263313.04544  24193163.5204   24193170.2124   24193164.1214
        43.0004         29.7004
  -3901338.59946  -3021602.04043  24521224.2144   24521231.3804   24521223.5604
        41.9004         23.1004
   1684247.19645   1321615.14342  25203275.1344                   25203275.6554
        35.7004         12.6004
  -7551549.50947  -5872397.89144  24172179.9304   24172190.4434   24172179.4284
        44.7004         28.6004
 11 10  1  0 18  0.0000000  0  9G09G22G30G12G18G14G31G11G25
 -10869231.13547  -8459740.65045  23296900.7444   23296906.1154   23296900.5414
        46.4004         33.5004
 -26926513.80849 -20792606.67148  20084308.2314   20084309.8244   20084307.5034
        55.1004         52.2004
  -1851333.56346  -1261530.08942  25100664.6884   25100670.6514   25100666.5604
        37.7004         16.8004
 -10229780.80947  -7812788.47645  23726107.7754   23726114.2414   23726108.3374
        44.0004         30.0004
 -16401353.85648 -12558555.38046  22088912.9624   22088917.1804   22088912.4344
        50.6004         39.4004
 -23339188.51948 -18161994.37247  20306057.2204   20306060.8934   20306057.1194
        52.3004         47.0004
  -7231572.10347  -4352704.15245  24171333.1574   24171339.7054   24171333.6244
        42.6004         30.0004
  -3954436.92947  -3062977.34243  24511119.8684   24511126.7714   24511119.9854
        42.3004         23.4004
  -7640290.53347  -5941546.62344  24155293.0134   24155303.2274   24155292.4194
        45.0004         28.3004
 11 10  1  0 18 30.0000000  0  9G09G22G30G12G18G14G31G11G25
 -10785052.63447  -8394147.10245  23312919.4174   23312926.0204   23312919.4724
        46.8004         33.5004
 -26913990.74249 -20782848.45948  20086691.2904   20086692.8714   20086690.5834
        54.8004         52.2004
  -1946840.40146  -1335950.88342  25082490.0184   25082497.6814   25082487.9554
        38.4004         16.4004
 -10288993.37647  -7858928.08645  23714839.9544   23714845.6164   23714839.7684
        43.0004         30.0004
 -16316436.66648 -12492386.21046  22105072.2394   22105076.9544   22105072.0574
        51.0004         39.0004
 -23362521.00648 -18180175.53347  20301617.1684   20301620.6854   20301616.7434
        52.3004         47.0004
  -7346188.06147  -4442015.12945  24149522.4934   24149529.6704   24149523.2734
        43.3004         30.0004
  -4007113.35647  -3104023.89944  24501095.8404   24501102.3494   24501095.2854
        42.3004         24.1004
  -7728888.55547  -6010583.93144  24138433.2954   24138443.5314   24138432.5714
        45.4004         27.9004
 11 10  1  0 19  0.0000000  0  9G09G22G30G12G18G14G31G11G25
 -10700625.84647  -8328360.08145  23328985.3964   23328991.2814   23328985.2604
        46.8004         33.5004
 -26901010.92349 -20772734.33148  20089161.2814   20089162.9744   20089160.3944
        54.8004         52.2004
  -2042426.38346  -1410433.35742  25064300.4614   25064310.9764   25064299.9364
        38.8004         16.1004
 -10347812.37447  -7904761.03945  23703647.0234   23703653.2854   23703646.9274
        43.7004         30.0004
 -16231254.73448 -12426010.74646  22121281.8874   22121286.6794   22121281.4764
        51.0004         39.0004
 -23385489.88848 -18198073.36547  20297246.3614   20297249.9654   20297246.2794
        52.3004         47.0004
  -7460698.34047  -4531243.74745  24127731.9494   24127738.2274   24127732.4084
        43.3004         30.0004
  -4059365.81147  -3144740.10144  24491152.4644   24491159.1954   24491152.0084
        42.3004         24.4004
  -7817340.03647  -6079507.08444  24121601.4674   24121610.7684   24121600.7834
        45.0004         27.9004
 11 10  1  0 19 30.0000000  0  9G09G22G30G12G18G14G31G11G25
 -10615953.15947  -8262381.43845  23345098.1814   23345104.5514   23345098.4454
        46.8004         33.5004
 -26887574.16449 -20762264.15148  20091718.2244   20091719.9644   20091717.6534
        55.1004         52.2004
  -2138089.01946  -1484975.58942  25046096.6194   25046106.9854   25046099.4464
        38.1004         15.8004
 -10406234.74747  -7950284.92145  23692529.8074   23692536.2804   23692530.0834
        43.7004         30.3004
 -16145809.37748 -12359430.01446  22137541.7174   22137545.8064   22137541.3194
        51.0004         39.0004
 -23408095.52348 -18215688.15047  20292944.6754   20292948.2374   20292944.4374
        52.3004         47.0004
  -7575100.69547  -4620388.26245  24105961.8274   24105968.4764   24105961.8104
        42.6004         30.0004
  -4111192.95246  -3185124.87044  24481290.0714   24481296.2954   24481290.4254
        41.9004         25.1004
  -7905641.89747  -6148313.62944  24104797.9944   24104806.9694   24104798.0764
        45.0004         27.6004
 11 10  1  0 20  0.0000000  0  9G09G22G30G12G18G14G31G11G25
 -10531037.08947  -8196213.15245  23361257.3134   23361263.1674   23361257.4984
        46.8004         33.5004
 -26873680.17049 -20751437.67748  20094362.1654   20094363.8064   20094361.4034
        54.8004         52.2004
  -2233825.67146  -1559575.50342  25027878.3994   25027889.5924   25027878.0014
        37.4004         16.1004
 -10464257.79547  -7995497.64445  23681488.3574   23681494.2654   23681488.4274
        43.3004         30.7004
 -16060102.09148 -12292645.18446  22153851.3044   22153855.7844   22153850.9584
        50.6004         38.7004
 -23430337.96148 -18233019.92047  20288712.0644   20288715.6424   20288711.7274
        52.3004         47.0004
  -7689393.14147  -4709447.15145  24084212.5044   24084218.5174   24084212.6474
        44.0004         30.0004
  -4162593.41346  -3225177.17444  24471508.8584   24471515.9244   24471509.2474
        41.6004         24.4004
  -7993791.04447  -6217001.17744  24088023.6534   24088032.5244   24088023.3984
        45.0004         26.9004
