     2.11           OBSERVATION DATA    G (GPS)             RINEX VERSION / TYPE
teqc  2016Apr1                          20160930 07:51:16UTCPGM / RUN BY / DATE
Linux 2.4.20-8|Pentium IV|gcc|Linux|486/DX+                 COMMENT
teqc  2016Apr1                          20160816 03:11:58UTCCOMMENT
TEQC  2010OCT21     GPSODC(AUTO)        20111001 01:06:35UTCCOMMENT
LINUX 2.4.20-8|PENTIUM IV|GCC -STATIC|LINUX|486/DX+         COMMENT
TEQC  2011AUG2                          20111001 01:06:18UTCCOMMENT
TEQC  2011AUG2                          20111001 00:19:53UTCCOMMENT
TEQC  2011AUG2                          20111001 00:19:49UTCCOMMENT
    P1 =    P1  TURBOROGUE; =    Y1  BENCHMARK              COMMENT
    L1 = L1(CA)                                             COMMENT
    P2 =    P2  TURBOROGUE; =    Y2  BENCHMARK              COMMENT
    L2 = L2(P2) TURBOROGUE; = L2(Y2) BENCHMARK              COMMENT
 SNR IS MAPPED TO RINEX SNR FLAG VALUE [0-9]                COMMENT
  L1 & L2: MIN(MAX(INT(SNR_DBHZ/6), 0), 9)                  COMMENT
LPGS                                                        MARKER NAME
41510M001                                                   MARKER NUMBER
UNKNOWN             GEOFORSCHUNGSZENTRUM POTSDAM / GERMANY  OBSERVER / AGENCY
1118                AOA BENCHMARK ACT   3.3.32.2N           REC # / TYPE / VERS
367                 AOAD/M_T        NONE                    ANT # / TYPE
  2780102.9896 -4437418.9149 -3629404.5253                  APPROX POSITION XYZ
        0.0460        0.0000        0.0000                  ANTENNA: DELTA H/E/N
     1     1                                                WAVELENGTH FACT L1/2
     7    L1    L2    C1    P1    P2    S1    S2            # / TYPES OF OBSERV
    30.0000                                                 INTERVAL
teqc windowed: start @ 2011 Oct  1 00:10:00.000             COMMENT
teqc windowed:  end  @ 2011 Oct  1 00:20:00.000             COMMENT
  2011    10     1     0    10    0.0000000     GPS         TIME OF FIRST OBS
                                                            END OF HEADER
 11 10  1  0 10  0.0000000  0  7G15G26G09G28G17G12G04
 -17401846.927 7 -13559869.730 6  21035681.189    21035681.313    21035679.098
        42.300          39.200
 -17059796.930 6 -13293329.840 5  21567991.561    21567991.572    21567990.973
        37.200          31.800
 -11402464.912 6  -8885030.922 5  22262495.511    22262495.640    22262493.771
        37.700          30.200
  -4212393.65711  -3282321.6371   23730252.333    23730252.988    23730252.503
        11.000           3.000
 -13107049.793 7 -10213263.956 6  21009367.561    21009367.821    21009364.096
        42.200          38.400
  -5525021.953 4  -4305196.241 3  23478438.103    23478437.306    23478434.409
        28.800          21.100
   -567273.3771    -442030.0481   24078103.169    24078102.830    24078094.070
         3.000
 11 10  1  0 10 30.0000000  0  6G15G26G09G17G12G04
 -17370381.838 7 -13535351.511 6  21041668.664    21041669.108    21041666.932
        42.700          39.300
 -16981935.010 6 -13232658.283 5  21582808.870    21582808.806    21582807.852
        37.200          31.500
 -11470966.067 6  -8938408.429 5  22249461.243    22249460.529    22249458.852
        37.800          31.000
 -13057494.430 6 -10174649.375 6  21018796.554    21018797.121    21018794.424
        41.200          38.500
  -5593900.888 4  -4358868.066 3  23465330.450    23465329.589    23465326.535
        29.500          19.300
   -636559.65711   -496019.3401   24064917.626    24064918.849    24064917.795
        11.000           3.000
 11 10  1  0 11  0.0000000  0  5G15G26G09G17G12
 -17338363.400 7 -13510402.100 6  21047761.800    21047762.115    21047759.807
        42.400          39.300
 -16903669.795 6 -13171672.465 5  21597702.847    21597702.664    21597701.245
        37.600          31.000
 -11539386.318 6  -8991722.886 5  22236441.362    22236440.649    22236438.863
        37.500          31.800
 -13007422.752 6 -10135632.495 6  21028325.970    21028325.415    21028322.952
        40.600          38.900
  -5662647.655 4  -4412436.894 3  23452247.148    23452248.155    23452245.172
        29.700          20.500
 11 10  1  0 11 30.0000000  0  5G15G26G09G17G12
 -17305773.327 7 -13485007.262 6  21053963.519    21053963.662    21053961.385
        42.300          39.300
 -16824984.148 6 -13110359.050 5  21612677.187    21612676.531    21612674.743
        38.100          31.500
 -11607704.632 6  -9044957.911 5  22223439.937    22223439.820    22223438.851
        37.700          32.100
 -12956817.395 6 -10096199.743 6  21037956.027    21037955.600    21037952.751
        40.700          38.300
  -5731242.827 4  -4465887.605 3  23439194.660    23439194.381    23439192.503
        29.500          21.100
 11 10  1  0 12  0.0000000  0  5G15G26G09G17G12
 -17272618.858 7 -13459172.627 6  21060272.580    21060272.654    21060270.390
        42.200          38.900
 -16745886.547 6 -13048724.631 5  21627728.099    21627728.019    21627726.607
        37.300          31.600
 -11675925.246 6  -9098116.825 5  22210458.314    22210457.986    22210456.493
        38.400          32.100
 -12905686.384 6 -10056357.390 6  21047684.566    21047684.950    21047682.580
        40.300          38.400
  -5799692.398 4  -4519224.831 3  23426168.417    23426167.471    23426165.283
        25.900          19.900
 11 10  1  0 12 30.0000000  0  6G15G26G09G17G28G12
 -17238893.052 7 -13432892.802 6  21066690.235    21066690.539    21066688.475
        42.300          38.900
 -16666371.293 6 -12986764.773 5  21642859.241    21642858.910    21642858.052
        37.300          31.600
 -11744038.350 6  -9151191.965 5  22197497.266    22197496.534    22197494.515
        38.900          31.000
 -12854023.585 6 -10016100.671 6  21057516.393    21057516.521    21057513.713
        40.400          38.600
  -3749491.14912  -2921618.29411  23818339.702    23818341.002    23818335.935
        13.900           6.500
  -5867988.207 4  -4572442.283 3  23413171.794    23413171.813    23413169.820
        28.400          19.900
 11 10  1  0 13  0.0000000  0  5G15G26G09G17G12
 -17204588.442 7 -13406161.961 6  21073217.673    21073218.411    21073216.457
        42.300          38.900
 -16586431.487 6 -12924474.103 5  21658071.706    21658071.560    21658070.018
        37.300          31.500
 -11812033.114 6  -9204174.872 5  22184558.562    22184557.955    22184556.220
        38.900          31.100
 -12801821.924 6  -9975424.038 6  21067450.031    21067450.282    21067447.321
        41.200          38.300
  -5936121.204 4  -4625532.840 3  23400207.279    23400207.291    23400204.877
        28.400          19.300
 11 10  1  0 13 30.0000000  0  5G15G26G09G17G12
 -17169738.329 7 -13379006.056 6  21079849.619    21079850.229    21079848.311
        42.400          38.800
 -16506102.070 6 -12861879.822 5  21673358.096    21673357.320    21673356.129
        36.600          30.400
 -11879939.853 6  -9257089.233 5  22171635.731    22171635.248    22171632.933
        38.600          30.600
 -12749115.641 6  -9934354.196 6  21077479.641    21077479.950    21077477.047
        40.900          38.500
  -6004123.605 4  -4678521.654 3  23387266.716    23387266.034    23387264.380
        25.900          21.100
 11 10  1  0 14  0.0000000  0  5G15G26G09G17G12
 -17134312.109 7 -13351401.228 6  21086591.715    21086591.764    21086589.522
        42.400          39.000
 -16425353.255 6 -12798958.735 5  21688723.322    21688722.952    21688722.385
        36.000          30.800
 -11947725.094 6  -9309908.871 5  22158736.348    22158736.335    22158734.395
        38.400          31.800
 -12695875.085 6  -9892868.043 6  21087611.306    21087611.386    21087608.746
        40.900          38.600
  -6071963.324 4  -4731383.691 3  23374355.746    23374355.976    23374354.997
        26.500          22.600
 11 10  1  0 14 30.0000000  0  5G15G26G09G17G12
 -17098316.140 7 -13323352.438 6  21093442.134    21093441.619    21093439.055
        42.400          38.700
 -16344192.734 6 -12735716.843 5  21704167.220    21704167.375    21704166.629
        36.800          30.400
 -12015391.759 6  -9362636.141 5  22145859.077    22145859.197    22145857.917
        38.100          32.000
 -12642107.197 6  -9850970.989 6  21097842.606    21097843.108    21097840.214
        41.300          38.600
  -6139645.489 4  -4784122.983 3  23361477.742    23361476.948    23361476.034
        28.600          21.600
 11 10  1  0 15  0.0000000  0  6G15G26G09G17G12G04
 -17061761.864 7 -13294868.618 6  21100397.405    21100397.782    21100395.610
        42.500          39.100
 -16262632.968 5 -12672163.861 5  21719687.643    21719687.827    21719687.623
        35.700          31.100
 -12082948.284 6  -9415277.570 5  22133004.552    22133004.106    22133002.020
        38.600          32.000
 -12587824.014 6  -9808672.403 6  21108172.936    21108172.743    21108169.843
        40.900          38.400
  -6207179.712 4  -4836746.987 3  23348625.796    23348624.903    23348623.797
        27.600          21.600
   -104658.43512    -81551.57811  23947222.700    23947223.639    23947224.624
        17.000           6.500
 11 10  1  0 15 30.0000000  0  5G15G26G09G17G12
 -17024658.817 7 -13265957.174 6  21107457.997    21107458.167    21107455.966
        42.500          38.900
 -16180684.226 5 -12608307.794 5  21735282.269    21735282.189    21735281.631
        35.900          30.100
 -12150400.901 6  -9467838.040 5  22120169.026    22120168.367    22120166.537
        38.900          32.300
 -12533035.721 6  -9765980.217 6  21118599.058    21118598.841    21118595.786
        41.400          38.400
  -6274573.869 4  -4889261.834 4  23335800.285    23335800.463    23335799.567
        27.400          24.600
 11 10  1  0 16  0.0000000  0  7G15G26G09G17G12G04G28
 -16987000.497 7 -13236613.055 6  21114624.097    21114623.853    21114622.307
        42.100          38.900
 -16098341.257 6 -12544144.538 4  21750952.478    21750952.135    21750950.536
        36.000          29.900
 -12217739.630 6  -9520309.780 5  22107354.866    22107354.407    22107352.298
        38.700          31.800
 -12477736.574 6  -9722889.956 6  21129121.728    21129121.958    21129118.849
        41.600          38.500
  -6341820.794 4  -4941661.963 3  23323004.734    23323003.002    23323002.507
        27.100          23.400
   -240721.02212   -187574.32011  23921334.375    23921331.809    23921330.902
        17.000          11.000
     86332.99812     67272.4221   23941607.124    23941606.986    23941603.733
        16.100
 11 10  1  0 16 30.0000000  0  6G15G26G09G17G12G04
 -16948794.454 7 -13206842.141 6  21121893.579    21121894.507    21121892.679
        42.300          38.500
 -16015612.783 5 -12479680.878 5  21766694.283    21766694.169    21766693.959
        35.800          30.400
 -12284969.227 6  -9572696.472 5  22094560.436    22094560.527    22094559.016
        38.500          32.000
 -12421934.842 6  -9679408.081 6  21139741.030    21139740.700    21139737.321
        40.900          37.900
  -6408926.215 5  -4993951.827 3  23310234.040    23310234.255    23310232.429
        30.200          22.600
   -308554.81912   -240431.8211   23908420.131    23908421.300    23908420.095
        17.000
 11 10  1  0 17  0.0000000  0  5G15G26G09G17G12
 -16910037.124 7 -13176641.645 6  21129269.513    21129269.894    21129267.687
        42.200          38.600
 -15932496.158 6 -12414914.779 4  21782512.298    21782511.858    21782510.338
        36.100          29.500
 -12352082.780 6  -9624992.735 5  22081789.621    22081789.254    22081787.689
        38.900          33.200
 -12365627.895 6  -9635532.537 6  21150455.005    21150454.948    21150452.039
        40.700          38.400
  -6475885.239 4  -5046127.629 3  23297492.524    23297492.627    23297490.399
        28.600          23.000
 11 10  1  0 17 30.0000000  0  6G15G26G09G17G12G04
 -16870719.876 7 -13146004.857 6  21136751.592    21136751.619    21136749.613
        42.200          38.400
 -15848983.906 5 -12349840.384 5  21798402.814    21798403.040    21798402.325
        35.900          30.100
 -12419068.188 6  -9677189.125 5  22069043.301    22069042.654    22069041.079
        38.900          33.400
 -12308807.422 6  -9591256.849 6  21161268.053    21161267.789    21161264.714
        40.600          38.200
  -6542687.344 4  -5098181.136 4  23284780.349    23284780.568    23284779.024
        28.800          25.900
   -443793.96013   -345812.8521   23882687.861    23882686.398    23882686.208
        20.500
 11 10  1  0 18  0.0000000  0  5G15G26G09G17G12
 -16830848.103 7 -13114935.974 6  21144339.006    21144339.288    21144336.648
        42.200          38.000
 -15765082.023 5 -12284462.407 4  21814369.385    21814368.952    21814368.337
        35.100          29.900
 -12485927.647 6  -9729287.399 5  22056319.803    22056319.595    22056317.700
        38.400          33.400
 -12251479.433 6  -9546585.682 6  21172176.559    21172176.805    21172174.146
        41.000          38.100
  -6609336.545 4  -5150115.502 4  23272096.274    23272096.670    23272095.710
        27.900          24.600
 11 10  1  0 18 30.0000000  0  6G15G26G09G17G12G04
 -16790424.873 6 -13083437.372 6  21152031.311    21152031.593    21152029.203
        41.800          38.200
 -15680794.722 5 -12218784.077 4  21830409.142    21830408.252    21830408.327
        34.500          29.900
 -12552660.725 6  -9781287.185 5  22043620.340    22043620.012    22043618.611
        37.600          33.200
 -12193647.729 6  -9501522.009 6  21183181.860    21183181.993    21183179.194
        41.100          38.300
  -6675833.987 5  -5201931.595 3  23259443.495    23259443.413    23259440.837
        30.100          23.800
   -578427.83613   -450722.2751   23857067.018    23857066.968    23857066.663
        21.600           3.000
 11 10  1  0 19  0.0000000  0  5G15G26G09G17G12
 -16749462.637 6 -13051518.781 6  21159825.871    21159826.058    21159824.038
        41.800          38.200
 -15596135.806 5 -12152816.210 5  21846518.319    21846518.386    21846518.435
        34.500          30.200
 -12619276.641 6  -9833195.658 5  22030943.539    22030943.650    22030942.453
        38.600          33.500
 -12135325.594 6  -9456076.191 6  21194280.764    21194280.591    21194277.595
        41.600          38.600
  -6742191.442 4  -5253638.625 3  23246816.871    23246816.485    23246814.260
        29.200          22.600
 11 10  1  0 19 30.0000000  0  6G15G26G09G17G12G04
 -16707948.359 6 -13019170.019 6  21167725.638    21167726.346    21167723.986
        41.900          38.200
 -15511092.965 5 -12086549.167 5  21862702.734    21862701.792    21862701.711
        34.700          30.100
 -12685758.760 6  -9884999.899 5  22018294.317    22018293.239    22018291.015
        39.200          33.100
 -12076500.460 6  -9410238.422 6  21205474.045    21205474.540    21205471.819
        41.500          38.300
  -6808393.722 4  -5305224.753 3  23234218.170    23234216.422    23234215.900
        28.400          22.100
   -712460.59213   -555163.3191   23831562.946    23831562.748    23831561.736
        20.500
 11 10  1  0 20  0.0000000  0  7G15G26G09G17G12G04G28
 -16665887.106 6 -12986395.039 6  21175730.653    21175730.490    21175728.084
        41.600          38.200
 -15425672.503 5 -12019987.870 4  21878958.509    21878957.776    21878956.685
        35.300          29.900
 -12752109.195 6  -9936701.506 5  22005667.724    22005666.825    22005665.363
        39.100          33.400
 -12017178.561 6  -9364013.544 6  21216762.727    21216762.924    21216759.915
        41.200          37.700
  -6874444.571 4  -5356692.884 3  23221647.276    23221648.158    23221647.111
        28.600          21.600
   -779235.61613   -607195.75411  23818853.331    23818854.722    23818853.975
        21.100           9.000
    825801.06912    643481.5661   24082321.011    24082325.467    24082317.811
        12.600
