     2.11           OBSERVATION DATA    G (GPS)             RINEX VERSION / TYPE
teqc  2010Mar17     gpsops              20111010 00:07:45UTCPGM / RUN BY / DATE
    30.0000                                                 INTERVAL
     1     1                                                WAVELENGTH FACT L1/2
     7    L1    L2    P1    P2    C1    S1    S2            # / TYPES OF OBSERV
Linux 2.4.21-27.ELsmp|Opteron|gcc -static|Linux x86_64|=+   COMMENT
     2.10           OBSERVATION DATA    GPS                 COMMENT
soc2rnx ver 1.20    gpsops              10-Oct-2011 00:07:44COMMENT
S1, if present, is the SNR for the C/A data stream on L1.   COMMENT
 SNR is mapped to RINEX snr flag value [1,4-9]              COMMENT
    SNR:   >316  >100  >31.6  >10  >3.2    >0 bad=0         COMMENT
L1 & L2:      9     8     7     6     5     4     1         COMMENT
JPL                 SRI                                     OBSERVER / AGENCY
CR620010504         ASH701945C_M    NONE                    ANT # / TYPE
  1575559.0735 -1941827.9411  5848076.4820                  APPROX POSITION XYZ
        0.0762        0.0000        0.0000                  ANTENNA: DELTA H/E/N
ZR520021809         ASHTECH UZ-12       CQ00                REC # / TYPE / VERS
KELY                                                        MARKER NAME
43005M002                                                   MARKER NUMBER
                                                            COMMENT
This data is provided as a public service by NASA/JPL.      COMMENT
No warranty is expressed or implied regarding suitability   COMMENT
for use.  For further information, contact:                 COMMENT
Dave Stowers, NASA/JPL m/s 238-600                          COMMENT
4800 Oak Grove Drive, Pasadena CA 91109 USA                 COMMENT
                                                            COMMENT
Forced Modulo Decimation to 30 seconds                      COMMENT
  2011    10     9     0     0    0.0000000     GPS         TIME OF FIRST OBS
                                                            END OF HEADER
 11 10  9  0  0  0.0000000  0  9G16G29G05G02G26G13G10G07G08
 125975598.67247  98162787.79947  23972370.5324   23972374.8034   23972369.7974
        45.000          38.000
 115667999.14747  90130887.32147  22010904.0014   22010908.3214   22010904.0744
        52.000          46.000
 107920419.06547  84093819.75447  20536583.1704   20536586.4854   20536583.3734
        55.000          51.000
 113936850.28347  88781957.17147  21681464.7804   21681466.0724   21681465.4624
        53.000          46.000
 122775608.16147  95669286.19847  23363434.0674   23363435.7334   23363434.0884
        46.000          39.000
 123201768.90547  96001361.89047  23444528.8694   23444532.6994   23444529.5194
        46.000          39.000
 116415793.51947  90713584.72247  22153203.9054   22153209.2874   22153205.4314
        51.000          44.000
 119882095.64147  93414601.35247  22812817.7954   22812822.0204   22812817.7454
        50.000          44.000
 127179466.97147  99100876.84547  24201451.6994   24201455.6224   24201452.6494
        44.000          38.000
 11 10  9  0  0 30.0000000  0  9G16G29G05G02G26G13G10G07G08
 125941302.64847  98136063.41247  23965843.6304   23965847.6924   23965844.2284
        44.000          38.000
 115691870.45847  90149488.36747  22015447.4564   22015450.8914   22015447.2334
        53.000          46.000
 117898330.04957  74076607.39057  20532379.2135   20532382.1665   20532379.0435
        56.000          51.000
 114018524.50147  88845599.37147  21697007.2544   21697008.6244   21697007.7724
        53.000          46.000
 122649378.11047  95570925.33247  23339413.2544   23339417.5464   23339413.1684
        47.000          40.000
 133303105.97357  86080325.08157  23463813.7925   23463817.7355   23463814.5815
        45.000          39.000
 116508719.29947  90785994.45547  22170887.9814   22170892.2274   22170888.6864
        51.000          44.000
 119828616.45047  93372929.27447  22802641.1274   22802644.3144   22802641.0744
        50.000          44.000
 127079844.72747  99023249.20647  24182493.7524   24182498.9814   24182494.3834
        44.000          38.000
 11 10  9  0  1  0.0000000  0  9G16G29G05G02G26G13G10G07G08
 125907580.53747  98109786.31247  23959426.3624   23959431.0864   23959427.2594
        45.000          39.000
 115716334.79447  90168551.56847  22020102.7734   22020106.0174   22020102.7554
        52.000          46.000
  97876748.28657  94059791.07757  20528271.7645   20528274.7215   20528271.5205
        56.000          51.000
 114100597.63947  88909552.42747  21712625.3074   21712626.5984   21712625.5954
        53.000          46.000
 122523354.01347  95472724.90547  23315431.2774   23315435.2324   23315430.7794
        46.000          39.000
 113404751.97357 106159532.12857  23483155.0505   23483158.8085   23483154.7195
        46.000          39.000
 116601933.30347  90858628.82147  22188625.8954   22188630.4864   22188626.8614
        50.000          44.000
 119775662.68247  93331666.30447  22792564.5744   22792567.6844   22792564.4574
        49.000          44.000
 126980462.26247  98945808.30647  24163582.4504   24163586.8264   24163583.1364
        46.000          39.000
 11 10  9  0  1 30.0000000  0  9G16G29G05G02G26G13G10G07G08
 125874473.40347  98083988.54447  23953126.4284   23953131.0464   23953127.1774
        45.000          39.000
 115741430.32047  90188106.53747  22024878.3694   22024882.3414   22024878.2374
        52.000          46.000
 117855721.15857  74043408.86757  20524269.1725   20524271.7085   20524268.6705
        56.000          51.000
 114183107.00847  88973845.45447  21728326.3394   21728327.5894   21728326.6714
        52.000          46.000
 122397578.35947  95374717.94747  23291497.2494   23291501.5764   23291496.6634
        48.000          40.000
 133506711.68657  86238982.20057  23502557.0705   23502560.6775   23502555.9455
        46.000          39.000
 116695472.38147  90931516.44647  22206425.7804   22206430.3674   22206426.5794
        51.000          44.000
 119723276.89947  93290846.13047  22782596.1184   22782599.3674   22782596.0084
        50.000          44.000
 126881361.94547  98868587.25947  24144724.3054   24144729.7524   24144724.9344
        45.000          39.000
 11 10  9  0  2  0.0000000  0  9G16G29G05G02G26G13G10G07G08
 125841945.49147  98058641.88047  23946936.9024   23946942.4014   23946937.0064
        45.000          39.000
 115767119.53247  90208123.86047  22029767.5804   22029770.3654   22029767.6264
        53.000          46.000
  97835196.00657  94027414.09657  20520364.2705   20520367.0905   20520363.9885
        56.000          51.000
 114266014.43947  89038448.61247  21744103.1804   21744104.3144   21744103.4494
        53.000          46.000
 122272018.00647  95276878.75447  23267603.9364   23267607.6104   23267603.3764
        47.000          40.000
 113608973.48157 106318670.72957  23522013.6035   23522016.2115   23522013.6105
        46.000          39.000
 116789298.17947  91004627.26147  22224280.2164   22224284.9464   22224281.2084
        51.000          44.000
 129671438.04857  83250454.86357  22772729.0345   22772732.8045   22772729.4955
        50.000          44.000
 126782511.03847  98791560.59247  24125913.8164   24125918.3674   24125914.3534
        45.000          39.000
 11 10  9  0  2 30.0000000  0  9G16G29G05G02G26G13G10G07G08
 125810018.92747  98033763.76547  23940860.8584   23940866.7634   23940861.8724
        44.000          38.000
 115793422.20747  90228619.26147  22034772.2744   22034776.6164   22034772.2664
        52.000          46.000
 117815213.18057  74011844.09457  20516560.9375   20516563.5445   20516560.6995
        56.000          51.000
 114349337.87247  89103375.87847  21759958.9774   21759960.3664   21759959.4394
        52.000          46.000
 122146695.75347  95179224.93147  23243755.7474   23243760.3774   23243756.0464
        48.000          41.000
 133711530.92257  86398588.20857  23541526.7195   23541528.3975   23541527.3545
        45.000          39.000
 116883428.35647  91077974.94747  22242192.8124   22242197.7864   22242193.8394
        50.000          44.000
 109620156.92357 103210499.11657  22762967.9845   22762970.8875   22762967.7065
        50.000          44.000
 126683932.09847  98714745.85747  24107154.4754   24107159.1844   24107155.0474
        45.000          39.000
 11 10  9  0  3  0.0000000  0  9G16G29G05G02G26G13G10G07G08
 125778701.80747  98009360.80547  23934901.2964   23934907.3294   23934901.6884
        44.000          38.000
 115820344.10547  90249597.32247  22039895.0874   22039899.8464   22039895.3594
        52.000          46.000
  97795765.78657  93996688.72457  20512860.5945   20512863.3085   20512860.4855
        56.000          51.000
 114433082.15547  89168631.00147  21775895.1264   21775896.5624   21775895.5194
        53.000          46.000
 122021622.04047  95081765.05747  23219954.9364   23219958.9854   23219955.1414
        47.000          40.000
 113814355.50457 106478703.81657  23561099.4195   23561102.9685   23561099.8085
        46.000          38.000
 116977868.85547  91151564.88747  22260164.4844   22260169.4894   22260165.3064
        51.000          44.000
 129569398.34157  83170942.60457  22753312.7265   22753316.8345   22753313.0925
        51.000          44.000
 126585634.95547  98638150.74147  24088448.9644   24088453.8254   24088449.6134
        45.000          39.000
 11 10  9  0  3 30.0000000  0  9G16G29G05G02G26G13G10G07G08
 125747962.65747  97985408.25347  23929052.1094   23929057.0534   23929052.2904
        45.000          38.000
 115847852.31347  90271032.38247  22045129.2704   22045134.3974   22045129.1294
        52.000          46.000
 117776825.46757  73981929.14057  20509257.0255   20509259.9825   20509256.9075
        56.000          51.000
 114517212.18247  89234186.40547  21791905.0124   21791906.5424   21791905.3624
        52.000          46.000
 121896766.72847  94984475.24447  23196195.4974   23196199.5504   23196195.8844
        47.000          40.000
 133917460.83357  86559041.81057  23580722.7785   23580727.3185   23580724.0915
        46.000          38.000
 117072584.32647  91225369.07147  22278188.2804   22278193.2464   22278189.0564
        51.000          44.000
 109519224.80657 103131850.99457  22743760.7765   22743764.0065   22743760.5755
        50.000          44.000
 126487590.02147  98561752.17747  24069791.4564   24069796.3634   24069791.8574
        46.000          39.000
 11 10  9  0  4  0.0000000  0  9G16G29G05G02G26G13G10G07G08
 125717829.17547  97961927.59847  23923317.1294   23923323.7854   23923317.7674
        44.000          38.000
 115875971.72847  90292943.61147  22050480.5894   22050483.7784   22050480.4534
        52.000          45.000
  97758431.86857  93967599.99857  20505755.8075   20505758.3635   20505755.2725
        56.000          51.000
 114601753.92547  89300062.99947  21807992.7354   21807994.3484   21807993.0454
        53.000          46.000
 121772159.45947  94887378.70347  23172483.5224   23172487.8894   23172483.5514
        47.000          40.000
 114020913.70157 106639661.22157  23600403.8735   23600406.6885   23600404.5165
        45.000          38.000
 117167599.28747  91299406.51747  22296269.1864   22296274.1814   22296270.2404
        50.000          44.000
 109469586.72047 103093171.96047  22734314.8794   22734318.2694   22734314.7854
        50.000          43.000
 126389826.64447  98485572.92147  24051188.5594   24051192.4964   24051188.6544
        46.000          39.000
 11 10  9  0  4 30.0000000  0  9G16G29G05G02G26G13G10G07G08
 125688297.57747  97938915.89447  23917698.0984   23917703.8704   23917698.5144
        43.000          38.000
 115904696.25447  90315326.41547  22055947.6834   22055949.9204   22055947.6854
        53.000          46.000
 117740557.88957  73953668.93557  20502355.3585   20502358.2685   20502355.1005
        56.000          51.000
 114686699.87647  89366254.48447  21824157.5724   21824159.2814   21824158.1054
        52.000          46.000
 121647797.96547  94790473.39047  23148818.8914   23148822.5124   23148818.6654
        47.000          40.000
 134124598.08657  86720447.57557  23620139.0885   23620143.4535   23620140.1975
        45.000          38.000
 117262907.05247  91373672.13047  22314405.8434   22314410.8224   22314406.7764
        50.000          44.000
 109420506.75947 103054927.29347  22724975.6724   22724979.3254   22724975.5454
        50.000          44.000
 126292342.71747  98409611.42647  24032637.5804   24032642.4374   24032638.1304
        45.000          39.000
 11 10  9  0  5  0.0000000  0  9G16G29G05G02G26G13G10G07G08
 125659370.46547  97916375.29047  23912193.3974   23912199.6714   23912193.9654
        43.000          38.000
 115934026.82947  90338181.75247  22061527.5434   22061532.0754   22061527.3624
        52.000          46.000
  97723226.03357  93940165.18657  20499056.8035   20499059.5255   20499056.4845
        56.000          51.000
 114772049.41847  89432760.66847  21840399.0684   21840400.5684   21840399.4614
        52.000          45.000
 121523686.33547  94693762.50047  23125201.2854   23125205.7414   23125201.5494
        47.000          40.000
 114228639.88157 106801529.03857  23639929.5545   23639931.8795   23639929.6705
        45.000          38.000
 117358506.56147  91448165.24547  22332597.7034   22332602.6974   22332598.8844
        50.000          44.000
 109371988.89447 103017120.94947  22715743.0694   22715746.5724   22715742.9074
        50.000          44.000
 126195142.32747  98333870.77647  24014140.9444   24014145.9514   24014141.5764
        45.000          39.000
 11 10  9  0  5 30.0000000  0  9G16G29G05G02G26G13G10G07G08
 125631051.17847  97894308.31347  23906804.7554   23906810.9744   23906805.2214
        46.000          39.000
 115963963.57747  90361509.18347  22067224.4154   22067228.4964   22067224.1094
        52.000          46.000
  97706426.00447  93927073.67447  20495860.2594   20495863.2294   20495860.0634
        56.000          51.000
 114857802.24747  89499581.03047  21856717.2094   21856718.7064   21856717.5574
        52.000          46.000
 121399831.36047  94597252.22647  23101632.2954   23101637.3624   23101632.1774
        47.000          40.000
 114332923.66647 106882789.61647  23659773.6864   23659776.6374   23659773.6504
        45.000          38.000
 117454398.20847  91522886.15347  22350845.4464   22350850.1174   22350846.3204
        51.000          44.000
 109324038.04347 102979756.94147  22706618.1044   22706621.7144   22706618.0664
        51.000          44.000
 126098231.05247  98258355.55347  23995698.8244   23995704.4224   23995699.3674
        45.000          39.000
 11 10  9  0  6  0.0000000  0  9G16G29G05G02G26G13G10G07G08
 125603332.77847  97872709.51647  23901530.4064   23901535.9444   23901530.8964
        46.000          39.000
 115994498.28147  90385302.66247  22073035.5494   22073039.6604   22073035.5744
        52.000          46.000
  97690155.66647  93914395.38947  20492764.2374   20492767.2054   20492763.9464
        56.000          51.000
 114943949.10747  89566708.34947  21873110.3524   21873112.0664   21873110.7674
        52.000          46.000
 121276227.17847  94500937.24347  23078111.4864   23078115.8704   23078111.4884
        46.000          40.000
 114437481.95947 106964263.36347  23679671.1534   23679673.6544   23679670.5324
        46.000          38.000
 117550571.45347  91597826.24947  22369146.4634   22369151.4564   22369147.4564
        50.000          44.000
 109276648.38047 102942830.59047  22697599.7834   22697602.9164   22697599.6364
        51.000          44.000
 126001604.02647  98183061.85247  23977311.3594   23977316.4324   23977311.8484
        45.000          39.000
 11 10  9  0  6 30.0000000  0  9G16G29G05G02G26G13G10G07G08
 125576219.37147  97851582.02847  23896371.0634   23896376.2944   23896371.8304
        44.000          38.000
 116025632.49747  90409563.17747  22078959.6324   22078964.9444   22078959.4084
        52.000          46.000
  97674418.00247  93902132.58447  20489769.2334   20489772.0644   20489769.0424
        56.000          51.000
 115030490.16647  89634142.61947  21889578.9154   21889580.7484   21889579.3624
        52.000          46.000
 121152878.98447  94404821.47547  23054638.9634   23054643.4474   23054638.9544
        46.000          40.000
 114542316.76547 107045952.82747  23699620.0004   23699622.2534   23699620.2374
        45.000          38.000
 117647028.08847  91672987.44847  22387501.6404   22387506.3044   22387502.6544
        51.000          43.000
 109229823.33247 102906344.04047  22688688.8644   22688692.0104   22688688.7904
        50.000          45.000
 125905267.06347  98107994.21847  23958978.9124   23958983.9584   23958979.7054
        46.000          39.000
 11 10  9  0  7  0.0000000  0  9G16G29G05G02G26G13G10G07G08
 125549721.96547  97830934.60247  23891329.1664   23891333.9444   23891329.6764
        45.000          39.000
 116057375.29347  90434297.98547  22085000.1554   22085003.5514   22085000.1994
        53.000          46.000
  97659222.46747  93890292.04647  20486877.4874   20486880.3084   20486877.1624
        56.000          51.000
 115117434.03447  89701890.87947  21906123.9104   21906125.6754   21906124.4874
        52.000          45.000
 121029800.25347  94308915.46847  23031218.4404   23031222.8354   23031218.4964
        46.000          40.000
 114647434.59547 107127862.88247  23719623.3714   23719626.2304   23719623.2884
        46.000          38.000
 117743775.67947  91748375.43447  22405911.8584   22405916.4394   22405912.6314
        50.000          43.000
 109183573.90047 102870305.54447  22679887.8264   22679891.0274   22679887.6624
        50.000          44.000
 125809232.44747  98033162.05447  23940704.6964   23940709.3754   23940705.3304
        46.000          39.000
 11 10  9  0  7 30.0000000  0  9G16G29G05G02G26G13G10G07G08
 125523814.97947  97810747.29747  23886399.1884   23886403.2544   23886399.8194
        45.000          38.000
 116089698.14647  90459484.70247  22091151.2744   22091154.4494   22091151.5204
        52.000          46.000
  97644542.08847  93878852.91347  20484083.8344   20484086.6654   20484083.6084
        55.000          51.000
 115204751.59947  89769930.34047  21922740.1364   21922741.9284   21922740.5984
        52.000          46.000
 120906967.81047  94213201.52447  23007844.4094   23007848.9054   23007844.3204
        47.000          41.000
 114752806.20947 107209970.73447  23739675.1704   23739677.5624   23739674.8974
        44.000          38.000
 117840784.69947  91823966.90647  22424371.8704   22424376.6964   22424372.9284
        50.000          43.000
 109137875.23947 102834695.87447  22671191.9804   22671195.2594   22671191.9494
        50.000          44.000
 125713476.89447  97958547.34447  23922482.7974   23922487.4144   23922483.2634
        46.000          39.000
 11 10  9  0  8  0.0000000  0  9G16G29G05G02G26G13G10G07G08
 125498523.63347  97791039.57347  23881586.1434   23881590.9954   23881586.7464
        46.000          38.000
 116122624.54347  90485141.71047  22097416.4854   22097419.2124   22097416.2514
        52.000          45.000
  97630400.01547  93867832.01747  20481393.5384   20481396.6254   20481393.2244
        56.000          51.000
 115292465.07047  89838278.25447  21939431.6614   21939433.4764   21939432.1284
        52.000          45.000
 120784409.46347  94117701.78947  22984522.1824   22984527.0164   22984521.9434
        47.000          40.000
 114858453.40947 107292293.41547  23759778.7964   23759781.2654   23759778.2784
        45.000          38.000
 117938077.99447  91899779.97447  22442886.1094   22442890.9364   22442887.1934
        50.000          43.000
 109092754.13747 102799536.39047  22662605.9174   22662609.0474   22662605.7014
        51.000          44.000
 125618027.39347  97884171.02647  23904319.2064   23904324.1804   23904319.7284
        46.000          40.000
 11 10  9  0  8 30.0000000  0  9G16G29G05G02G26G13G10G07G08
 125473840.73647  97771806.15247  23876889.2124   23876893.9824   23876889.5114
        45.000          38.000
 116156144.87547  90511261.62547  22103795.6044   22103797.6444   22103795.7574
        52.000          46.000
 117616795.81857  73857231.91257  20478804.1495   20478807.0005   20478804.1075
        56.000          51.000
 115380564.17947  89906926.81047  21956196.4384   21956198.4964   21956196.7664
        52.000          45.000
 120662116.78047  94022407.91747  22961251.0954   22961256.0004   22961251.3414
        48.000          41.000
 114964364.79047 107374822.13947  23779932.5144   23779934.9514   23779933.1194
        44.000          38.000
 118035644.50347  91975805.86447  22461452.4704   22461457.0864   22461453.1864
        50.000          43.000
 109048206.11947 102764824.26847  22654128.1874   22654131.2724   22654128.1734
        51.000          44.000
 125522878.73747  97810029.34347  23886212.7794   23886217.7224   23886213.3394
        46.000          40.000
 11 10  9  0  9  0.0000000  0  9G16G29G05G02G26G13G10G07G08
 125449775.18347  97753053.83947  23872309.4404   23872314.8424   23872309.8164
        46.000          39.000
 116190265.52947  90537849.08247  22110287.7664   22110291.9014   22110287.8404
        52.000          46.000
  97603724.96157  93847046.34257  20476317.4175   20476320.4265   20476317.0245
        56.000          51.000
 115469054.95347  89975880.71147  21973035.5624   21973037.3304   21973036.2564
        51.000          45.000
 120540104.23947  93927332.94947  22938033.2334   22938038.0524   22938033.2124
        49.000          41.000
 115070545.02147 107457560.09147  23800138.2714   23800140.9944   23800138.0384
        45.000          38.000
 118133490.26947  92052049.13847  22480071.9144   22480076.5884   22480073.0484
        50.000          44.000
 109004238.01247 102730564.06147  22645760.8084   22645763.6204   22645760.7674
        51.000          44.000
 125428041.06047  97736129.74347  23868165.9734   23868171.0604   23868166.3204
        46.000          40.000
 11 10  9  0  9 30.0000000  0  9G16G29G05G02G26G13G10G07G08
 125426326.58347  97734782.32547  23867847.7674   23867852.6854   23867848.3604
        45.000          39.000
 116224984.51447  90564902.81547  22116894.4284   22116898.8604   22116894.1214
        52.000          46.000
 117591197.12157  73837284.47157  20473933.2565   20473936.2415   20473933.3025
        56.000          51.000
 115557933.80947  90045137.00747  21989948.6294   21989950.4774   21989948.9674
        52.000          45.000
 130418381.42157  83832487.03557  22914869.4245   22914873.7295   22914871.4975
        48.000          41.000
 115176990.48047 107540504.52347  23820393.6514   23820396.8524   23820393.6474
        44.000          38.000
 118231612.18847  92128507.53147  22498744.1974   22498748.8694   22498745.0624
        50.000          43.000
 108960850.90047 102696756.31947  22637504.3384   22637507.0654   22637503.9804
        50.000          44.000
 125333516.66747  97662474.41347  23850179.0324   23850183.2014   23850179.3074
        46.000          40.000
 11 10  9  0 10  0.0000000  0  9G16G29G05G02G26G13G10G07G08
 125403478.47447  97716978.73547  23863499.3644   23863504.8404   23863499.9474
        46.000          39.000
 116260282.49347  90592407.64347  22123613.0074   22123615.9274   22123612.9944
        53.000          46.000
  97579193.59857  93827931.61257  20471648.8895   20471651.7845   20471648.4755
        56.000          51.000
 115647180.97847  90114680.15547  22006931.9144   22006933.8784   22006932.2724
        52.000          45.000
 110296903.50157 103737827.42657  22891753.9575   22891760.0835   22891754.7315
        47.000          41.000
 115283681.41347 107623640.45647  23840696.5364   23840698.6584   23840696.4724
        44.000          38.000
 118329992.13747  92205167.57247  22517464.8384   22517469.7064   22517465.8754
        50.000          43.000
 128918009.01857  82663370.35057  22629354.7535   22629358.2085   22629355.2265
        51.000          45.000
 125239290.48447  97589051.30047  23832248.2954   23832252.8334   23832248.7574
        46.000          40.000
 11 10  9  0 10 30.0000000  0  9G16G29G05G02G26G13G10G07G08
 125381250.83747  97699658.66247  23859270.3754   23859275.3844   23859270.8894
        45.000          39.000
 116296177.83747  90620377.96447  22130442.5894   22130444.9504   22130442.5584
        52.000          45.000
 117567727.28257  73818995.50757  20469466.8235   20469469.7285   20469466.5585
        56.000          51.000
 115736813.09347  90184522.90647  22023988.6264   22023990.7724   22023989.1744
        52.000          45.000
 130175681.35657  83643357.95257  22868695.1185   22868699.7795   22868695.0025
        48.000          41.000
 115390634.00447 107706980.12347  23861048.5994   23861051.7914   23861048.8204
        46.000          38.000
 118428644.87847  92282039.64147  22536238.1974   22536242.9774   22536239.0134
        50.000          43.000
 108875797.85357 102630483.37757  22621317.5185   22621319.9005   22621317.1455
        51.000          44.000
 125145384.86147  97515877.95347  23814378.1704   23814383.4744   23814379.2564
        46.000          40.000
 11 10  9  0 11  0.0000000  0  9G16G29G05G02G26G13G10G07G08
 125359612.25647  97682797.44247  23855152.2874   23855156.9644   23855152.8434
        44.000          38.000
 116332636.73547  90648787.21847  22137380.7794   22137385.0184   22137380.7414
        52.000          46.000
  97556769.82957  93810457.93357  20467382.7195   20467385.9025   20467382.6055
        56.000          51.000
 115826797.45347  90254640.50947  22041112.3194   22041114.2244   22041112.6594
        52.000          45.000
 130054763.41447  83549136.45347  22845684.4344   22845689.5644   22845684.3534
        47.000          41.000
 115497813.87947 107790496.96447  23881444.7154   23881446.8784   23881444.4714
        44.000          38.000
 118527536.68947  92359097.66847  22555056.9684   22555061.8134   22555057.9174
        50.000          43.000
 108834116.57147 102598003.99747  22613386.2364   22613388.7624   22613385.9884
        51.000          45.000
 125051771.23547  97442932.18547  23796564.1224   23796569.1904   23796564.9374
        46.000          40.000
 11 10  9  0 11 30.0000000  0  9G16G29G05G02G26G13G10G07G08
 125338580.22447  97666408.76247  23851148.9494   23851154.2124   23851149.4794
        45.000          38.000
 116369675.24847  90677648.29747  22144428.8794   22144432.9264   22144428.8784
        51.000          45.000
 117546345.58357  73802334.29157  20465398.2315   20465401.1975   20465397.9305
        56.000          51.000
 115917148.05447  90325043.68947  22058305.3774   22058307.2284   22058305.6054
        52.000          45.000
 129934124.00547  83455131.77347  22822727.6334   22822732.2184   22822727.6644
        48.000          41.000
 115605234.69447 107874201.51347  23901886.3294   23901888.5324   23901885.6294
        44.000          37.000
 118626682.10447  92436353.06047  22573924.5114   22573929.3594   22573925.4354
        50.000          43.000
 128792998.24457  82565962.85557  22605564.0215   22605566.6205   22605563.9865
        51.000          44.000
 124958468.65147  97370228.84547  23778809.4794   23778814.7204   23778810.1234
        47.000          40.000
 11 10  9  0 12  0.0000000  0 10G16G29G05G02G21G26G13G10G07G08
 125318247.54547  97650565.20947  23847279.7094   23847284.6444   23847280.3854
        46.000          38.000
 116407382.97647  90707030.81447  22151604.3294   22151608.4584   22151604.1744
        52.000          45.000
  97536534.58557  93794689.35257  20463532.0995   20463535.3225   20463531.6455
        56.000          51.000
 116007954.23247  90395802.01447  22075585.0094   22075586.8444   22075585.4084
        51.000          45.000
 141733434.08857  92649400.19457  25068060.7785   25068067.8255   25068060.8725
        44.000          38.000
 129813857.71147  83361417.87947  22799841.7644   22799845.9894   22799841.9244
        48.000          41.000
 115712985.07947 107958162.83547  23922390.3824   23922392.3724   23922390.0774
        45.000          37.000
 118726173.60147  92513879.25847  22592856.7634   22592861.6214   22592857.6204
        49.000          43.000
 108752536.95757 102534429.38757  22597867.9705   22597871.7265   22597868.8995
        50.000          44.000
 124865571.55847  97297841.56847  23761132.0994   23761136.8424   23761132.4374
        46.000          40.000
 11 10  9  0 12 30.0000000  0 10G16G29G05G02G21G26G13G10G07G08
 125298469.57047  97635153.55847  23843516.3254   23843522.2834   23843516.7024
        46.000          38.000
 116445613.79347  90736820.91647  22158878.9554   22158882.7214   22158878.6024
        52.000          45.000
 117527200.78357  73787417.20357  20461755.1465   20461758.1085   20461754.9555
        56.000          51.000
 116099068.55547  90466800.22447  22092923.4284   22092925.3614   22092923.6224
        52.000          45.000
 121630388.03057 112569112.96357  25048445.8785   25048450.9965   25048445.4045
        43.000          37.000
 129693822.92647  83267884.19647  22777000.0684   22777004.5074   22776999.9764
        48.000          41.000
 115820917.60747 108042266.11547  23942929.1624   23942931.2824   23942928.8784
        44.000          37.000
 118825862.17847  92591559.15747  22611826.5124   22611831.2014   22611827.2224
        49.000          43.000
 128712638.49457  82503342.70957  22590272.9705   22590275.8875   22590272.9325
        50.000          44.000
 124772937.83647  97225659.48747  23743504.2934   23743509.2034   23743505.0964
        47.000          40.000
 11 10  9  0 13  0.0000000  0 10G16G29G05G02G21G26G13G10G07G08
 125279328.54947  97620238.44047  23839875.3404   23839880.0104   23839875.9544
        47.000          39.000
 116484447.59647  90767081.01447  22166269.8544   22166272.7504   22166269.9034
        52.000          45.000
  97518418.45157  93780573.45157  20460084.2285   20460087.2835   20460084.1525
        56.000          51.000
 116190569.73847  90538099.78547  22110335.4574   22110337.4364   22110335.9314
        51.000          45.000
 141527387.71357  92488840.62457  25028854.1065   25028862.0145   25028853.3225
        42.000          37.000
 129574103.40247  83174596.23947  22754217.9574   22754222.8394   22754217.9414
        49.000          42.000
 115929110.70947 108126572.32947  23963517.8274   23963520.2814   23963517.8014
        45.000          37.000
 118925826.81147  92669454.24247  22630848.5924   22630853.4484   22630849.4194
        49.000          43.000
 108673328.76257 102472710.65957  22582792.5035   22582795.4155   22582792.4985
        51.000          45.000
 124680651.36447  97153748.01147  23725942.7784   23725947.5054   23725943.0204
        47.000          40.000
 11 10  9  0 13 30.0000000  0 10G16G29G05G02G21G26G13G10G07G08
 125260798.56247  97605799.39947  23836348.9124   23836354.3074   23836349.3654
        46.000          39.000
 116523856.28347  90797789.04147  22173768.6344   22173773.1444   22173768.5504
        51.000          46.000
 117510171.94157  73774148.87757  20458514.0515   20458516.8285   20458513.5125
        56.000          51.000
 116282429.55647  90609678.85547  22127815.9414   22127817.7084   22127816.1984
        51.000          45.000
 121424545.09857 112408709.38857  25009279.6315   25009286.6115   25009280.0085
        42.000          36.000
 129454675.31747  83081535.11147  22731491.9314   22731496.7364   22731492.0864
        49.000          42.000
 116037535.45947 108211059.07747  23984150.2674   23984152.9044   23984150.3494
        44.000          37.000
 119026037.49347  92747540.49747  22649918.0124   22649922.6224   22649918.9954
        49.000          42.000
 128634606.34357  82442539.88257  22575422.5865   22575425.3805   22575422.4105
        51.000          44.000
 124588687.26047  97082087.04947  23708442.9434   23708447.8884   23708443.5484
        47.000          40.000
 11 10  9  0 14  0.0000000  0 10G16G29G05G02G21G26G13G10G07G08
 125242884.32047  97591840.20847  23832939.3234   23832945.0034   23832940.0024
        44.000          38.000
 116563841.57647  90828946.25347  22181377.3414   22181382.2124   22181377.3284
        51.000          45.000
  97502450.92157  93768131.27857  20457045.8175   20457048.8915   20457045.6715
        56.000          51.000
 116374649.93047  90681538.79047  22145364.8484   22145366.8214   22145365.2694
        51.000          45.000
 121321790.62747 112328641.38047  24989725.4034   24989731.9954   24989726.3224
        42.000          36.000
 129335546.13447  82988706.94147  22708822.4494   22708827.1334   22708822.6544
        48.000          42.000
 116146191.69847 108295725.86647  24004827.2904   24004830.4244   24004827.1984
        43.000          37.000
 129126484.92757  82825809.32457  22669034.0555   22669039.7685   22669035.6575
        49.000          43.000
 128596464.65447  82412818.94947  22568164.5704   22568167.5794   22568164.3234
        50.000          44.000
 124497055.51347  97010686.07847  23691005.9504   23691010.3204   23691006.4914
        47.000          40.000
 11 10  9  0 14 30.0000000  0 10G16G29G05G02G21G26G13G10G07G08
 125225594.27647  97578367.40947  23829648.5354   23829655.0424   23829648.4744
        45.000          39.000
 116604410.77247  90860558.61347  22189097.8094   22189101.5394   22189097.7324
        52.000          46.000
 117495278.99057  73762543.61457  20455679.4125   20455682.3725   20455679.0835
        56.000          51.000
 116467236.30747  90753683.85847  22162983.6354   22162985.6334   22162984.0674
        51.000          45.000
 121219149.47847 112248661.44047  24970194.1744   24970200.3334   24970194.3444
        43.000          35.000
 129216726.04347  82896119.43447  22686212.2434   22686216.8954   22686212.3294
        49.000          42.000
 116255084.86347 108380577.02247  24025548.9664   24025552.5034   24025549.1714
        44.000          37.000
 109227205.58757 102904293.04857  22688200.4705   22688205.4065   22688201.5035
        49.000          42.000
 128558920.20547  82383563.99047  22561019.7364   22561022.7084   22561019.7074
        51.000          44.000
 124405764.55247  96939550.45247  23673633.4114   23673638.3304   23673634.2964
        46.000          40.000
 11 10  9  0 15  0.0000000  0 10G16G29G05G02G21G26G13G10G07G08
 125208923.85647  97565377.37447  23826476.5214   23826482.0254   23826477.2094
        44.000          38.000
 116645556.93847  90892620.60247  22196928.5024   22196931.4424   22196928.5794
        52.000          45.000
 117488636.86347  73757368.10947  20454415.3804   20454418.2124   20454415.0934
        56.000          51.000
 116560181.38347  90826108.42947  22180670.4494   22180672.6104   22180670.8804
        51.000          44.000
 121116618.43347 112168767.21547  24950683.1604   24950688.1824   24950683.1404
        45.000          35.000
 129098214.01447  82803772.24547  22663660.0734   22663665.1074   22663660.3624
        49.000          42.000
 136364169.75057  88465569.81357  24046314.5795   24046318.6475   24046315.8585
        44.000          37.000
 109328168.11547 102982965.35947  22707413.0554   22707417.5894   22707413.9664
        49.000          42.000
 128521968.01047  82354770.49347  22553987.7224   22553990.3604   22553987.4964
        51.000          44.000
 124314812.25947  96868678.79647  23656325.5444   23656330.3254   23656326.0184
        47.000          40.000
 11 10  9  0 15 30.0000000  0 10G16G29G05G02G21G26G13G10G07G08
 125192872.11547  97552869.44847  23823422.8294   23823427.5034   23823423.0444
        45.000          39.000
 116687276.83947  90925129.72847  22204867.2404   22204870.4664   22204867.3444
        51.000          45.000
  97482523.74157  93752605.14157  20453252.3235   20453254.9845   20453252.2335
        56.000          51.000
 116653480.99147  90898809.19247  22198425.1104   22198426.9754   22198425.3914
        51.000          44.000
 121014197.82147 112088958.99547  24931192.4824   24931197.8994   24931192.9284
        45.000          35.000
 128980011.18947  82711666.25247  22641166.3894   22641171.5154   22641166.7474
        49.000          42.000
 116473614.91657 108550871.47757  24067126.6435   24067125.9865   24067124.8045
        45.000          36.000
 109429373.06247 103061825.65847  22726671.7984   22726677.3344   22726672.9164
        49.000          42.000
 108485581.52257 102326410.93657  22547067.9105   22547071.6295   22547068.1445
        50.000          44.000
 124224199.49847  96798071.37547  23639082.7174   23639087.5244   23639083.3804
        47.000          40.000
 11 10  9  0 16  0.0000000  0 10G16G29G05G02G21G26G13G10G07G08
 125177452.81347  97540854.13747  23820489.0164   23820494.8284   23820489.6394
        45.000          39.000
 116729581.86047  90958094.58947  22212917.3914   22212921.6214   22212917.1864
        52.000          46.000
 117476962.92757  73748272.19457  20452194.1965   20452196.8365   20452194.0815
        56.000          51.000
 116747146.45347  90971794.99247  22216249.1854   22216251.4684   22216249.4134
        50.000          44.000
 120911902.25947 112009247.89547  24911726.3194   24911731.7754   24911727.0204
        45.000          36.000
 128862132.91047  82619812.84847  22618735.7104   22618740.1654   22618735.5814
        48.000          42.000
 136583161.04757  88636226.62157  24087977.1015   24087977.8855   24087977.4505
        44.000          36.000
 129530819.95457  83140872.72557  22745978.6015   22745985.0045   22745980.8835
        49.000          43.000
 128449829.11857  82298553.38657  22540264.0335   22540267.5915   22540264.2875
        51.000          45.000
 124133943.25447  96727742.14147  23621907.2764   23621912.2324   23621907.7324
        47.000          41.000
 11 10  9  0 16 30.0000000  0 10G16G29G05G02G21G26G13G10G07G08
 125162641.81547  97529312.93147  23817669.9074   23817676.7504   23817670.4574
        45.000          39.000
 116772445.73447  90991494.89647  22221074.3644   22221078.0034   22221074.4474
        51.000          45.000
  97471925.13257  93744346.92657  20451235.3815   20451237.9805   20451235.1365
        56.000          51.000
 116841151.33547  91045045.52047  22234137.7074   22234139.9434   22234137.9504
        50.000          44.000
 120809709.95347 111929617.52647  24892279.3614   24892285.4564   24892280.1114
        43.000          36.000
 128744557.77947  82528195.69647  22596361.6304   22596366.5334   22596361.5614
        49.000          42.000
 116692894.77957 108721719.98857  24108868.5315   24108873.5445   24108868.9365
        44.000          36.000
 109632583.16957 103220182.95257  22765330.5935   22765335.3205   22765331.4585
        49.000          42.000
 108414679.01257 102271167.27557  22533571.8355   22533574.4425   22533571.6005
        51.000          45.000
 124044020.22247  96657672.18447  23604795.4444   23604800.0524   23604796.2734
        47.000          41.000
 11 10  9  0 17  0.0000000  0  9G16G29G05G02G21G26G13G10G07
 125148465.96647  97518266.59047  23814971.9174   23814978.9334   23814972.1804
        45.000          39.000
 116815893.13047  91025349.86747  22229342.0674   22229346.5344   22229342.2304
        51.000          46.000
 117467427.54557  73740840.16357  20450381.1035   20450384.1785   20450381.1915
        55.000          51.000
 116935519.20747  91118578.92647  22252095.5544   22252097.5224   22252095.9584
        50.000          44.000
 120707648.66847 111850089.38947  24872856.8844   24872864.4704   24872858.0764
        40.000          36.000
 128627315.05847  82436837.57947  22574051.3984   22574056.2254   22574051.4244
        49.000          42.000
 116802921.49147 108807454.58147  24129809.1874   24129812.9514   24129808.9464
        45.000          37.000
 109734525.57347 103299619.00247  22784729.2254   22784734.2914   22784730.1224
        49.000          42.000
 108380118.31147 102244236.56047  22526995.4204   22526997.9274   22526995.3294
        51.000          45.000
 11 10  9  0 17 30.0000000  0  9G16G29G05G02G21G26G13G10G07
 125134903.66547  97507698.40247  23812391.8834   23812398.0544   23812392.0014
        46.000          39.000
 116859901.14547  91059641.87047  22237715.7924   22237720.9564   22237715.5524
        51.000          45.000
  97463477.43357  93737765.50657  20449626.8945   20449629.1475   20449626.5785
        56.000          51.000
 117030225.50447  91192375.93547  22270117.2554   22270119.6294   22270117.5634
        50.000          44.000
 120605698.01947 111770647.64447  24853456.8674   24853463.6934   24853457.2854
        40.000          36.000
 128510385.90547  82345723.97647  22551800.4554   22551805.4164   22551800.4124
        49.000          42.000
 116913155.74347 108893350.77047  24150785.9964   24150789.3174   24150786.3884
        42.000          36.000
 109836696.12847 103379232.57247  22804171.6194   22804176.4854   22804172.4834
        49.000          43.000
 108346147.23447 102217764.94347  22520531.3224   22520533.9394   22520531.2094
        51.000          45.000
 11 10  9  0 18  0.0000000  0  9G16G29G05G02G21G26G13G10G07
 125121985.44247  97497632.00947  23809934.3834   23809940.0784   23809934.9774
        45.000          39.000
 116904497.43547  91094392.12247  22246202.1814   22246206.6154   22246202.0224
        51.000          45.000
 117460071.38157  73735111.30857  20448978.9265   20448981.2585   20448978.6045
        56.000          51.000
 117125298.85647  91266459.02547  22288209.2534   22288211.5924   22288209.4744
        51.000          44.000
 120503889.88847 111691316.64347  24834083.9244   24834091.0154   24834084.5164
        44.000          37.000
 128393803.56447  82254880.76947  22529615.4354   22529620.3244   22529615.5514
        48.000          42.000
 117023625.53647 108979431.08747  24171807.7134   24171811.1424   24171807.7804
        42.000          36.000
 109939122.81547 103459045.38547  22823662.7614   22823667.8024   22823663.8394
        49.000          42.000
 108312798.19547 102191778.20647  22514185.6024   22514188.3314   22514185.4234
        50.000          45.000
 11 10  9  0 18 30.0000000  0  9G16G29G05G02G21G26G13G10G07
 125109666.71847  97488032.76947  23807590.4254   23807596.0974   23807590.6554
        45.000          39.000
 116949635.21847  91129564.40247  22254792.6134   22254795.7424   22254792.5764
        52.000          45.000
  97457178.39557  93732857.03857  20448427.4805   20448429.7055   20448427.0945
        56.000          51.000
 117220690.97347  91340790.45847  22306362.0584   22306364.2004   22306362.3124
        51.000          44.000
 120402181.41047 111612063.40847  24814729.5064   24814736.0194   24814730.1334
        47.000          39.000
 128277525.29547  82164274.56647  22507488.1874   22507492.7484   22507487.9874
        49.000          42.000
 117134281.69147 109065655.91147  24192865.4024   24192869.4334   24192865.8554
        43.000          36.000
 110041758.94547 103539021.71147  22843193.7924   22843198.7594   22843194.5594
        48.000          42.000
 108280027.27547 102166242.44047  22507949.3444   22507952.4264   22507949.1154
        51.000          45.000
 11 10  9  0 19  0.0000000  0 10G16G29G05G02G21G26G13G10G07G08
 125097993.27947  97478936.53647  23805368.7134   23805374.9704   23805369.2934
        45.000          39.000
 116995357.74847  91165192.30447  22263493.2734   22263496.4854   22263493.2964
        51.000          45.000
 117454837.00957  73731032.21257  20447983.1575   20447985.6165   20447983.0795
        56.000          51.000
 117316445.25947  91415404.20647  22324583.1504   22324585.4844   22324583.6634
        50.000          44.000
 120300620.43847 111532925.77247  24795402.5404   24795408.2094   24795403.0404
        47.000          39.000
 128161598.89847  82073942.36747  22485428.2454   22485432.7274   22485428.1904
        49.000          42.000
 117245167.70247 109152060.30747  24213966.3164   24213969.9584   24213966.2374
        43.000          36.000
 110144645.92647 103619192.86747  22862772.9444   22862778.3194   22862774.0254
        48.000          42.000
 108247880.74847 102141193.34647  22501832.0054   22501834.9164   22501831.9144
        51.000          45.000
 133599716.20157  86311446.10757  23520260.1835   23520265.4215   23520260.0645
        47.000          41.000
 11 10  9  0 19 30.0000000  0  9G16G29G05G02G21G26G10G07G08
 125086928.17347  97470314.19647  23803263.4524   23803269.4624   23803263.8674
        47.000          39.000
 117041626.51747  91201245.76847  22272297.3914   22272302.3064   22272297.0154
        52.000          46.000
  97453017.25557  93729613.71357  20447637.1955   20447639.7415   20447636.9275
        56.000          51.000
 117412522.31347  91490269.50647  22342866.2224   22342868.3144   22342866.5384
        51.000          44.000
 120199170.18947 111453874.21447  24776096.8254   24776103.2464   24776097.3974
        46.000          39.000
 128045990.47147  81983857.98747  22463428.4584   22463433.3964   22463428.3274
        50.000          43.000
 110247746.23647 103699530.38347  22882392.7194   22882397.6864   22882393.5744
        48.000          42.000
 108216321.80647 102116601.96047  22495826.6154   22495829.3254   22495826.2874
        51.000          45.000
 113511957.79457 106243066.86557  23503556.3125   23503560.2715   23503557.1585
        48.000          41.000
 11 10  9  0 20  0.0000000  0 10G16G29G05G02G21G26G13G10G07G08
 125076502.85647  97462190.25947  23801280.5194   23801285.2134   23801280.8244
        46.000          39.000
 117088471.35847  91237748.18647  22281212.3474   22281216.6914   22281212.4684
        52.000          45.000
 117451761.21057  73728636.67757  20447396.1705   20447398.0905   20447395.7575
        56.000          51.000
 117508951.58847  91565409.30447  22361216.0004   22361218.1304   22361216.1804
        50.000          44.000
 120097863.49247 111374933.93047  24756818.8424   24756825.0424   24756819.3474
        43.000          37.000
 127930734.70447  81894048.36547  22441496.0234   22441500.5894   22441495.6104
        49.000          42.000
 137467587.99257  89325386.21157  24256281.3585   24256283.2395   24256281.4615
        43.000          37.000
 110351089.80747 103780057.88047  22902058.1234   22902063.4224   22902059.1034
        48.000          42.000
 108185384.81047 102092495.53847  22489939.1004   22489942.0464   22489938.9754
        51.000          45.000
 133424536.33157  86174940.19657  23486925.4225   23486930.9885   23486926.0205
        47.000          41.000
 11 10  9  0 20 30.0000000  0 10G16G29G05G02G21G26G13G10G07G08
 125066681.69547  97454537.20147  23799411.2264   23799416.4194   23799411.6154
        45.000          39.000
 117135853.93847  91274669.59947  22290227.9494   22290232.1364   22290227.7474
        50.000          45.000
  97451000.36257  93728041.75057  20447252.8595   20447255.2865   20447252.7945
        56.000          51.000
 117605693.45647  91640792.63847  22379625.3544   22379627.5314   22379625.6244
        50.000          44.000
 119996666.26447 111296078.61747  24737561.7404   24737567.8084   24737561.7304
        40.000          35.000
 127815797.63147  81804487.10047  22419623.8104   22419628.7154   22419624.2714
        49.000          42.000
 117579114.33357 109412300.24657  24277495.3285   24277494.4165   24277494.3085
        43.000          36.000
 110454637.42847 103860744.35847  22921762.8204   22921767.9424   22921763.5824
        48.000          42.000
 108155033.31147 102068845.40147  22484163.2104   22484165.9444   22484162.9294
        51.000          45.000
 113337506.29957 106107127.58557  23470362.0025   23470366.8285   23470362.1755
        48.000          41.000
 11 10  9  0 21  0.0000000  0 10G16G29G05G02G21G26G13G10G07G08
 125057515.56247  97447394.39147  23797666.6984   23797672.9414   23797666.9414
        45.000          38.000
 117183823.63547  91312048.70347  22299357.3264   22299361.0384   22299357.1464
        52.000          45.000
 117450810.07557  73727892.26957  20447217.4585   20447220.1215   20447217.2365
        56.000          51.000
 117702797.48947  91716458.23547  22398103.3394   22398105.4064   22398103.6824
        50.000          44.000
 119895631.57347 111217349.71447  24718335.1314   24718340.6724   24718335.6714
        42.000          34.000
 127701233.47447  81715216.42647  22397823.2674   22397827.8524   22397823.0184
        49.000          42.000
 137690791.03557  89499313.33357  24298752.1915   24298753.0615   24298752.0065
        42.000          35.000
 130558386.87657  83941576.66057  22941515.3745   22941520.9165   22941515.9435
        48.000          42.000
 108125319.32047 102045691.83647  22478508.6534   22478511.4884   22478508.4484
        51.000          45.000
 133250836.66357  86039587.35457  23453874.0465   23453880.3705   23453874.9995
        48.000          41.000
 11 10  9  0 21 30.0000000  0 10G16G29G05G02G21G26G13G10G07G08
 135048951.52157  87440720.08857  23796039.8075   23796044.8725   23796038.7195
        46.000          39.000
 127232293.96657  81349810.43957  22308586.1075   22308593.2845   22308586.2225
        50.000          45.000
  97451146.14057  93728154.90357  20447280.8815   20447283.4145   20447280.6115
        56.000          51.000
 127800235.44157  81792387.43557  22416642.3265   22416643.2315   22416641.8845
        51.000          44.000
 139794763.66257  91138761.00257  24699133.8565   24699138.4695   24699132.5825
        44.000          36.000
 107587034.00357 101626239.48457  22376084.9845   22376090.2805   22376084.6435
        49.000          42.000
 117802586.14457 109586409.17957  24320039.5335   24320044.8625   24320041.6955
        42.000          36.000
 110662393.70457 104022622.67457  22961306.4295   22961311.3565   22961307.5255
        48.000          41.000
 128096189.15557  82022991.91157  22472967.0525   22472970.1205   22472967.3295
        51.000          45.000
 113164574.04757 105972373.75857  23437455.6565   23437461.1145   23437455.9895
        48.000          41.000
 11 10  9  0 22  0.0000000  0 11G16G29G05G02G21G15G26G13G10G07G08
 115041025.91657 107434542.70857  23794533.7485   23794539.5855   23794535.1715
        46.000          39.000
 107281406.14857 101388085.61657  22317926.6755   22317931.4655   22317926.8765
        50.000          45.000
 117452030.71857  73728844.75957  20447449.5995   20447452.1695   20447449.4545
        56.000          51.000
 107897964.94057 101868533.65357  22435245.0215   22435247.2295   22435245.4855
        50.000          44.000
 119693948.25257 111060192.21657  24679958.9035   24679963.4815   24679958.9515
        45.000          37.000
 142545518.52257  93282197.34957  25222593.3785   25222597.3755   25222592.3565
        42.000          35.000
 127473193.58957  81537537.37657  22354416.9345   22354421.7585   22354417.0105
        49.000          42.000
 137914737.12757  89673810.43057  24341373.5035   24341376.1925   24341372.1405
        42.000          36.000
 130766627.54957  84103843.96157  22981142.4765   22981148.0475   22981143.8135
        48.000          42.000
 108067697.37657 102000790.71057  22467544.7925   22467547.7075   22467545.0235
        51.000          45.000
 133078655.18957  85905415.20757  23421112.1205   23421119.5085   23421112.6865
        48.000          41.000
 11 10  9  0 22 30.0000000  0 10G16G29G05G02G15G26G13G10G07G08
 115033738.00847 107428863.65747  23793147.1334   23793152.7984   23793147.8014
        46.000          39.000
 107331035.48447 101426757.84847  22327372.0434   22327375.4444   22327371.8214
        53.000          45.000
  97453449.11257  93729949.69057  20447719.6705   20447722.3165   20447719.4025
        55.000          51.000
 107996050.73647 101944964.20947  22453910.3244   22453912.6714   22453910.6504
        50.000          43.000
 142426280.56447  93189284.77247  25199902.4484   25199907.1744   25199902.2124
        41.000          36.000
 127359675.16347  81449081.36247  22332815.3804   22332819.9834   22332815.4434
        49.000          43.000
 118027002.80857 109761288.92857  24362737.1515   24362739.9335   24362738.8605
        42.000          36.000
 110871115.58057 104185267.97557  23001021.2865   23001025.4335   23001021.8525
        48.000          41.000
 128039835.64857  81979085.46057  22462239.2385   22462240.9565   22462238.8075
        51.000          45.000
 112993192.47357 105838831.39557  23404841.3065   23404846.1405   23404840.9015
        48.000          41.000
 11 10  9  0 23  0.0000000  0 11G16G29G05G02G21G15G26G13G10G07G08
 115027057.46447 107423657.82147  23791876.2834   23791881.8434   23791876.1494
        46.000          39.000
 107381195.67247 101465843.80547  22336916.6204   22336920.5144   22336916.5994
        51.000          45.000
 117455385.95257  73731458.37357  20448088.0065   20448090.6105   20448087.7665
        56.000          51.000
 108094440.15547 102021631.27347  22472633.4204   22472635.3214   22472633.7664
        50.000          43.000
 139492830.80257  90903479.95857  24641684.3835   24641690.2525   24641684.9365
        46.000          40.000
 142307067.32347  93096391.47247  25177217.2404   25177221.1084   25177216.6854
        42.000          36.000
 127246492.13447  81360886.70447  22311276.9854   22311282.0154   22311277.3284
        49.000          43.000
 138139459.26357  89848916.10057  24384138.0935   24384141.2525   24384138.3265
        45.000          36.000
 130975721.44557  84266767.35357  23020935.7235   23020942.6175   23020936.5115
        48.000          42.000
 108012525.80457 101957800.35357  22457045.7325   22457048.5675   22457045.2455
        50.000          45.000
 132908012.57257  85772451.06857  23388636.7105   23388643.0225   23388637.4145
        47.000          41.000
 11 10  9  0 23 30.0000000  0 11G16G29G05G02G21G15G26G13G10G07G08
 135021052.12457  87418981.28757  23790731.2885   23790737.7525   23790731.6555
        47.000          39.000
 127432002.47857  81505446.08357  22346572.8355   22346577.2185   22346572.7535
        51.000          45.000
  97457897.28757  93733416.79457  20448565.5525   20448567.9985   20448565.2435
        56.000          51.000
 128193227.35857  82098616.90157  22491424.3475   22491426.4975   22491424.6785
        49.000          43.000
 119392526.19057 110825326.58657  24622593.2065   24622597.7545   24622593.5305
        45.000          39.000
 122187919.77557 113003545.33157  25154547.2685   25154552.6435   25154546.6075
        41.000          35.000
 107133661.35457 101272956.77457  22289814.4345   22289819.6005   22289814.8485
        50.000          43.000
 118252198.54757 109936779.09357  24405577.9215   24405580.5435   24405577.8395
        43.000          36.000
 111080655.79157 104348543.68157  23040897.7085   23040903.2535   23040898.8275
        48.000          41.000
 127985876.79157  81937034.15557  22451975.5825   22451978.7455   22451975.4695
        51.000          45.000
 112823282.63057 105706427.77757  23372513.4205   23372519.8325   23372515.1875
        48.000          42.000
 11 10  9  0 24  0.0000000  0 10G16G29G05G02G15G26G13G10G07G08
 135015632.08947  87414757.59747  23789700.0364   23789707.1974   23789700.5894
        46.000          39.000
 127483262.99847  81545389.35247  22356327.8134   22356332.0174   22356327.7544
        51.000          45.000
 117460910.19957  73735765.94057  20449138.6025   20449140.9145   20449138.1565
        56.000          51.000
 128292262.20247  82175786.92247  22510270.2704   22510272.3154   22510270.4734
        50.000          43.000
 122068805.98747 112910729.52747  25131880.0004   25131885.1984   25131880.1244
        42.000          37.000
 107021204.16647 101185327.93247  22268414.7754   22268419.7004   22268414.8394
        50.000          43.000
 118365021.01047 110024692.87347  24427047.2104   24427050.2614   24427046.6014
        42.000          36.000
 111185739.31947 104430427.35747  23060894.3124   23060899.3724   23060895.1104
        48.000          41.000
 107959832.55357 101916743.96957  22447016.7615   22447019.0315   22447016.6825
        51.000          45.000
 132738957.65357  85640729.16557  23356460.4495   23356464.7775   23356460.2695
        48.000          41.000
 11 10  9  0 24 30.0000000  0 10G16G29G05G02G15G26G13G10G07G08
 135010843.92947  87411026.33847  23788789.6764   23788795.8864   23788790.2034
        46.000          39.000
 127535072.37247  81585760.18847  22366186.8264   22366190.6654   22366186.8164
        51.000          44.000
  97464454.28857  93738523.81357  20449814.2665   20449817.0325   20449814.1315
        56.000          51.000
 128391616.93247  82253205.57747  22529177.0484   22529179.5234   22529177.5224
        50.000          43.000
 121949746.37747 112817955.81447  25109223.9164   25109228.8664   25109224.0424
        43.000          35.000
 106909114.22647 101097984.82047  22247085.0814   22247089.5994   22247085.1524
        50.000          43.000
 118478027.54747 110112749.85247  24448551.8764   24448554.2544   24448551.1664
        40.000          36.000
 111291036.46647 104512477.59547  23080931.2544   23080936.2354   23080932.2214
        47.000          41.000
 127934403.81257  81896930.26857  22442177.1235   22442179.1485   22442176.4405
        51.000          45.000
 112654998.66857 105575307.91057  23340481.9565   23340485.7885   23340481.8845
        49.000          42.000
 11 10  9  0 25  0.0000000  0 10G16G29G05G02G15G26G13G10G07G08
 135006705.60447  87407801.55047  23788001.7494   23788007.9404   23788002.3114
        47.000          39.000
 127587446.94447  81626571.78647  22376152.8484   22376156.2524   22376152.6714
        51.000          45.000
 117468560.43457  73741723.57757  20450596.2865   20450599.2565   20450596.0835
        55.000          51.000
 128491307.73347  82330886.20647  22548148.1804   22548150.4824   22548148.4754
        49.000          43.000
 121830760.65247 112725239.63247  25086582.4364   25086586.2334   25086582.0754
        43.000          37.000
 106797412.75847 101010944.25847  22225829.3274   22225834.4634   22225829.3974
        50.000          43.000
 118591233.51847 110200962.49147  24470093.8864   24470095.8344   24470093.6184
        44.000          35.000
 111396559.85947 104594702.69247  23101012.4294   23101017.7914   23101013.2414
        48.000          41.000
 107909583.91557 101877585.56957  22437457.0195   22437460.0645   22437457.0245
        51.000          45.000
 132571423.92157  85510180.85657  23324581.5175   23324586.3545   23324582.3445
        48.000          41.000
 11 10  9  0 25 30.0000000  0 10G16G29G05G02G15G26G13G10G07G08
 135003187.63247  87405060.26747  23787332.3464   23787338.6424   23787333.3094
        46.000          39.000
 127640354.54147  81667798.62247  22386221.5334   22386225.1944   22386221.2934
        52.000          45.000
  97473202.52457  93745341.58257  20451478.1255   20451480.8875   20451478.0625
        55.000          51.000
 108591276.06957 102408776.38057  22567177.0755   22567178.7725   22567176.9385
        50.000          43.000
 121711821.04647 112632559.44047  25063948.9114   25063953.8564   25063948.3874
        44.000          35.000
 106686075.49647 100924188.59147  22204642.0884   22204646.8704   22204642.1974
        50.000          43.000
 118704606.46247 110289305.04247  24491666.9794   24491669.9524   24491667.7734
        43.000          35.000
 111502280.94847 104677081.93247  23121131.2734   23121136.4064   23121132.1354
        48.000          41.000
 127885410.62557  81858752.78457  22432854.6235   22432856.8285   22432854.0185
        51.000          45.000
 112488258.18557 105445376.12357  23308756.2165   23308761.2635   23308756.2515
        48.000          42.000
 11 10  9  0 26  0.0000000  0 11G16G29G05G02G21G15G26G13G10G07G08
 135000290.12947  87402802.42447  23786781.5064   23786788.3664   23786781.7694
        46.000          39.000
 127693792.37147  81709438.13147  22396390.3694   22396394.1604   22396390.3454
        52.000          45.000
 117478358.75057  73749358.14357  20452460.3755   20452463.2355   20452460.2635
        56.000          51.000
 108691574.56647 102486931.12447  22586262.9454   22586265.4114   22586263.3034
        49.000          43.000
 138893029.75157  90436105.99557  24527544.2825   24527549.4975   24527544.5015
        43.000          38.000
 121592929.95347 112539916.92847  25041324.3044   25041328.9384   25041324.1434
        41.000          36.000
 106575103.94047 100837717.85747  22183524.4574   22183529.2244   22183524.5644
        51.000          43.000
 118818144.33247 110377775.99747  24513273.1784   24513276.6924   24513273.6484
        43.000          35.000
 111608201.60747 104759618.45547  23141286.5214   23141291.4394   23141287.3634
        47.000          41.000
 107861809.16857 101840355.98157  22428366.9955   22428370.3865   22428366.9295
        51.000          45.000
 132405510.12457  85380901.74957  23293006.3485   23293010.2815   23293006.1485
        48.000          42.000
 11 10  9  0 26 30.0000000  0 11G16G29G05G02G21G15G26G13G10G07G08
 134998026.60247  87401038.55047  23786351.1294   23786357.1264   23786351.7534
        46.000          39.000
 107747712.33557 101751441.36057  22406661.9645   22406667.5525   22406661.4735
        50.000          45.000
  97484059.05957  93753800.05257  20453545.9085   20453548.9735   20453545.4915
        55.000          51.000
 108792185.94547 102565329.48847  22605408.7634   22605411.1334   22605409.0394
        50.000          43.000
 118793595.07457 110358623.98057  24508622.2695   24508627.4535   24508622.2505
        42.000          37.000
 121474102.76847 112447324.18247  25018712.5354   25018717.0204   25018712.4034
        40.000          35.000
 106464513.17547 100751543.45047  22162479.6444   22162484.1784   22162479.7564
        51.000          43.000
 118931857.38447 110466383.38747  24534912.5014   24534914.6294   24534911.8444
        42.000          36.000
 111714328.86347 104842315.71447  23161481.3334   23161486.1164   23161482.2534
        47.000          41.000
 127838869.27657  81822484.43757  22423999.3995   22424002.0585   22424000.0115
        51.000          45.000
 112323143.62157 105316718.68357  23277332.4305   23277336.3475   23277332.6035
        48.000          41.000
 11 10  9  0 27  0.0000000  0 11G16G29G05G02G21G15G26G13G10G07G08
 134996406.79147  87399776.32447  23786042.0294   23786049.0554   23786042.3754
        46.000          39.000
 127802251.42657  81793942.06957  22417038.6995   22417043.7475   22417039.5555
        50.000          44.000
 117490307.24957  73758669.17357  20454735.1345   20454738.2635   20454735.0245
        56.000          51.000
 108893117.97647 102643977.84847  22624615.4444   22624618.0354   22624615.8474
        49.000          43.000
 138694354.93557  90281301.19257  24489732.5765   24489736.1625   24489734.0065
        48.000          38.000
 121355351.07047 112354790.57147  24996114.4274   24996119.4584   24996114.3594
        40.000          36.000
 106354315.80147 100665675.09647  22141509.9324   22141514.7594   22141510.1514
        50.000          44.000
 119045753.61347 110555133.76747  24556584.8234   24556589.0084   24556585.6524
        41.000          35.000
 111820670.15547 104925179.44647  23181717.1554   23181721.9654   23181718.1224
        48.000          41.000
 107816566.51757 101805108.90357  22419753.3435   22419755.3285   22419752.3645
        51.000          45.000
 132241190.41957  85252857.01257  23261738.8185   23261743.2695   23261739.2355
        48.000          42.000
 11 10  9  0 27 30.0000000  0 10G16G29G05G02G15G26G13G10G07G08
 134995396.12447  87398988.69447  23785850.7444   23785856.6604   23785851.3324
        46.000          39.000
 107857341.17257 101836875.62157  22427516.5335   22427519.8315   22427517.4255
        52.000          45.000
  97497078.80257  93763945.03457  20456022.6965   20456025.6965   20456022.6585
        56.000          51.000
 108994333.48647 102722846.89447  22643876.2524   22643878.7684   22643876.8394
        49.000          43.000
 121236642.78647 112262290.67947  24973524.8584   24973530.4174   24973524.7004
        41.000          37.000
 106244482.87947 100580091.54747  22120608.9114   22120613.6064   22120609.0314
        51.000          44.000
 119159795.85047 110643997.84747  24578287.0244   24578289.6664   24578286.9084
        43.000          35.000
 111927189.68247 105008182.00447  23201986.7644   23201991.4724   23201987.8324
        47.000          41.000
 127794853.72257  81788190.86157  22415621.1005   22415622.9395   22415620.8535
        51.000          45.000
 112159622.26157 105189296.25657  23246219.3815   23246224.0095   23246220.1635
        48.000          42.000
 11 10  9  0 28  0.0000000  0 11G16G29G05G02G21G15G26G13G10G07G08
 134995022.21647  87398697.20847  23785777.9524   23785785.2134   23785778.4364
        45.000          38.000
 127912870.59557  81880134.85757  22438092.9065   22438096.6725   22438092.1095
        52.000          45.000
 117504392.16757  73769644.82857  20457413.5425   20457416.1355   20457413.6125
        55.000          51.000
 109095858.01647 102801956.83447  22663195.5564   22663198.1434   22663196.0774
        49.000          43.000
 118496236.96757 110126912.90957  24452039.2975   24452045.3415   24452040.3155
        46.000          39.000
 121118006.77847 112169847.04147  24950949.4104   24950953.9254   24950949.1224
        42.000          36.000
 106135042.70347 100494813.87247  22099782.8824   22099787.4104   22099783.0744
        50.000          44.000
 119274008.96147 110732995.26047  24600021.5954   24600023.1394   24600021.2944
        41.000          34.000
 112033912.75347 105091342.95547  23222295.2684   23222300.1504   23222296.2454
        47.000          41.000
 107773756.69957 101771748.60957  22411608.6875   22411611.2515   22411608.8035
        51.000          45.000
 112078489.51547 105126076.25247  23230780.0444   23230784.4644   23230780.6844
        48.000          42.000
 11 10  9  0 28 30.0000000  0 11G16G29G05G02G21G15G26G13G10G07G08
 134995287.17547  87398903.55247  23785829.5074   23785835.0084   23785829.8034
        45.000          39.000
 127968995.71647  81923868.47347  22448774.0684   22448778.4124   22448774.0824
        52.000          45.000
  97512242.86057  93775761.64857  20458908.2695   20458911.0825   20458907.9635
        55.000          51.000
 109197691.75647 102881307.72547  22682574.2454   22682576.6184   22682574.6134
        49.000          43.000
 118397455.66947 110049940.66247  24433240.9224   24433247.4114   24433241.6824
        41.000          37.000
 120999447.45947 112077462.97347  24928388.8704   24928392.9664   24928388.4444
        42.000          37.000
 106026000.08747 100409845.47547  22079032.7014   22079037.4034   22079032.7264
        51.000          44.000
 119388392.27947 110822125.15747  24621787.1014   24621790.1054   24621787.6574
        41.000          35.000
 112140839.90247 105174662.82847  23242643.2384   23242647.5574   23242644.2154
        47.000          41.000
 127753325.14657  81755831.79557  22407717.8615   22407719.5125   22407717.3825
        51.000          45.000
 111997780.63147 105063186.49147  23215421.4264   23215425.7954   23215422.1724
        49.000          42.000
 11 10  9  0 29  0.0000000  0 11G16G29G05G02G21G15G26G13G10G07G08
 134996180.33847  87399599.52047  23785999.7914   23786006.1154   23786000.1724
        46.000          39.000
 128025648.14747  81968013.41247  22459553.3854   22459557.6964   22459553.3534
        50.000          44.000
 117520625.85957  73782294.25057  20460503.7455   20460506.6115   20460503.5085
        56.000          51.000
 109299820.60047 102960888.43047  22702008.9214   22702011.2884   22702009.1964
        49.000          43.000
 118298839.09947 109973096.92947  24414474.8964   24414481.8074   24414474.8404
        45.000          39.000
 120880956.44747 111985132.26347  24905840.3924   24905844.3664   24905840.2474
        42.000          36.000
 105917347.73047 100325181.24947  22058357.1324   22058361.4264   22058357.2344
        51.000          44.000
 119502932.47347 110911377.47547  24643584.2094   24643586.9784   24643583.7944
        41.000          35.000
 112247958.08247 105258131.54147  23263027.1554   23263031.5984   23263028.1324
        47.000          41.000
 107733477.63657 101740361.25857  22403944.6745   22403947.5235   22403944.6335
        51.000          45.000
 111917487.11647 105000620.25547  23200142.3504   23200146.4994   23200142.7874
        49.000          42.000
 11 10  9  0 29 30.0000000  0 11G16G29G05G02G21G15G26G13G10G07G08
 134997684.30547  87400771.25147  23786285.4474   23786292.6754   23786286.4834
        45.000          39.000
 128082808.12847  82012553.71547  22470431.3204   22470434.4674   22470431.2794
        51.000          45.000
  97529529.72657  93789232.47057  20462198.1115   20462200.9805   20462197.8405
        55.000          51.000
 109402226.18547 103040684.81947  22721496.0704   22721498.9724   22721496.7264
        48.000          43.000
 118200372.35147 109896369.70847  24395738.0284   24395744.2454   24395738.6064
        47.000          40.000
 140762504.23657  91892831.60757  24883299.8925   24883307.1995   24883302.0495
        39.000          34.000
 105809071.61247 100240810.08347  22037752.9304   22037757.6674   22037752.9204
        51.000          44.000
 119617609.92447 111000736.42747  24665406.1654   24665407.4674   24665406.0204
        38.000          34.000
 112355248.86247 105341734.83747  23283443.5874   23283448.1894   23283444.6684
        47.000          41.000
 127714265.69157  81725391.04457  22400288.0065   22400290.6015   22400287.5945
        51.000          45.000
 111837595.47147 104938367.16547  23184939.2464   23184943.5504   23184939.9164
        49.000          42.000
 11 10  9  0 30  0.0000000  0 10G16G29G05G02G21G26G13G10G07G08
 134999834.81647  87402446.82947  23786694.4054   23786702.2104   23786694.5384
        45.000          39.000
 128140508.94847  82057514.95347  22481411.2544   22481416.1824   22481411.3044
        50.000          45.000
 117538984.53657  73796599.98157  20463997.1125   20463999.9255   20463996.8495
        55.000          51.000
 109504942.32947 103120723.47647  22741042.3284   22741044.4774   22741042.5494
        48.000          43.000
 118102093.74747 109819789.33647  24377035.5384   24377041.7564   24377036.5944
        45.000          38.000
 105701211.70447 100156763.84247  22017227.6654   22017231.9514   22017227.8884
        51.000          44.000
 119732458.05547 111090228.41647  24687261.0654   24687264.5694   24687261.0394
        41.000          35.000
 112462745.78147 105425498.66147  23303899.4064   23303904.1104   23303900.4014
        47.000          41.000
 107695707.12657 101710933.31357  22396753.7405   22396755.4855   22396753.1665
        51.000          45.000
 111758143.39447 104876456.41247  23169819.6994   23169824.1684   23169820.3634
        49.000          42.000
 11 10  9  0 30 30.0000000  0 11G16G29G05G02G21G15G26G13G10G07G08
 135002611.22547  87404609.98347  23787223.9764   23787230.6024   23787224.3094
        47.000          40.000
 108198754.60757 102102904.70757  22492490.7055   22492495.1865   22492490.6245
        51.000          45.000
  97548968.29257  93804379.31557  20465897.1695   20465900.0625   20465896.9035
        56.000          51.000
 109607945.25147 103200985.48247  22760643.3454   22760645.2684   22760643.3344
        49.000          42.000
 118003984.01847 109743340.39047  24358365.7624   24358371.8384   24358366.3954
        44.000          37.000
 120525958.01557 111708523.11157  24838275.3285   24838279.0145   24838274.5485
        41.000          36.000
 105593749.38547 100073027.52547  21996777.8404   21996781.9794   21996777.8304
        52.000          44.000
 119847453.95747 111179835.53047  24709144.5204   24709146.9884   24709144.2734
        42.000          35.000
 112570425.76347 105509404.88047  23324390.7604   23324395.0854   23324391.8284
        47.000          40.000
 127677745.31457  81696934.19757  22393337.7105   22393340.8005   22393337.9185
        51.000          45.000
 111679113.75147 104814874.98747  23154780.8204   23154785.3594   23154781.3644
        49.000          42.000
 11 10  9  0 31  0.0000000  0 11G16G29G05G02G21G15G26G13G10G07G08
 135006014.03347  87407261.40347  23787872.2514   23787877.6614   23787873.0524
        47.000          39.000
 108257493.33447 102148675.54247  22503667.8554   22503671.0704   22503667.7414
        51.000          44.000
 117559479.23257  73812568.56457  20467898.0945   20467901.2345   20467897.7735
        55.000          51.000
 109711233.73047 103281470.11647  22780297.9934   22780300.5494   22780298.3664
        49.000          42.000
 117906045.61447 109667024.79047  24339729.0084   24339733.7474   24339729.2964
        47.000          38.000
 140407763.98257  91616424.85457  24815783.8235   24815787.4975   24815782.0575
        43.000          38.000
 105486686.85747  99989602.13247  21976404.5154   21976408.8504   21976404.5724
        51.000          44.000
 119962595.56347 111269556.27847  24731054.5194   24731057.2944   24731054.8704
        42.000          35.000
 112678288.36047 105593453.54347  23344916.1254   23344920.9654   23344917.0904
        46.000          40.000
 107660425.59457 101683438.87857  22390041.8805   22390044.2905   22390041.2015
        51.000          45.000
 111600509.08247 104753624.55147  23139823.1544   23139827.1574   23139823.8184
        49.000          42.000
 11 10  9  0 31 30.0000000  0 11G16G29G05G02G21G15G26G13G10G07G08
 135010063.10147  87410416.38647  23788642.4114   23788648.0554   23788642.8704
        47.000          39.000
 108316766.82547 102194862.52347  22514946.9154   22514951.8634   22514946.8484
        51.000          44.000
  97570547.88757  93821194.86257  20470003.2445   20470006.0275   20470003.0825
        56.000          51.000
 109814825.52547 103362191.13847  22800010.7734   22800013.1744   22800011.1294
        49.000          42.000
 117808301.29047 109590860.46347  24321128.3684   24321133.4834   24321129.0514
        46.000          38.000
 120289630.11257 111524365.37857  24793308.8325   24793314.1835   24793308.6605
        44.000          38.000
 105380048.99947  99906507.92647  21956111.7604   21956115.9194   21956111.9124
        51.000          44.000
 120077900.38347 111359404.04847  24752997.0564   24752999.2544   24752996.4824
        43.000          35.000
 112786351.29747 105677658.22447  23365480.0724   23365484.9164   23365480.9964
        47.000          40.000
 127643752.38157  81670447.98557  22386868.0295   22386870.0435   22386867.9105
        52.000          45.000
 111522352.35047 104692723.13147  23124950.4044   23124954.6214   23124950.9984
        49.000          42.000
 11 10  9  0 32  0.0000000  0 11G16G29G05G02G21G15G26G13G10G07G08
 135014711.87447  87414038.72647  23789525.6374   23789532.6874   23789526.9064
        46.000          39.000
 108376527.10547 102241429.10747  22526319.0364   22526322.8184   22526319.1204
        50.000          44.000
 117582109.61557  73830202.97557  20472204.1585   20472207.1785   20472204.0935
        56.000          51.000
 109918670.73147 103443109.29347  22819772.0154   22819774.6614   22819772.5244
        49.000          42.000
 117710706.51547 109514812.90947  24302556.6514   24302562.3454   24302557.0394
        46.000          38.000
 140171568.59957  91432367.55757  24770843.9535   24770849.8275   24770844.6915
        43.000          38.000
 105273790.69747  99823709.21347  21935891.4434   21935895.8934   21935891.5264
        51.000          44.000
 120193319.34847 111449340.72147  24774961.2174   24774962.9864   24774960.6044
        42.000          35.000
 112894565.91347 105761981.06847  23386073.1924   23386077.8564   23386074.1844
        48.000          40.000
 107627662.66157 101657907.94557  22383808.5435   22383811.3085   22383807.8675
        52.000          45.000
 111444599.64747 104632136.62647  23110154.5184   23110158.7864   23110155.1584
        49.000          42.000
 11 10  9  0 32 30.0000000  0 11G16G29G05G02G21G15G26G13G10G07G08
 135020006.76147  87418164.43747  23790533.9394   23790542.1774   23790534.1274
        46.000          39.000
 108436818.68447 102288409.57247  22537792.1534   22537795.9994   22537791.9444
        51.000          44.000
  97594229.19757  93839647.39857  20474510.0455   20474512.9345   20474509.6285
        56.000          51.000
 110022815.00447 103524260.70347  22839590.1324   22839592.3974   22839590.5444
        49.000          42.000
 117613309.57147 109438919.09947  24284022.2864   24284028.5924   24284023.0674
        46.000          39.000
 120053655.71557 111340493.13757  24748401.2885   24748405.6635   24748400.2525
        42.000          37.000
 105167961.64547  99741244.57347  21915753.2504   21915757.7494   21915753.2304
        51.000          44.000
 120308897.50647 111539401.60647  24796954.1504   24796955.7534   24796953.9274
        41.000          35.000
 113002977.81947 105846457.88847  23406702.8834   23406707.4594   23406703.7474
        47.000          40.000
 127612244.66457  81645895.57957  22380872.2825   22380874.3415   22380871.5205
        51.000          45.000
 111367300.37147 104571903.38147  23095444.9544   23095449.1174   23095445.5494
        49.000          42.000
 11 10  9  0 33  0.0000000  0 11G16G29G05G02G21G15G26G13G10G07G08
 135025926.82647  87422777.53147  23791661.3394   23791668.5764   23791662.0584
        47.000          39.000
 108497618.35847 102335785.77247  22549361.5384   22549366.4724   22549361.4284
        50.000          44.000
 117606880.77957  73849504.37957  20476917.2755   20476920.1325   20476916.6305
        55.000          51.000
 110127234.80847 103605626.84947  22859460.4924   22859462.7594   22859460.8674
        49.000          42.000
 117516092.22847 109363165.61247  24265522.0844   24265527.8734   24265522.6824
        45.000          38.000
 139935817.06657  91248676.60857  24725972.1465   24725974.8805   24725970.7825
        40.000          36.000
 105062545.25447  99659101.87947  21895693.0724   21895697.6084   21895693.0794
        51.000          44.000
 120424610.79847 111629567.69347  24818973.7054   24818975.8354   24818973.4114
        42.000          36.000
 113111563.45347 105931070.05047  23427366.0354   23427371.1674   23427366.9894
        47.000          40.000
 107597432.28357 101634351.45757  22378055.9525   22378058.7335   22378055.5495
        51.000          45.000
 111290435.59447 104512008.51347  23080818.2854   23080822.5394   23080818.9144
        49.000          43.000
 11 10  9  0 33 30.0000000  0 11G16G29G05G02G21G15G26G13G10G07G08
 135032477.78747  87427882.20847  23792907.9564   23792914.7844   23792908.3744
        47.000          39.000
 108558929.68147 102383560.58447  22561028.9764   22561032.9374   22561028.7514
        50.000          44.000
  97620058.66857  93859774.49757  20479425.0745   20479427.9165   20479424.9045
        55.000          51.000
 110231933.43247 103687210.28247  22879384.0714   22879386.3094   22879384.2804
        48.000          42.000
 117419061.80947 109287557.64547  24247057.9724   24247063.1224   24247058.6294
        46.000          38.000
 119817965.12657 111156828.60457  24703557.6565   24703564.2215   24703559.1505
        42.000          36.000
 104957550.86547  99577288.71747  21875712.8174   21875717.3434   21875713.0074
        51.000          44.000
 120540462.60247 111719841.74447  24841019.5474   24841023.2154   24841019.5324
        42.000          36.000
 113220325.62447 106015818.99247  23448063.3474   23448068.8174   23448064.2964
        47.000          40.000
 127583244.37657  81623292.53357  22375359.0975   22375362.8395   22375359.4015
        52.000          45.000
 111214014.32347 104452459.31947  23066275.9244   23066280.5084   23066276.5044
        49.000          42.000
 11 10  9  0 34  0.0000000  0 10G16G29G05G02G21G15G26G13G07G08
 135039649.33347  87433470.30547  23794271.7544   23794278.9894   23794272.6234
        45.000          38.000
 108620742.85147 102431727.21947  22572791.9194   22572795.8024   22572792.1214
        50.000          44.000
 117633758.58157  73870447.76957  20482032.9165   20482036.0735   20482032.6145
        56.000          51.000
 110336899.06547 103769001.62247  22899358.3684   22899360.7764   22899358.5454
        49.000          42.000
 117322211.39947 109212089.86347  24228628.5954   24228633.9534   24228628.9824
        47.000          40.000
 139700279.99457  91065125.53657  24681163.5615   24681170.3265   24681163.9915
        45.000          38.000
 104852968.83047  99495795.84147  21855811.9374   21855816.2084   21855811.9184
        52.000          45.000
 120656441.43247 111810214.83047  24863089.9354   24863093.0244   24863090.1714
        42.000          35.000
 107569730.14457 101612767.61357  22372782.5465   22372784.7435   22372781.7615
        52.000          45.000
 111138029.23947 104393249.76247  23051816.7814   23051821.2354   23051817.2464
        49.000          42.000
 11 10  9  0 34 30.0000000  0 11G16G29G05G02G21G15G26G13G10G07G08
 135047461.26547  87439557.55347  23795758.5694   23795764.9294   23795758.9274
        46.000          39.000
 108683073.75447 102480296.94647  22584653.0414   22584656.6064   22584652.7484
        50.000          44.000
  97648011.85357  93881554.49857  20484744.2375   20484747.0965   20484743.9435
        56.000          51.000
 110442149.40247 103851014.80847  22919386.6554   22919389.4174   22919387.1564
        48.000          42.000
 117225562.78547 109136779.48047  24210236.2854   24210242.1234   24210236.8614
        45.000          39.000
 119582716.58657 110973523.56357  24658788.0405   24658793.5295   24658788.0395
        44.000          39.000
 104748821.54847  99414640.72347  21835994.2344   21835999.1984   21835994.4744
        52.000          44.000
 120772564.68247 111900700.45147  24885187.5064   24885189.8484   24885187.0984
        39.000          34.000
 133438413.40757  86185766.46957  23489557.0345   23489559.5945   23489556.7665
        46.000          40.000
 127556820.83457  81602704.60757  22370328.0765   22370330.9805   22370328.2105
        51.000          45.000
 111062502.07647 104334396.42947  23037445.2184   23037449.6814   23037445.8644
        50.000          43.000
 11 10  9  0 35  0.0000000  0 11G16G29G05G02G21G15G26G13G10G07G08
 135055880.20747  87446117.68347  23797360.7894   23797367.0224   23797361.4574
        44.000          39.000
 108745887.54147 102529242.97747  22596605.2524   22596609.3274   22596604.9804
        50.000          44.000
 117662775.24057  73893060.63357  20487552.7185   20487555.2635   20487552.3455
        56.000          51.000
 110547648.94547 103933222.01247  22939463.0764   22939465.0454   22939463.4384
        49.000          42.000
 117129083.02147 109061599.52047  24191877.0574   24191883.3834   24191877.6794
        46.000          38.000
 139465160.45757  90881911.85257  24636424.7195   24636432.4435   24636425.3355
        40.000          38.000
 124645106.03257  79333827.98957  21816254.1655   21816259.2805   21816253.8765
        51.000          44.000
 140888734.65457  91991212.78557  24907304.7405   24907306.9145   24907305.6935
        39.000          33.000
 113547631.35257 106270860.50157  23510348.0565   23510353.1075   23510349.8265
        46.000          40.000
 107544533.01257 101593130.10957  22367990.3905   22367993.4655   22367989.8715
        51.000          45.000
 110987406.27447 104275880.44347  23023155.0384   23023159.3334   23023155.4864
        49.000          43.000
 11 10  9  0 35 30.0000000  0 11G16G29G05G02G21G15G26G13G10G07G08
 115064928.52257 107453165.21757  23799084.9655   23799091.2665   23799084.8815
        47.000          39.000
 128809247.79157  82578624.03457  22608657.1095   22608659.2895   22608657.1615
        51.000          44.000
  97678072.78257  93904980.22057  20490463.9805   20490466.8065   20490463.8405
        55.000          51.000
 130653433.44057  84015652.65857  22959591.5865   22959594.4355   22959592.2315
        47.000          42.000
 137032820.14457  88986593.70757  24173557.8965   24173562.3225   24173558.5075
        48.000          39.000
 119347851.60457 110790520.54557  24614086.9755   24614090.9945   24614084.6055
        42.000          38.000
 104541838.68257  99253366.37357  21796597.9605   21796601.4665   21796597.1015
        51.000          44.000
 121005099.64457 112081881.73857  24929451.6585   24929454.9495   24929450.7835
        42.000          34.000
 133657092.97257  86356159.26357  23531175.0055   23531179.0725   23531176.0085
        47.000          40.000
 127532895.18757  81584062.62157  22365776.0055   22365778.6955   22365775.3405
        51.000          45.000
 130912799.80657  84217751.61257  23008952.3635   23008956.4995   23008952.9505
        49.000          43.000
 11 10  9  0 36  0.0000000  0 11G16G29G05G02G21G15G26G13G10G07G08
 135074628.55157  87460728.04657  23800926.5105   23800931.6695   23800927.0095
        46.000          39.000
 108873061.54157 102628347.26257  22620800.9095   22620803.9935   22620802.0555
        51.000          44.000
  97693901.33147  93917315.41347  20493475.1864   20493477.6654   20493474.9424
        55.000          51.000
 110759449.12057 104098257.09757  22979770.2135   22979773.7925   22979771.3945
        49.000          42.000
 116936731.48957 108911717.04057  24155273.0325   24155278.2865   24155274.0635
        46.000          40.000
 119230543.16147 110699111.61947  24591761.3224   24591766.7874   24591761.0164
        43.000          37.000
 124438937.81457  79173176.46257  21777021.5545   21777026.6905   21777022.4515
        52.000          45.000
 141121573.95757  92172638.40757  24951617.7435   24951620.7475   24951617.8695
        42.000          35.000
 113766709.02357 106441577.76557  23552031.9815   23552037.3555   23552033.3445
        45.000          40.000
 127521886.48047  81575484.08547  22363681.1184   22363684.0874   22363681.0174
        51.000          45.000
 110838611.48157 104159940.98757  22994835.4115   22994839.3605   22994836.0145
        49.000          42.000
 11 10  9  0 36 30.0000000  0 12G06G16G29G05G02G21G15G26G13G10G07G08
 142816732.21557  93493489.19557  25274235.7455   25274252.5465   25274239.6015
        38.000          33.000
 115084926.30857 107468748.54757  23802888.3325   23802895.7835   23802888.5385
        45.000          39.000
 128937349.72057  82678434.75257  22633041.3825   22633045.8955   22633041.1665
        51.000          45.000
 117710257.84257  73930061.14757  20496588.3665   20496590.8795   20496587.8635
        55.000          51.000
 130865815.81957  84181150.87857  23000001.1545   23000004.2455   23000001.4175
        48.000          41.000
 136840809.64157  88836961.60357  24137027.8275   24137034.1505   24137028.6405
        46.000          40.000
 139113313.44657  90607758.30957  24569460.3295   24569464.7795   24569458.7325
        47.000          37.000
 104336525.48557  99093378.78557  21757530.4155   21757534.6665   21757530.6495
        52.000          45.000
 121238198.75657 112263516.95557  24973809.3125   24973812.7075   24973807.8535
        40.000          34.000
 133876451.83057  86527085.95057  23572919.8675   23572924.6505   23572922.1105
        46.000          39.000
 107511512.79757 101567398.80657  22361707.4115   22361710.6905   22361707.7245
        52.000          45.000
 130764905.92757  84102512.46757  22980806.2965   22980810.3315   22980806.5615
        50.000          42.000
 11 10  9  0 37  0.0000000  0 12G06G16G29G05G02G21G15G26G13G10G07G08
 122729823.56857 113425793.38257  25257677.9165   25257688.3685   25257677.5335
        40.000          33.000
 135095801.52957  87477209.23157  23804970.1965   23804977.5765   23804970.5335
        47.000          39.000
 109002176.94057 102728948.75957  22645376.0895   22645380.9035   22645376.2755
        51.000          44.000
  97727150.05557  93943222.34357  20499803.0865   20499805.8295   20499802.8155
        55.000          51.000
 110972327.65257 104264136.14757  23020280.4725   23020283.9905   23020281.1935
        48.000          41.000
 116745170.64357 108762447.13157  24118821.2685   24118827.2635   24118821.7425
        45.000          38.000
 118996221.96357 110516522.20557  24547175.7295   24547179.9905   24547175.8805
        44.000          37.000
 124234552.57357  79013922.88157  21738122.8595   21738126.8845   21738122.8395
        52.000          45.000
 141354948.38357  92354496.80457  24996021.6435   24996026.6845   24996022.9055
        39.000          34.000
 113986400.24457 106612759.59857  23593842.8995   23593847.8595   23593843.3905
        46.000          40.000
 127501801.01857  81559834.29157  22359857.3785   22359860.0225   22359856.9045
        51.000          45.000
 110691630.74957 104045410.71857  22966865.0785   22966868.9015   22966865.7335
        49.000          43.000
 11 10  9  0 37 30.0000000  0 12G06G16G29G05G02G21G15G26G13G10G07G08
 142643116.29957  93358232.69757  25241176.3825   25241187.0845   25241176.9075
        41.000          36.000
 135107381.10647  87486232.08647  23807174.3504   23807181.6174   23807175.2944
        46.000          39.000
 129067537.19757  82779887.63057  22657807.3875   22657809.7585   22657807.4635
        51.000          44.000
  97744585.29947  93956808.25347  20503120.8004   20503123.7214   20503120.5394
        55.000          51.000
 111079171.28847 104347390.96247  23040612.3904   23040615.8704   23040612.4024
        46.000          41.000
 116649710.22247 108688062.82547  24100655.2124   24100660.4964   24100655.5074
        46.000          39.000
 118879244.67147 110425370.81947  24524915.2794   24524920.2254   24524915.3874
        43.000          36.000
 124133023.36547  78934808.84347  21718802.7224   21718806.9484   21718802.6774
        52.000          45.000
 121471855.66257 112445599.25657  25018264.4535   25018265.1215   25018263.4665
        40.000          33.000
 134096480.28657  86698528.31157  23614796.6095   23614802.0395   23614797.3605
        45.000          39.000
 107492683.76057 101552721.65957  22358128.9885   22358132.3055   22358129.1775
        51.000          45.000
 110618847.60347 103988696.75047  22953014.8564   22953018.8044   22953015.2734
        49.000          43.000
 11 10  9  0 38  0.0000000  0 11G06G16G29G05G02G21G15G26G10G07G08
 142556682.04847  93290881.50847  25224728.5554   25224739.2924   25224728.8044
        42.000          37.000
 135119553.90947  87495717.28347  23809490.3634   23809497.5424   23809491.1434
        46.000          39.000
 129133321.18347  82831147.94947  22670324.8744   22670330.4374   22670324.9224
        50.000          44.000
 117762512.77357  73970777.52257  20506533.3625   20506536.2635   20506533.0285
        56.000          51.000
 111186239.31847 104430821.00847  23060986.3094   23060989.4514   23060986.6374
        46.000          41.000
 116554422.23847 108613813.03747  24082522.0394   24082528.2674   24082522.8944
        47.000          40.000
 118762342.71947 110334278.56447  24502669.8524   24502675.0184   24502669.4524
        40.000          37.000
 124031906.51647  78856016.19347  21699561.2114   21699565.5324   21699561.1864
        52.000          45.000
 134206723.04447  86784431.84647  23635775.2074   23635780.1114   23635776.0024
        45.000          39.000
 107484207.77847 101546116.57747  22356516.3744   22356519.7084   22356516.0494
        51.000          45.000
 110546496.74947 103932319.64947  22939246.8824   22939250.6634   22939247.6244
        50.000          43.000
 11 10  9  0 38 30.0000000  0 10G06G16G29G05G02G21G26G10G07G08
 142470578.92447  93223788.39847  25208343.9064   25208354.4054   25208344.0564
        40.000          35.000
 135132368.87147  87505702.85647  23811928.9494   23811935.7104   23811929.6534
        47.000          39.000
 129199610.18547  82882801.73347  22682939.1394   22682943.8144   22682939.0404
        52.000          45.000
  97780988.04557  93985174.02057  20510049.0015   20510051.8655   20510048.7615
        56.000          51.000
 111293578.12047 104514461.78947  23081412.2334   23081415.9244   23081412.5524
        47.000          41.000
 116459357.85047 108539737.52547  24064431.4344   24064437.1524   24064432.5424
        47.000          39.000
 103931261.31057  98777592.28757  21680408.5615   21680411.9205   21680408.4245
        52.000          45.000
 134317140.43347  86870471.49547  23656786.8784   23656791.4524   23656788.0194
        47.000          39.000
 127476427.12057  81540062.12957  22355028.9545   22355031.5875   22355027.9455
        52.000          45.000
 110474629.89947 103876319.50047  22925570.9974   22925574.8624   22925571.6074
        50.000          43.000
 11 10  9  0 39  0.0000000  0 11G16G29G05G02G21G15G26G13G10G07G08
 135145806.84247  87516173.99547  23814487.0574   23814493.4484   23814487.4234
        46.000          39.000
 129266383.73247  82934833.37347  22695645.6574   22695649.6084   22695645.8544
        51.000          44.000
 117799995.40157  73999986.08457  20513665.0805   20513667.6685   20513664.7405
        55.000          51.000
 111401166.91547 104598297.25247  23101885.4044   23101888.5314   23101885.6814
        46.000          41.000
 116364499.78347 108465822.38047  24046380.1714   24046385.5404   24046380.9174
        46.000          39.000
 138528761.33257  90152228.88457  24458249.4875   24458262.2575   24458248.5345
        44.000          36.000
 123831061.29657  78699515.04457  21661340.5405   21661343.7535   21661340.2595
        52.000          45.000
 141823042.42057  92719243.39157  25085098.9725   25085101.5815   25085099.8465
        40.000          33.000
 134427711.65447  86956630.94247  23677828.0154   23677832.7034   23677828.9614
        46.000          39.000
 107469228.63557 101534450.29657  22353661.4935   22353664.8845   22353660.8955
        52.000          46.000
 110403231.61647 103820684.46947  22911984.2754   22911988.2054   22911984.9394
        49.000          43.000
 11 10  9  0 39 30.0000000  0 11G16G29G05G02G21G15G26G13G10G07G08
 135159873.76547  87527135.34347  23817162.9774   23817170.8854   23817164.1394
        46.000          39.000
 129333645.16047  82987244.80047  22708445.3354   22708449.6714   22708445.3604
        49.000          43.000
  97819528.06957  94015206.09957  20517382.2465   20517384.8795   20517381.9695
        55.000          51.000
 111509010.49947 104682331.37247  23122407.5174   23122410.6094   23122407.9984
        48.000          41.000
 116269857.78847 108392075.78747  24028370.1574   24028375.9264   24028370.6914
        45.000          39.000
 118412276.94857 110061478.34357  24436070.1725   24436078.7375   24436070.4325
        43.000          35.000
 103731310.71557  98621785.55257  21642360.4595   21642364.1835   21642359.9085
        52.000          45.000
 121940501.84157 112810801.89257  25107427.7455   25107422.8575   25107422.4645
        37.000          33.000
 134538441.66847  87042914.05947  23698899.0244   23698904.0364   23698900.1994
        46.000          39.000
 127462687.54557  81529353.23457  22352416.6735   22352420.0405   22352415.8975
        52.000          46.000
 110332311.06347 103765421.85547  22898488.2964   22898492.1444   22898488.9084
        50.000          43.000
 11 10  9  0 40  0.0000000  0 11G06G16G29G05G02G21G26G13G10G07G08
 122214173.71057 113023991.34357  25159549.5275   25159560.9375   25159549.2095
        41.000          34.000
 135174545.91547  87538568.19947  23819955.1414   23819962.1934   23819955.4864
        46.000          39.000
 129401369.25247  83040016.63447  22721332.5874   22721337.5764   22721332.3204
        50.000          44.000
 117839564.28457  74030818.40657  20521195.7625   20521198.6395   20521195.9075
        55.000          51.000
 111617083.05947 104766544.09047  23142972.5494   23142975.6784   23142972.9754
        48.000          41.000
 116175409.49947 108318479.65047  24010397.4354   24010402.9484   24010397.8244
        47.000          40.000
 123631969.59657  78544368.70657  21623462.6455   21623467.1465   21623462.8245
        53.000          45.000
 142057736.29257  92902118.09057  25129762.3645   25129765.8315   25129762.3765
        39.000          33.000
 134649304.98047  87129300.87547  23719995.7444   23720001.2354   23719996.6524
        45.000          39.000
 107456757.93157 101524731.61957  22351288.3085   22351291.6995   22351288.6705
        51.000          45.000
 110261846.02547 103710513.72247  22885079.6154   22885083.4954   22885080.1454
        50.000          43.000
 11 10  9  0 40 30.0000000  0 11G06G16G29G05G02G21G26G13G10G07G08
 122129343.15347 112957889.91647  25143406.1434   25143416.8074   25143406.5474
        41.000          36.000
 135189846.73847  87550490.96347  23822867.4704   23822874.1254   23822867.5424
        45.000          39.000
 129469576.64847  83093164.39547  22734313.4894   22734318.2744   22734313.6824
        49.000          44.000
  97860144.09057  94046854.97857  20525111.2595   20525113.9665   20525110.9995
        55.000          51.000
 111725406.08847 104850951.89247  23163585.2034   23163588.7304   23163585.7394
        47.000          41.000
 116081182.82147 108245056.40647  23992466.9504   23992471.8834   23992467.8414
        48.000          40.000
 123533128.52947  78467348.97347  21604654.5004   21604658.9174   21604654.4524
        52.000          45.000
 122175237.80357 112993675.92657  25152123.3935   25152127.2635   25152123.6235
        41.000          34.000
 134760324.17747  87215809.14947  23741122.4144   23741127.3454   23741123.3194
        46.000          39.000
 127451465.43157  81520604.46057  22350284.0465   22350288.3415   22350284.1045
        51.000          45.000
 110191863.78147 103655981.66947  22871762.7984   22871766.9254   22871763.3834
        50.000          43.000
 11 10  9  0 41  0.0000000  0 11G06G16G29G05G02G21G15G26G10G07G08
 122044854.43347 112892054.75347  25127328.4454   25127338.7874   25127328.6764
        40.000          36.000
 135205785.09847  87562910.54447  23825899.1814   23825907.9844   23825900.0684
        44.000          39.000
 109538231.54157 103146652.49757  22747385.1775   22747390.3345   22747385.3535
        49.000          43.000
 117881261.64657  74063310.97957  20529129.0665   20529131.5155   20529128.9085
        55.000          51.000
 111833985.98347 104935559.58947  23184247.8544   23184251.0684   23184248.1604
        47.000          41.000
 115987188.29447 108171814.18447  23974579.5574   23974585.0574   23974580.1204
        46.000          39.000
 138063370.12157  89789613.97457  24369667.8385   24369673.9395   24369666.4455
        45.000          39.000
 123434765.75847  78390702.62247  21585936.6674   21585941.3374   21585936.7204
        52.000          45.000
 134871505.99647  87302443.84647  23762280.0534   23762284.6974   23762280.7394
        46.000          39.000
 107446856.60757 101517016.49857  22349404.5585   22349408.0435   22349404.7035
        52.000          46.000
 110122376.18947 103601835.12247  22858539.9514   22858544.2024   22858540.4254
        50.000          43.000
 11 10  9  0 41 30.0000000  0 11G06G16G29G05G02G21G15G26G10G07G08
 121960666.79947 112826454.26247  25111308.1064   25111318.4814   25111308.0034
        41.000          36.000
 135222316.54747  87575792.28247  23829045.8504   23829052.0804   23829045.6584
        45.000          38.000
 129607436.75257  83200589.37857  22760546.4465   22760549.0535   22760546.8785
        52.000          44.000
  97902867.75757  94080144.89857  20533241.3545   20533244.0855   20533241.4535
        55.000          51.000
 111942777.70147 105020332.29947  23204950.0514   23204953.1284   23204950.3784
        46.000          41.000
 115893384.72147 108098720.50647  23956729.7644   23956734.3974   23956730.4134
        48.000          39.000
 117947291.55457 109699169.57457  24347574.4435   24347579.1105   24347574.9625
        44.000          38.000
 123336841.55047  78314398.87547  21567301.6954   21567306.1514   21567301.8074
        52.000          46.000
 134982806.44347  87389171.16347  23783459.7074   23783464.4854   23783460.2974
        44.000          39.000
 127442842.43957  81513888.70357  22348640.9485   22348644.5335   22348641.0995
        51.000          46.000
 110053343.11947 103548042.88247  22845403.6064   22845408.1434   22845404.2124
        50.000          43.000
 11 10  9  0 42  0.0000000  0 10G06G16G29G05G02G21G26G10G07G08
 121876820.76647 112761119.82747  25095352.8264   25095362.3504   25095352.7514
        42.000          35.000
 135239479.13647  87589165.87447  23832311.3094   23832317.9984   23832311.2464
        46.000          39.000
 109677009.50157 103254789.37957  22773795.2605   22773800.9395   22773794.9675
        51.000          45.000
 117925020.34757  74097408.21757  20537455.8365   20537458.2295   20537455.4035
        56.000          50.000
 112051816.69347 105105297.46047  23225699.8404   23225703.1154   23225700.1394
        47.000          41.000
 115799812.65147 108025807.28147  23938923.5244   23938928.0974   23938924.1924
        47.000          39.000
 103239407.35557  98238479.99757  21548757.5405   21548762.3335   21548758.3815
        53.000          46.000
 135094261.52947  87476019.19647  23804668.6914   23804674.2384   23804669.7704
        46.000          39.000
 107439467.91357 101511256.74657  22348000.5045   22348004.6355   22348000.6605
        52.000          46.000
 109984804.74047 103494636.31447  22832361.0754   22832365.3634   22832361.5724
        50.000          43.000
 11 10  9  0 42 30.0000000  0 11G06G16G29G05G02G21G15G26G10G07G08
 121793313.62747 112696049.42047  25079461.2364   25079471.4124   25079462.0264
        43.000          35.000
 135257266.25047  87603026.09947  23835695.5274   23835703.4284   23835695.6574
        45.000          39.000
 129747058.12457  83309363.46357  22787132.4345   22787140.4885   22787130.7145
        47.000          42.000
  97947690.60157  94115072.03257  20541770.6305   20541773.3045   20541770.4735
        55.000          50.000
 112161095.83047 105190449.95847  23246495.1154   23246497.8464   23246495.2814
        48.000          41.000
 115706469.70147 107953073.25647  23921159.8674   23921165.5854   23921160.4954
        46.000          39.000
 137715474.55757  89518523.20857  24303467.7565   24303474.6075   24303467.8495
        45.000          39.000
 123142441.78857  78162923.50357  21530304.5075   21530308.9425   21530304.7405
        52.000          46.000
 135205863.58647  87562981.68447  23825906.5264   23825911.3084   23825907.2794
        46.000          39.000
 127436769.44657  81509158.74757  22347483.2615   22347486.2465   22347483.0455
        52.000          45.000
 109916757.65647 103441612.55047  22819412.4904   22819416.3804   22819412.9294
        50.000          43.000
 11 10  9  0 43  0.0000000  0 11G06G16G29G05G02G21G15G26G10G07G08
 121710141.83447 112631240.33547  25063634.2984   25063644.2244   25063634.5544
        43.000          36.000
 135275671.53047  87617368.18747  23839198.3674   23839204.2404   23839198.6234
        46.000          38.000
 109817695.52957 103364421.32357  22800562.1345   22800566.2625   22800562.7765
        50.000          43.000
 117970885.09757  74133146.52757  20546184.5505   20546187.1945   20546184.3255
        56.000          51.000
 112270605.42947 105275781.29547  23267334.7034   23267337.9974   23267334.8044
        47.000          41.000
 115613351.15647 107880514.14247  23903440.0824   23903444.4334   23903440.7294
        49.000          40.000
 117599688.90957 109428282.35457  24281448.4705   24281459.8185   24281450.1095
        43.000          38.000
 103045938.29657  98087725.63057  21511941.3505   21511946.0145   21511940.8745
        53.000          45.000
 135317604.67147  87650052.13147  23847170.3884   23847175.8454   23847171.2524
        46.000          39.000
 107434682.49057 101507531.69557  22347086.9645   22347090.1615   22347086.4645
        51.000          45.000
 109849198.50047 103388969.02347  22806556.2324   22806560.5784   22806556.7324
        50.000          43.000
 11 10  9  0 43 30.0000000  0 11G06G16G29G05G02G21G15G26G10G07G08
 121627310.13047 112566696.46047  25047871.8744   25047881.7984   25047872.2994
        43.000          36.000
 135294695.18347  87632191.79247  23842817.5734   23842825.3384   23842818.5284
        46.000          39.000
 129888717.05857  83419758.11657  22814080.3705   22814085.6395   22814080.4405
        50.000          44.000
  97994609.73957  94151633.64357  20550698.2735   20550700.7075   20550697.7885
        54.000          50.000
 112380347.17247 105361294.18547  23288217.8014   23288221.1334   23288217.9864
        47.000          41.000
 115520459.57647 107808130.91947  23885763.5424   23885767.5834   23885764.2844
        47.000          39.000
 137484289.50757  89338401.03957  24259457.4895   24259458.7405   24259458.3825
        40.000          38.000
 122949931.08957  78012917.81057  21493667.8585   21493671.4375   21493668.0405
        53.000          46.000
 135429485.62447  87737231.92647  23868460.7024   23868466.4554   23868461.5634
        45.000          39.000
 127433241.55257  81506408.05357  22346812.6445   22346816.0195   22346812.5635
        52.000          45.000
 109782131.42447 103336708.94447  22793793.5314   22793797.9874   22793794.3324
        50.000          43.000
 11 10  9  0 44  0.0000000  0 11G06G16G29G05G02G21G15G26G10G07G08
 121544820.99247 112502419.37947  25032174.7254   25032184.1944   25032174.9174
        41.000          35.000
 135314337.99947  87647498.14347  23846556.5694   23846563.3434   23846557.0884
        46.000          39.000
 109960219.45657 103475478.06757  22827684.4675   22827688.8845   22827684.4295
        49.000          43.000
 118018848.23457  74170520.02657  20555311.3045   20555313.9035   20555310.9055
        55.000          51.000
 112490317.92347 105446985.51447  23309144.9814   23309148.2004   23309145.3054
        46.000          41.000
 115427799.50647 107735928.92747  23868129.4114   23868135.0134   23868129.8824
        47.000          40.000
 117368710.54657 109248304.82857  24237490.9075   24237500.9905   24237492.4025
        43.000          38.000
 102854383.91857  97938467.15557  21475486.1125   21475489.5995   21475485.9205
        53.000          46.000
 135541505.01047  87824519.73847  23889777.3754   23889782.1334   23889778.2214
        45.000          39.000
 107432425.08457 101505768.51557  22346660.7505   22346665.0335   22346660.3985
        52.000          46.000
 109715559.66747 103284835.02947  22781125.5304   22781129.5544   22781126.0634
        50.000          43.000
 11 10  9  0 44 30.0000000  0 11G06G16G29G05G02G21G15G26G10G07G08
 141462674.32457  92438411.37657  25016541.5515   25016550.1235   25016540.7445
        41.000          34.000
 135334585.95447  87663275.90747  23850408.6904   23850414.9374   23850409.3794
        45.000          38.000
 130032156.73457  83531531.99857  22841374.1765   22841379.2055   22841374.2955
        49.000          43.000
  98043598.26157  94189806.85457  20560020.8635   20560023.6465   20560020.4225
        56.000          51.000
 112600503.95147 105532845.03847  23330112.4174   23330115.6784   23330112.6554
        47.000          41.000
 115335360.00347 107663898.86847  23850539.3454   23850543.7494   23850540.2534
        48.000          40.000
 137253446.40257  89158493.82957  24215551.2245   24215556.9625   24215551.0555
        44.000          39.000
 122759300.45757  77864373.24957  21457393.7295   21457397.8385   21457393.7175
        53.000          46.000
 135653647.55347  87911903.30647  23911117.7244   23911122.7744   23911118.4794
        45.000          39.000
 127432248.19457  81505630.37657  22346626.1055   22346630.1265   22346626.9245
        51.000          46.000
 109649472.41847 103233338.63547  22768549.4284   22768553.6344   22768550.1344
        50.000          43.000
 11 10  9  0 45  0.0000000  0 11G06G16G29G05G02G21G15G26G10G07G08
 121380809.41857 112374608.05457  25000973.2485   25000985.0425   25000974.7075
        40.000          34.000
 135355460.86847  87679542.32747  23854381.0284   23854387.3504   23854381.3284
        47.000          40.000
 130104567.88947  83587956.44947  22855154.3514   22855158.4154   22855154.3004
        49.000          43.000
 118068876.46257  74209503.52457  20564831.7035   20564834.3945   20564831.4055
        55.000          51.000
 112710924.17047 105618887.13747  23351124.3664   23351126.9964   23351124.6864
        46.000          40.000
 115243165.40247 107592059.48047  23832994.2194   23832998.5544   23832995.1364
        47.000          39.000
 137138285.81747  89068758.94647  24193635.5734   24193641.1504   24193635.3794
        43.000          39.000
 122664720.79647  77790674.97047  21439395.9314   21439400.0014   21439396.0094
        53.000          46.000
 135765934.36847  87999399.31047  23932485.6114   23932490.7024   23932485.9504
        46.000          39.000
 107432743.18357 101506021.68357  22346717.1265   22346720.1085   22346716.9905
        51.000          45.000
 109583894.48147 103182239.01447  22756070.1234   22756074.4734   22756070.8334
        50.000          43.000
 11 10  9  0 45 30.0000000  0 10G16G29G05G02G21G15G26G10G07G08
 135376946.38147  87696284.39047  23858470.4974   23858476.9464   23858470.7454
        45.000          39.000
 130177428.55947  83644730.79847  22869018.8604   22869023.9374   22869018.5724
        50.000          44.000
  98094677.74357  94229609.87357  20569740.3535   20569742.6415   20569739.9415
        55.000          50.000
 112821559.54447 105705096.27347  23372177.5134   23372181.2844   23372178.1564
        46.000          41.000
 115151202.23247 107520400.44647  23815494.0104   23815498.3264   23815494.4704
        47.000          41.000
 137023260.27247  88979128.98547  24171746.3834   24171752.6864   24171745.8734
        45.000          39.000
 122570622.44347  77717351.15047  21421489.9064   21421493.9984   21421489.9394
        53.000          46.000
 135878348.03547  88086994.12147  23953876.9054   23953882.7524   23953877.8664
        45.000          38.000
 127433865.81557  81506898.05357  22346928.2865   22346931.1715   22346928.1015
        51.000          45.000
 109518813.17547 103131526.46447  22743685.5484   22743689.6784   22743686.0534
        50.000          43.000
 11 10  9  0 46  0.0000000  0 10G06G16G29G05G02G21G26G10G07G08
 141218275.39857  92247966.04757  24970038.3325   24970048.2835   24970039.3145
        39.000          34.000
 135399040.91047  87713500.99047  23862673.6714   23862680.0784   23862674.0384
        46.000          39.000
 130250736.21647  83701853.88447  22882969.0614   22882973.2834   22882969.0694
        50.000          42.000
 118120976.16957  74250099.35057  20574747.0605   20574750.1005   20574746.8355
        55.000          50.000
 112932407.83247 105791470.84147  23393272.0984   23393274.9364   23393272.2644
        47.000          40.000
 115059472.12247 107448922.95847  23798037.6114   23798042.8084   23798038.2214
        46.000          40.000
 122477009.50847  77644406.10947  21403675.8954   21403680.0224   21403675.9714
        53.000          46.000
 135990886.06247  88174685.55647  23975292.3224   23975297.9314   23975293.3614
        44.000          39.000
 127435611.57447  81508258.33247  22347260.5744   22347263.4974   22347260.4084
        52.000          45.000
 109454229.52447 103081201.61247  22731395.5254   22731399.7934   22731396.0514
        51.000          44.000
 11 10  9  0 46 30.0000000  0 11G06G16G29G05G02G21G15G26G10G07G08
 121137550.33257 112185069.42857  24954672.3915   24954680.8845   24954673.8875
        44.000          35.000
 135421751.18147  87731197.39047  23866996.0604   23867002.3554   23866996.5324
        46.000          40.000
 130324496.05647  83759329.44147  22897004.7734   22897008.3994   22897004.9034
        47.000          43.000
  98147812.70057  94271010.44457  20579852.7635   20579855.4765   20579852.2095
        55.000          50.000
 113043475.10647 105878016.42447  23414407.4724   23414410.9384   23414408.0344
        47.000          41.000
 114967982.89447 107377631.92147  23780628.4324   23780633.1124   23780629.2524
        48.000          40.000
 116793667.04657 108800238.28057  24128049.3175   24128054.7085   24128048.5305
        45.000          39.000
 122383891.63847  77571846.93847  21385955.9694   21385960.0454   21385956.1284
        54.000          46.000
 136103555.13047  88262479.71047  23996732.9904   23996738.4044   23996733.5784
        45.000          38.000
 127438000.74747  81510120.90647  22347714.5994   22347717.2874   22347714.4554
        51.000          45.000
 109390153.08447 103031271.90647  22719202.3424   22719206.2994   22719202.9624
        50.000          44.000
 11 10  9  0 47  0.0000000  0 11G06G16G29G05G02G21G15G26G10G07G08
 141057140.52557  92122408.03657  24939373.9745   24939383.4795   24939375.9375
        44.000          36.000
 135445078.91247  87749374.85947  23871434.9294   23871441.8364   23871435.5634
        47.000          39.000
 130398707.58647  83817156.82847  22911126.9594   22911131.2604   22911126.6374
        50.000          44.000
 118175157.19257  74292318.03757  20585057.3095   20585060.3235   20585057.0685
        55.000          50.000
 113154762.39847 105964733.91247  23435584.9114   23435588.3594   23435584.9344
        45.000          40.000
 114876741.39347 107306534.11647  23763266.1834   23763270.5304   23763266.8014
        46.000          40.000
 136679055.07757  88710925.93857  24106242.2835   24106248.6075   24106240.8855
        44.000          39.000
 122291272.38047  77499675.60147  21368331.4394   21368335.6474   21368331.5814
        53.000          46.000
 136216355.82747  88350376.61647  24018197.5924   24018203.1714   24018198.5034
        45.000          38.000
 107441019.71257 101512471.42057  22348291.8855   22348294.7525   22348291.5645
        51.000          45.000
 109326588.78547 102981740.97047  22707106.5534   22707110.8744   22707107.1804
        50.000          44.000
 11 10  9  0 47 30.0000000  0 11G06G16G29G05G02G21G15G26G10G07G08
 120977141.55157 112060075.11557  24924147.5155   24924156.0275   24924146.6925
        42.000          36.000
 135469020.00147  87768030.53547  23875990.3884   23875996.8364   23875991.5334
        46.000          39.000
 110473406.42357 103875370.77157  22925334.5455   22925337.0355   22925334.5885
        51.000          44.000
  98203043.85657  94314050.38757  20590361.4805   20590363.7195   20590361.0175
        55.000          49.000
 113266262.64447 106051617.38647  23456802.4494   23456805.9204   23456802.6124
        46.000          40.000
 114785746.98547 107235629.19747  23745951.0514   23745955.9574   23745951.3984
        50.000          41.000
 116564674.73657 108621813.39457  24084465.5665   24084468.3985   24084464.9285
        47.000          40.000
 122199152.66147  77427893.72947  21350801.8364   21350806.2514   21350801.9534
        53.000          46.000
 136329282.03947  88438371.03247  24039687.0064   24039692.2634   24039687.6734
        44.000          38.000
 127444689.41857  81515329.84957  22348990.8835   22348993.9315   22348990.3245
        51.000          45.000
 109263537.64447 102932610.57347  22695108.2694   22695112.4054   22695108.9054
        51.000          44.000
 11 10  9  0 48  0.0000000  0 11G06G16G29G05G02G21G15G26G10G07G08
 140897442.04157  91997970.41357  24908982.3545   24908991.2455   24908981.6705
        41.000          36.000
 135493550.74447  87787145.76847  23880658.2324   23880664.6084   23880657.7794
        45.000          39.000
 130548403.42757  83933792.66957  22939619.5225   22939626.3845   22939619.7895
        48.000          42.000
 118231400.43957  74336144.38857  20595759.1945   20595761.9785   20595758.6585
        55.000          50.000
 113377951.67347 106138648.11947  23478055.6644   23478059.1284   23478056.0434
        46.000          40.000
 114694978.99247 107164901.01647  23728678.7934   23728682.5714   23728679.6804
        47.000          39.000
 136450336.69557  88532713.89657  24062711.3635   24062715.3675   24062711.4875
        45.000          39.000
 102107517.67457  97356489.75557  21333363.5785   21333367.5885   21333363.9165
        53.000          46.000
 136442309.80447  88526444.75647  24061195.1454   24061201.0124   24061195.8674
        45.000          38.000
 107448984.23657 101518676.84857  22349808.3345   22349811.4485   22349808.0705
        51.000          45.000
 109200977.33147 102883862.59147  22683203.0394   22683207.1354   22683203.5054
        51.000          43.000
 11 10  9  0 48 30.0000000  0 10G06G16G29G05G02G21G26G10G07G08
 120818111.47057 111936150.39757  24893889.9555   24893899.9695   24893888.7705
        41.000          36.000
 135518704.88547  87806747.16547  23885444.0204   23885450.5584   23885444.5744
        46.000          39.000
 110623964.00257 103992678.11157  22953993.9515   22953999.3395   22953993.5425
        50.000          44.000
  98260294.13757  94358658.86057  20601257.5885   20601260.3525   20601257.1815
        55.000          50.000
 113489860.02747 106225849.50347  23499351.4934   23499354.6064   23499351.6284
        46.000          40.000
 114604474.50847 107094378.88247  23711454.2364   23711458.9654   23711454.9554
        48.000          40.000
 122016395.23457  77285486.90357  21316023.0115   21316026.8545   21316022.6175
        52.000          46.000
 136555471.19747  88614622.41847  24082729.3354   24082734.8704   24082730.1554
        45.000          38.000
 127453930.79457  81522531.05057  22350748.7205   22350751.5805   22350747.9155
        52.000          45.000
 109138943.85147 102835524.85247  22671398.2354   22671402.6224   22671398.8064
        51.000          44.000
 11 10  9  0 49  0.0000000  0 11G06G16G29G05G02G21G15G26G10G07G08
 140739158.52457  91874629.60057  24878864.3085   24878873.8805   24878864.4915
        41.000          37.000
 115544524.14957 107826879.27557  23890345.6625   23890351.4245   23890346.9075
        45.000          39.000
 130699952.45057  84051895.00657  22968449.3935   22968453.3095   22968449.3375
        49.000          43.000
 118289697.85857  74381571.13257  20606852.7175   20606855.4285   20606852.3815
        56.000          50.000
 133601952.89857  86313190.57457  23520684.4905   23520687.1945   23520684.6595
        46.000          40.000
 134514227.52757  87024059.94057  23694279.6345   23694283.3825   23694280.2545
        50.000          41.000
 116222104.68857 108354852.88557  24019294.7965   24019298.3695   24019294.8775
        46.000          39.000
 101925765.10457  97214864.92057  21298777.5145   21298781.6005   21298777.7865
        53.000          46.000
 116668791.95157 108702934.56557  24104284.5405   24104290.1075   24104285.5365
        45.000          38.000
 107459511.14857 101526881.52257  22351809.3335   22351811.7995   22351808.8445
        51.000          45.000
 129077401.22457  82787566.19457  22659691.1515   22659695.0795   22659691.7995
        51.000          44.000
 11 10  9  0 49 30.0000000  0 10G06G16G29G05G02G21G15G26G07G08
 120660589.76357 111813407.38057  24863913.4165   24863923.0015   24863913.8405
        44.000          38.000
 115570900.73147 107847432.37447  23895363.8564   23895370.6244   23895362.2114
        44.000          39.000
 110776281.13657 104111354.37557  22982988.4595   22982993.3265   22982988.4195
        48.000          42.000
  98319622.42557  94404888.27457  20612548.3205   20612551.3545   20612548.0785
        55.000          50.000
 133714275.57647  86400714.74947  23542058.7094   23542062.1014   23542059.3724
        45.000          40.000
 134424235.88847  86953937.30047  23677153.8544   23677157.1444   23677154.3854
        46.000          40.000
 116108274.37547 108266154.40747  23997633.4034   23997637.3614   23997632.8824
        45.000          40.000
 121835658.80557  77144652.14157  21281632.0265   21281636.0755   21281632.0265
        53.000          46.000
 127465706.69857  81531701.22057  22352994.7735   22352998.4545   22352994.7235
        52.000          45.000
 129016410.07647  82740040.09947  22648085.3964   22648089.4904   22648085.7064
        51.000          44.000
 11 10  9  0 50  0.0000000  0 11G06G16G29G05G02G21G15G26G10G07G08
 120582377.68847 111752463.41247  24849030.1514   24849038.7874   24849030.6444
        43.000          38.000
 115597867.29947 107868445.00547  23900496.8734   23900503.0034   23900495.8704
        47.000          39.000
 110853105.84447 104171217.61547  22997608.1204   22997612.9664   22997607.8924
        50.000          44.000
 118350045.83657  74428593.94457  20618338.4035   20618341.7345   20618338.2635
        55.000          50.000
 133826782.27147  86488382.37747  23563467.8574   23563471.6824   23563468.5964
        44.000          40.000
 134334484.51847  86884002.29947  23660073.3324   23660077.2454   23660073.6684
        49.000          41.000
 115994586.89347 108177567.35647  23975998.9814   23976003.7364   23975999.0024
        45.000          39.000
 121746053.07447  77074829.49747  21264580.3904   21264584.5344   21264580.4524
        53.000          46.000
 136895694.87457  88879740.89457  24147464.4825   24147469.8595   24147465.8715
        44.000          37.000
 127472557.08747  81537038.65247  22354298.8034   22354302.4144   22354298.9414
        51.000          45.000
 128955924.61547  82692908.30947  22636575.3954   22636579.8664   22636575.9734
        50.000          44.000
 11 10  9  0 50 30.0000000  0 11G06G16G29G05G02G21G15G26G10G07G08
 120504540.37947 111691811.47547  24834217.6524   24834226.0094   24834217.9674
        39.000          34.000
 115625440.19647 107889930.16847  23905743.2354   23905749.2904   23905744.3784
        45.000          38.000
 110930359.86247 104231415.00447  23012310.1954   23012314.7464   23012310.3904
        47.000          42.000
  98380987.39657  94452704.83557  20624226.0255   20624229.0245   20624225.7645
        55.000          50.000
 133939487.04247  86576204.33447  23584915.0764   23584918.2284   23584915.4214
        45.000          39.000
 114244994.70557 106814272.36657  23643043.6375   23643045.9945   23643043.7585
        48.000          40.000
 115881060.80347 108089105.73847  23954395.5534   23954399.5994   23954394.8414
        46.000          40.000
 121656961.98947  77005407.85847  21247627.0104   21247630.9864   21247627.1314
        53.000          46.000
 117009321.46057 108968282.58657  24169085.9975   24169091.7995   24169086.9915
        45.000          38.000
 127480048.33147  81542876.28047  22355724.1714   22355727.6364   22355724.1804
        51.000          45.000
 128895964.30747  82646186.18547  22625165.2874   22625169.5404   22625166.0794
        51.000          44.000
 11 10  9  0 51  0.0000000  0  9G16G29G05G02G21G15G26G07G08
 115653639.49147 107911904.13747  23911108.3134   23911115.3074   23911107.7234
        46.000          39.000
 111008062.45547 104291962.49147  23027095.3524   23027100.6764   23027094.9404
        49.000          42.000
  98412460.60147  94477230.00747  20630214.6864   20630217.6124   20630214.5184
        55.000          50.000
 134052407.97747  86664194.84447  23606402.9174   23606405.7474   23606403.5934
        45.000          39.000
 134155771.09257  86744745.31357  23626066.3615   23626069.2145   23626066.6475
        48.000          40.000
 115767717.92147 108000787.10447  23932827.3004   23932830.1114   23932827.1614
        45.000          40.000
 121568408.24447  76936404.87747  21230775.9234   21230779.9234   21230776.1604
        53.000          46.000
 127488196.87147  81549225.42247  22357275.1024   22357278.6554   22357274.9354
        51.000          45.000
 128836550.19547  82599889.73347  22613859.1474   22613863.0784   22613859.7444
        51.000          44.000
 11 10  9  0 51 30.0000000  0 10G16G29G05G02G21G15G26G10G07G08
 115682411.05347 107934323.89247  23916584.5344   23916589.8564   23916584.5854
        47.000          39.000
 111086157.43947 104352815.39447  23041957.6984   23041961.0764   23041957.5504
        49.000          42.000
  98444413.17447  94502128.52547  20636294.7254   20636297.5314   20636294.5404
        55.000          50.000
 134165490.57747  86752311.20947  23627921.8314   23627925.2894   23627922.1734
        45.000          39.000
 114066770.55857 106675388.91357  23609134.1705   23609138.2925   23609135.1435
        50.000          42.000
 115654508.57347 107912571.81147  23911283.2204   23911289.0194   23911282.9124
        43.000          40.000
 121480343.46147  76867783.25547  21214017.4514   21214021.4534   21214017.5884
        53.000          46.000
 137236872.84957  89145586.02457  24212393.6615   24212400.7475   24212394.8115
        44.000          38.000
 107496960.14857 101556056.04257  22358941.4995   22358945.7885   22358941.3185
        51.000          45.000
 128777631.22347  82553978.09247  22602647.5484   22602652.0794   22602648.0784
        51.000          44.000
 11 10  9  0 52  0.0000000  0 11G06G16G29G05G02G21G15G26G10G07G08
 140273400.47757  91511724.53857  24790216.1535   24790220.1305   24790214.7795
        44.000          37.000
 115711794.65647 107957219.95247  23922175.4824   23922181.4674   23922177.4014
        46.000          38.000
 111164686.40647 104414006.96947  23056901.1684   23056906.3924   23056900.9214
        49.000          43.000
  98476885.44947  94527431.29447  20642474.2624   20642477.1184   20642473.9674
        55.000          50.000
 134278774.72547  86840584.53847  23649478.9074   23649482.4804   23649479.2774
        45.000          39.000
 133978085.83357  86606287.50557  23592254.3565   23592257.3305   23592253.6385
        47.000          40.000
 115541478.08847 107824496.22547  23889775.0364   23889778.6584   23889774.6924
        47.000          40.000
 121392812.51547  76799577.93047  21197360.4484   21197364.2484   21197360.5604
        53.000          46.000
 117350864.83357 109234420.83857  24234078.8485   24234083.6925   24234078.3805
        44.000          37.000
 127506373.68357  81563392.00257  22360731.1395   22360734.9735   22360730.7175
        51.000          45.000
 108719247.42457 102508483.17457  22591537.6755   22591542.8485   22591538.8965
        51.000          44.000
 11 10  9  0 52 30.0000000  0 11G06G16G29G05G02G21G15G26G10G07G08
 120196989.16957 111452162.20357  24775691.0255   24775700.0325   24775691.2685
        43.000          36.000
 115741781.49247 107980586.07447  23927882.1234   23927889.0844   23927881.3804
        46.000          39.000
 111243636.40747 104475526.76147  23071923.5794   23071928.8084   23071923.2774
        50.000          43.000
  98509869.69047  94553133.34747  20648750.9034   20648753.8154   20648750.6734
        55.000          50.000
 134392249.80747  86929007.01047  23671073.0844   23671075.4124   23671073.3764
        44.000          40.000
 113889612.80457 106537339.55757  23575424.7705   23575429.7825   23575425.9345
        50.000          41.000
 115428617.83647 107736552.49247  23868298.2984   23868303.7624   23868297.7714
        44.000          39.000
 121305807.23347  76731781.71847  21180803.6944   21180807.5364   21180803.7374
        53.000          46.000
 137464904.90757  89323279.19657  24255783.8205   24255789.8855   24255784.1095
        45.000          37.000
 107516432.07857 101571233.54257  22362642.3595   22362645.2285   22362642.7735
        51.000          45.000
 128661441.54557  82463447.24757  22580531.8565   22580535.2075   22580531.6385
        51.000          44.000
 11 10  9  0 53  0.0000000  0 11G06G16G29G05G02G21G15G26G10G07G08
 140121098.26657  91393039.51157  24761239.9775   24761245.8645   24761241.1615
        43.000          35.000
 115772356.21847 108004410.00247  23933701.3664   23933706.7364   23933702.3154
        47.000          39.000
 111322990.51347 104537360.96647  23087025.2094   23087029.0154   23087025.2644
        47.000          40.000
  98543351.03847  94579222.99247  20655121.9344   20655124.7494   20655121.7134
        55.000          50.000
 134505899.06047  87017564.96147  23692699.1944   23692702.3084   23692699.2584
        46.000          39.000
 133801455.47257  86468653.60257  23558644.0295   23558647.3235   23558644.1195
        48.000          41.000
 115315917.51047 107648733.37847  23846853.3774   23846857.7244   23846853.1334
        46.000          40.000
 121219317.52247  76664387.24747  21164345.2544   21164349.0964   21164345.3694
        53.000          46.000
 117579014.11257 109412183.62557  24277505.0455   24277513.4345   24277506.2775
        45.000          38.000
 127527087.35457  81579531.89157  22364673.2405   22364677.1645   22364673.0795
        51.000          45.000
 108604100.40357 102418760.38257  22569623.3335   22569627.7335   22569623.4565
        51.000          44.000
 11 10  9  0 53 30.0000000  0 11G06G16G29G05G02G21G15G26G10G07G08
 120045499.92357 111334121.72657  24746862.6755   24746870.8235   24746863.9585
        42.000          36.000
 115803533.25747 108028703.17847  23939634.1554   23939640.6494   23939633.6924
        44.000          39.000
 111402763.64747 104599522.44247  23102204.1894   23102208.4174   23102204.4584
        46.000          42.000
  98577343.21847  94605710.57347  20661590.3224   20661593.1214   20661590.1094
        55.000          50.000
 134619735.76747  87106269.13747  23714361.2554   23714363.7124   23714361.6704
        43.000          39.000
 113713510.98657 106400115.90757  23541915.3115   23541920.7645   23541917.0595
        48.000          41.000
 115203397.85947 107561056.49847  23825440.2194   23825445.4464   23825439.9314
        47.000          40.000
 121133361.42547  76597408.54447  21147988.3904   21147991.9974   21147988.3704
        53.000          47.000
 137693354.74657  89501298.31357  24299250.6745   24299254.9315   24299250.1615
        44.000          37.000
 107538385.48257 101588333.58857  22366825.6255   22366830.2895   22366825.3485
        51.000          45.000
 128547317.16857  82374515.09657  22558818.0825   22558822.2115   22558818.8045
        51.000          44.000
 11 10  9  0 54  0.0000000  0 11G06G16G29G05G02G21G15G26G10G07G08
 139970355.41857  91275566.74457  24732562.3845   24732570.4525   24732561.9645
        41.000          37.000
 115835307.30047 108053462.08847  23945680.3614   23945687.8434   23945681.3824
        47.000          39.000
 111482944.84547 104662000.94847  23117462.4024   23117468.3944   23117462.3824
        49.000          44.000
  98611840.24847  94632591.45847  20668154.8564   20668157.6144   20668154.6184
        55.000          50.000
 134733752.04047  87195113.17747  23736057.9404   23736061.0194   23736057.9404
        45.000          39.000
 133625894.73257  86331845.21257  23525239.9215   23525243.7365   23525240.7535
        48.000          40.000
 115091051.71047 107473514.30347  23804061.6024   23804065.5634   23804061.5614
        45.000          39.000
 121047935.75747  76530842.97647  21131732.3404   21131736.1664   21131732.5794
        54.000          47.000
 117807660.19857 109590354.65757  24321011.7705   24321019.0945   24321012.6685
        44.000          37.000
 127550356.71657  81597667.45157  22369099.1765   22369102.4385   22369098.7205
        51.000          45.000
 108491079.94657 102330694.97757  22548115.7635   22548119.5085   22548116.3675
        51.000          44.000
 11 10  9  0 54 30.0000000  0 11G06G16G29G05G02G21G15G26G10G07G08
 139895590.35247  91217308.46847  24718334.3284   24718343.2244   24718334.4714
        43.000          37.000
 115867677.11347 108078685.40647  23951840.2464   23951846.5634   23951840.5464
        45.000          38.000
 131563576.68657  84724838.10557  23132799.3725   23132805.8385   23132799.9605
        49.000          43.000
  98646841.45447  94659864.68447  20674815.7044   20674818.5294   20674815.4004
        55.000          50.000
 134847946.53847  87284096.02047  23757788.0414   23757790.9774   23757788.7254
        45.000          39.000
 133538535.45147  86263772.55047  23508616.8494   23508620.8724   23508617.4644
        49.000          42.000
 114978883.11747 107386110.55547  23782716.9324   23782720.9114   23782716.2154
        46.000          41.000
 120963044.08447  76464693.25047  21115578.3574   21115582.3774   21115578.5044
        54.000          47.000
 137922180.03457  89679604.25657  24342793.5735   24342799.1905   24342794.6105
        45.000          37.000
 107562931.24657 101607463.70657  22371492.6355   22371495.9595   22371492.3955
        51.000          45.000
 108435375.93247 102287288.96947  22537515.9414   22537519.9174   22537516.5064
        51.000          44.000
 11 10  9  0 55  0.0000000  0 10G06G16G29G05G02G21G15G26G07G08
 139821223.72547  91159360.49347  24704183.3244   24704191.5214   24704183.3504
        42.000          37.000
 115900644.83947 108104374.73047  23958113.2204   23958120.4914   23958113.6134
        45.000          39.000
 111644567.27557 104787950.12857  23148211.3385   23148216.1545   23148210.2605
        46.000          41.000
  98682349.66247  94687532.64647  20681573.2444   20681576.2764   20681573.0474
        55.000          50.000
 134962319.90847  87373218.14347  23779552.6004   23779555.9804   23779552.9454
        45.000          39.000
 133451457.78247  86195919.81847  23492046.8414   23492051.0714   23492047.2444
        48.000          41.000
 114866897.67147 107298849.34347  23761406.0704   23761410.8294   23761405.6474
        46.000          40.000
 120878693.45447  76398965.66847  21099526.9214   21099530.6124   21099527.0694
        54.000          47.000
 107576149.96447 101617763.65347  22374008.1894   22374011.7464   22374008.2344
        51.000          45.000
 108380217.14247 102244307.87247  22527019.6954   22527023.8784   22527020.1984
        51.000          44.000
 11 10  9  0 55 30.0000000  0 10G06G16G29G05G02G21G26G10G07G08
 139747264.97647  91101730.55247  24690108.8644   24690116.9414   24690109.3654
        42.000          37.000
 115934215.67347 108130534.11747  23964501.2064   23964509.3034   23964502.2164
        47.000          39.000
 111725978.98147 104851388.64347  23163703.6014   23163707.5184   23163703.5524
        47.000          43.000
  98718371.92847  94715601.76647  20688428.1814   20688431.3404   20688427.9434
        55.000          50.000
 135076876.81047  87462483.28547  23801352.2564   23801355.5934   23801352.6254
        45.000          39.000
 133364669.49647  86128292.62447  23475530.9714   23475534.5194   23475531.5984
        49.000          41.000
 120794891.66947  76333665.57047  21083579.9064   21083583.8074   21083580.0234
        54.000          47.000
 118151375.84757 109858190.17157  24386414.9155   24386421.0095   24386415.1865
        44.000          37.000
 107590014.45747 101628567.65647  22376646.3284   22376649.8124   22376646.2304
        51.000          45.000
 108325613.53247 102201759.96347  22516628.6124   22516632.8624   22516629.1944
        51.000          44.000
 11 10  9  0 56  0.0000000  0 10G06G16G29G05G21G15G26G10G07G08
 139673686.78547  91044397.40547  24676106.5524   24676115.6124   24676106.4764
        39.000          36.000
 115968358.56147 108157139.11047  23970999.3784   23971005.0724   23970999.1914
        45.000          38.000
 131807786.93357  84915136.70557  23179268.3035   23179273.8275   23179268.5115
        48.000          44.000
  98754877.70647  94744047.79547  20695375.0414   20695378.1644   20695374.7184
        55.000          50.000
 133278144.45647  86060870.82347  23459066.2134   23459070.0124   23459067.0004
        49.000          42.000
 134643536.21857  87124813.77257  23718890.9945   23718895.7535   23718889.6865
        47.000          41.000
 120711613.74547  76268774.17847  21067732.3714   21067736.0614   21067732.5714
        54.000          47.000
 138266086.18257  89947566.42457  24408249.1205   24408257.0705   24408250.2645
        43.000          37.000
 107604494.07347 101639851.23647  22379401.1444   22379404.2604   22379401.1934
        51.000          45.000
 108271534.35847 102159619.74647  22506338.2294   22506342.5454   22506338.7424
        51.000          44.000
 11 10  9  0 56 30.0000000  0 10G06G16G29G05G21G15G26G10G07G08
 139600509.12447  90987375.99147  24662180.7914   24662191.1244   24662181.4074
        43.000          37.000
 116003090.24047 108184202.87647  23977608.0454   23977613.2584   23977607.3714
        46.000          38.000
 111890014.93057 104979220.64657  23194907.5235   23194911.3555   23194907.6745
        49.000          42.000
  98791884.07447  94772884.19247  20702416.8544   20702419.8914   20702416.6634
        55.000          50.000
 133191901.60847  85993668.93447  23442653.5264   23442658.5704   23442654.0274
        48.000          41.000
 114532007.09157 107037890.48157  23697680.7975   23697688.0005   23697680.6275
        47.000          40.000
 120628878.44047  76204305.53147  21051988.1104   21051991.6704   21051988.1214
        54.000          47.000
 118380944.13957 110037073.94957  24430101.3655   24430107.5345   24430102.2085
        44.000          37.000
 107619605.26947 101651626.60247  22382276.2144   22382279.4364   22382276.0634
        51.000          45.000
 128217998.87257  82117901.74257  22496151.6465   22496155.8795   22496152.1465
        51.000          44.000
 11 10  9  0 57  0.0000000  0 11G06G16G29G05G02G21G15G26G10G07G08
 139527744.59547  90930676.57047  24648335.8624   24648343.2434   24648336.0284
        45.000          37.000
 116038418.94647 108211731.79847  23984330.8944   23984337.6924   23984331.9254
        46.000          39.000
 111972604.70247 105043576.28947  23210623.6074   23210628.4204   23210623.6604
        48.000          41.000
  98829399.01447  94802116.76947  20709555.6524   20709558.6304   20709555.3004
        55.000          50.000
 115421515.90457 107731036.10857  23866932.3625   23866936.0625   23866934.2125
        44.000          39.000
 133105951.19047  85926693.95447  23426299.1834   23426302.7354   23426299.9024
        50.000          42.000
 114420758.66147 106951203.52647  23676512.7294   23676515.8994   23676512.6444
        47.000          40.000
 120546696.95247  76140267.63047  21036349.6174   21036353.2864   21036349.5854
        54.000          47.000
 118495878.39847 110126633.00647  24451972.9424   24451979.2964   24451973.9824
        45.000          37.000
 107635357.10147 101663900.99147  22385273.4284   22385276.7404   22385273.3314
        50.000          45.000
 128165024.34247  82076622.29647  22486071.0914   22486075.8104   22486071.8064
        51.000          44.000
 11 10  9  0 57 30.0000000  0 11G06G16G29G05G02G21G15G26G10G07G08
 139455380.55947  90874289.22647  24634565.2114   24634571.6634   24634565.3444
        43.000          36.000
 116074329.15947 108239714.13647  23991163.7984   23991170.3644   23991164.7454
        44.000          38.000
 112055579.05147 105108231.67847  23226413.9714   23226417.5014   23226414.0924
        47.000          43.000
  98867406.52447  94831733.13147  20716788.1444   20716791.1084   20716787.9994
        55.000          50.000
 135536743.17857  87820827.86957  23888857.0935   23888860.0285   23888857.6275
        44.000          38.000
 133020282.73347  85859938.80847  23409996.9164   23410000.9874   23409997.5674
        48.000          41.000
 134309768.91857  86864732.65457  23655379.0545   23655384.4185   23655378.6325
        48.000          41.000
 100465053.12957  96076646.17657  21020814.5385   21020819.0575   21020814.9625
        54.000          47.000
 118610895.57547 110216256.99947  24473860.2594   24473865.3724   24473860.9234
        43.000          37.000
 107651734.60847 101676662.90547  22388389.9484   22388393.0514   22388389.5664
        51.000          45.000
 128112596.04447  82035769.23147  22476094.3364   22476098.8184   22476094.8984
        52.000          45.000
 11 10  9  0 58  0.0000000  0 10G06G16G29G05G02G21G26G10G07G08
 139383428.07547  90818222.51447  24620872.4514   24620878.6214   24620872.0824
        42.000          34.000
 116110827.94347 108268155.01147  23998109.3314   23998115.1014   23998109.9444
        46.000          39.000
 112138945.06347 105173191.86547  23242277.6864   23242283.4374   23242277.5164
        50.000          43.000
  98905915.23447  94861739.98847  20724116.1104   20724119.0674   20724115.8524
        55.000          50.000
 115652063.00857 107910674.62957  23910811.8305   23910816.2625   23910812.3715
        45.000          39.000
 132934907.48847  85793412.40347  23393750.5734   23393754.8234   23393751.2724
        49.000          41.000
 120383983.03557  76013478.28057  21005384.6235   21005388.4415   21005384.7265
        54.000          47.000
 118726002.92847 110305951.17347  24495764.4894   24495769.9894   24495764.9754
        43.000          36.000
 107668747.13547 101689920.06347  22391626.7934   22391629.7474   22391626.6184
        52.000          45.000
 128060723.37947  81995348.84947  22466223.4434   22466227.7284   22466224.0434
        51.000          44.000
 11 10  9  0 58 30.0000000  0 11G06G16G29G05G02G21G15G26G10G07G08
 139311879.15947  90762469.85047  24607257.3444   24607263.6004   24607257.3534
        43.000          36.000
 116147903.91747 108297045.57347  24005164.5164   24005170.9584   24005165.1114
        44.000          38.000
 112222691.25747 105238448.91347  23258213.7834   23258217.7914   23258213.4664
        48.000          42.000
  98944915.61147  94892130.62047  20731537.0164   20731539.7934   20731536.7904
        55.000          50.000
 115767587.72047 108000694.03047  23932795.4954   23932798.4884   23932796.2004
        43.000          38.000
 132849818.37947  85727109.20647  23377558.9174   23377563.5024   23377559.8114
        48.000          41.000
 114088230.12757 106692109.24957  23613218.6145   23613222.9585   23613216.8565
        47.000          40.000
 120303446.48247  75950722.62347  20990059.0294   20990062.7424   20990059.1574
        54.000          48.000
 118841189.01547 110395706.66647  24517682.8964   24517688.8634   24517683.9724
        43.000          36.000
 127686394.66257  81703676.34657  22394982.3965   22394984.3545   22394982.5945
        51.000          45.000
 128009400.71447  81955357.96247  22456456.3544   22456460.5654   22456457.0714
        51.000          45.000
 11 10  9  0 59  0.0000000  0 11G06G16G29G05G02G21G15G26G10G07G08
 139240769.50247  90707059.65647  24593726.3574   24593733.2254   24593726.0334
        43.000          37.000
 116185587.20047 108326409.18447  24012335.1154   24012341.5574   24012335.7304
        45.000          38.000
 112306847.21647 105304026.20547  23274227.5854   23274230.6494   23274227.8544
        48.000          40.000
  98984436.06047  94922926.00147  20739057.3834   20739060.0884   20739057.1484
        55.000          50.000
 115883294.11247 108090855.11647  23954813.7774   23954816.4694   23954814.2074
        44.000          38.000
 132765049.58947  85661056.20747  23361427.2144   23361431.2514   23361427.6264
        49.000          41.000
 133977746.43657  86606014.88657  23592197.5485   23592202.9905   23592197.1105
        46.000          41.000
 120223491.11847  75888419.83147  20974844.0014   20974847.6174   20974844.1054
        54.000          47.000
 118956483.02247 110485546.16047  24539622.7314   24539628.6634   24539624.2174
        42.000          37.000
 107704672.54857 101717915.22357  22398463.2595   22398466.0745   22398462.5175
        51.000          45.000
 127958658.31547  81915818.31447  22446800.5034   22446804.8524   22446801.2284
        51.000          44.000
 11 10  9  0 59 30.0000000  0 11G06G16G29G05G02G21G15G26G10G07G08
 139170050.44847  90651954.39847  24580267.6914   24580275.4244   24580267.3974
        41.000          36.000
 116223826.17247 108356205.79347  24019612.2584   24019617.6524   24019612.2414
        46.000          39.000
 112391356.66847 105369878.06747  23290308.4594   23290313.0214   23290308.2264
        48.000          43.000
  99024425.71647  94954086.92947  20746667.0184   20746669.6454   20746666.7264
        55.000          50.000
 115999128.72447 108181115.80547  23976855.9624   23976859.0394   23976856.6784
        43.000          38.000
 132680550.83447  85595213.22047  23345347.9284   23345351.3364   23345348.6824
        50.000          42.000
 113867474.14057 106520091.09757  23571211.1495   23571215.8255   23571210.4305
        47.000          41.000
 120144069.40147  75826533.14347  20959730.2594   20959733.8784   20959730.4244
        54.000          47.000
 119071833.65447 110575429.73447  24561573.6344   24561578.9864   24561574.4594
        45.000          37.000
 127723559.83857  81732630.81357  22402058.6245   22402061.9085   22402058.5125
        51.000          45.000
 127908449.69447  81876694.74447  22437246.1554   22437250.5624   22437246.7644
        52.000          45.000
 11 10  9  1  0  0.0000000  0 12G06G16G29G05G02G21G15G26G03G10G07G08
 139099750.44447  90597175.63947  24566889.0314   24566896.0064   24566889.7054
        44.000          36.000
 116262645.45747 108386454.55647  24026999.4254   24027005.7764   24027000.4234
        46.000          39.000
 112476244.18447 105436024.49347  23306461.6474   23306466.8034   23306461.6734
        46.000          42.000
  99064910.50047  94985633.82247  20754370.7234   20754373.3404   20754370.4934
        55.000          50.000
 116115115.21847 108271494.64747  23998927.9364   23998931.1754   23998928.5304
        44.000          38.000
 132596350.20347  85529602.03647  23329325.1684   23329329.3394   23329325.7484
        49.000          42.000
 133757369.30157  86434292.86457  23550260.5985   23550265.8135   23550260.8225
        46.000          41.000
 120065209.55847  75765084.45747  20944723.3554   20944726.7854   20944723.4404
        54.000          48.000
 139165232.60057  90648194.13457  24579355.7965   24579365.3035   24579357.1635
        40.000          34.000
 119187265.47147 110665376.61647  24583538.9164   24583544.4674   24583540.1694
        44.000          37.000
 107743076.28157 101747837.68257  22405773.4385   22405776.9915   22405773.8595
        51.000          45.000
 127858802.02147  81838008.24047  22427798.5634   22427802.8154   22427799.1024
        51.000          45.000
 11 10  9  1  0 30.0000000  0 11G16G29G05G02G21G15G26G03G10G07G08
 116302052.30447 108417161.40147  24034497.4884   24034503.7614   24034498.0574
        45.000          38.000
 112561513.90847 105502467.96647  23322688.2684   23322692.8994   23322688.1254
        48.000          41.000
 119105907.56657  75017581.24257  20762170.3025   20762172.3895   20762170.0865
        55.000          50.000
 116231260.67747 108361997.75947  24021029.8414   24021032.3064   24021030.2734
        44.000          38.000
 132512460.01947  85464233.00147  23313361.4314   23313365.4834   23313361.8824
        49.000          41.000
 113647524.65857 106348706.65357  23529351.8555   23529355.2065   23529351.5815
        48.000          42.000
 119986921.56447  75704080.95447  20929825.4644   20929828.9474   20929825.6674
        54.000          47.000
 119077125.98657 110579547.53557  24562584.6725   24562591.8715   24562584.9805
        40.000          34.000
 119302784.95847 110755391.76747  24605521.9594   24605527.9414   24605523.0574
        43.000          36.000
 127763261.69757  81763571.12357  22409610.2715   22409613.5095   22409610.3505
        51.000          45.000
 127809725.82247  81799767.06647  22418459.5884   22418464.0274   22418460.0824
        51.000          44.000
 11 10  9  1  1  0.0000000  0 12G06G16G29G05G02G21G15G26G03G10G07G08
 118960468.11657 110488655.22157  24540377.3635   24540382.5845   24540376.7585
        44.000          37.000
 116342029.26447 108448312.53247  24042104.7924   24042110.1994   24042104.8274
        46.000          38.000
 112647150.44747 105569198.11347  23338984.6554   23338986.9744   23338984.4984
        49.000          41.000
  99147373.20257  95049890.80457  20770061.9045   20770064.2835   20770061.4935
        55.000          50.000
 116347546.52347 108452610.14247  24043158.2514   24043160.8004   24043158.7474
        44.000          38.000
 132428866.66547  85399095.29847  23297454.3354   23297457.6104   23297454.5214
        50.000          42.000
 133537880.11457  86263276.75757  23508482.0815   23508483.7155   23508480.5495
        48.000          41.000
 119909191.54047  75643511.72647  20915034.1534   20915037.7204   20915034.2704
        54.000          47.000
 118989371.78647 110511167.61047  24545886.0154   24545891.8144   24545885.8864
        40.000          35.000
 119418374.71947 110845461.67847  24627517.6664   24627522.5224   24627518.9584
        42.000          36.000
 127784042.17447  81779763.87747  22413564.4954   22413567.7094   22413564.4044
        51.000          45.000
 127761207.56947  81761960.71347  22409226.7464   22409231.1854   22409227.4224
        51.000          45.000
 11 10  9  1  1 30.0000000  0 12G06G16G29G05G02G21G15G26G03G10G07G08
 138891386.75757  90434813.24857  24527240.5525   24527248.7035   24527241.3145
        44.000          38.000
 116382584.34047 108479914.41747  24049822.4934   24049828.0424   24049823.6444
        47.000          39.000
 112733159.54947 105636218.56247  23355351.5724   23355355.4424   23355351.6874
        47.000          42.000
 119189329.04857  75082582.32657  20778047.4565   20778050.3245   20778047.6435
        54.000          50.000
 116463979.64447 108543337.11147  24065314.5484   24065317.6004   24065314.9794
        42.000          38.000
 132345581.09047  85334197.59947  23281605.3344   23281610.0444   23281605.8324
        49.000          42.000
 113428370.32657 106177934.17457  23487649.2515   23487652.9745   23487648.7805
        47.000          40.000
 119832033.23447  75583388.32147  20900351.5054   20900355.1644   20900351.5644
        54.000          48.000
 118902017.99847 110443099.95247  24529262.7834   24529269.5824   24529262.8024
        41.000          37.000
 119534041.77147 110935591.58647  24649529.6544   24649534.9214   24649529.9764
        42.000          36.000
 127805451.53347  81796446.81047  22417638.3964   22417641.3984   22417638.2574
        52.000          45.000
 127713257.93547  81724597.34747  22400102.3504   22400106.6474   22400103.1114
        51.000          44.000
 11 10  9  1  2  0.0000000  0 12G06G16G29G05G02G21G15G26G03G10G07G08
 118822845.37357 110381416.83957  24514188.5225   24514193.7305   24514187.2725
        43.000          37.000
 116423717.49047 108511966.65347  24057649.0794   24057654.7574   24057649.6634
        45.000          38.000
 112819539.79547 105703528.03447  23371788.3634   23371793.3884   23371788.1204
        49.000          43.000
  99231804.23457  95115682.44857  20786127.8825   20786130.0585   20786127.1395
        55.000          50.000
 116580560.04047 108634178.95247  24087499.4434   24087502.0994   24087499.6024
        43.000          37.000
 132262607.93547  85269543.26347  23265815.8704   23265819.5024   23265816.7974
        50.000          41.000
 133319106.27557  86092792.05357  23466859.3225   23466863.7465   23466859.0685
        47.000          40.000
 119755449.20047  75523711.94647  20885778.4444   20885782.1984   20885778.7174
        55.000          48.000
 118815069.28247 110375347.78647  24512716.6004   24512724.1044   24512716.8984
        40.000          37.000
 119649787.01447 111025782.01747  24671555.3314   24671560.9924   24671556.1384
        42.000          36.000
 127827493.21547  81813623.38747  22421831.9574   22421834.4544   22421831.9534
        51.000          45.000
 127665880.57547  81687679.57147  22391087.0584   22391091.4774   22391087.5684
        52.000          45.000
 11 10  9  1  2 30.0000000  0 12G06G16G29G05G02G21G15G26G03G10G07G08
 138754567.78657  90328192.35357  24501211.8065   24501222.2115   24501212.5575
        40.000          36.000
 116465418.39347 108544460.94947  24065584.1014   24065590.0534   24065584.8274
        45.000          38.000
 112906279.98547 105771117.81547  23388294.4824   23388298.6494   23388294.4524
        48.000          40.000
 119274744.63857  75149141.31457  20794299.8575   20794302.2545   20794299.5865
        55.000          50.000
 116697276.96147 108725127.19447  24109709.9024   24109712.8284   24109710.2544
        43.000          38.000
 132179940.65147  85205127.18747  23250084.5664   23250089.0404   23250085.4414
        49.000          42.000
 113210053.60257 106007814.64957  23446107.9645   23446112.6075   23446107.6405
        47.000          40.000
 119679433.79747  75464478.35247  20871313.7974   20871317.6474   20871313.8334
        55.000          48.000
 118728520.37347 110307907.29547  24496246.5994   24496254.1614   24496247.1704
        42.000          36.000
 119765601.54947 111116027.08747  24693593.3594   24693599.5614   24693594.7074
        42.000          36.000
 127850154.67147  81831282.03847  22426143.9344   22426146.4994   22426143.7814
        51.000          45.000
 127619070.60047  81651204.62247  22382179.1964   22382183.3484   22382179.8594
        51.000          45.000
 11 10  9  1  3  0.0000000  0 11G06G16G29G05G02G21G15G26G03G07G08
 118686843.72857 110275425.01257  24488320.6355   24488329.8485   24488321.4955
        40.000          36.000
 116507684.41447 108577395.64347  24073627.0244   24073632.8684   24073627.6324
        46.000          39.000
 112993376.10047 105838985.09347  23404868.7454   23404871.5214   23404868.5814
        47.000          41.000
  99318168.90957  95182977.60057  20802563.7265   20802566.3435   20802563.5975
        55.000          49.000
 116814126.14247 108816178.51847  24131945.3954   24131948.3454   24131945.5204
        43.000          37.000
 132097580.40147  85140950.65547  23234411.8814   23234416.9844   23234412.5564
        50.000          42.000
 133101220.96457  85923011.28457  23425397.0895   23425400.5465   23425396.8625
        48.000          42.000
 119603990.46747  75405691.63747  20856957.2084   20856960.9714   20856957.4444
        54.000          48.000
 118642371.94247 110240778.69347  24479853.0104   24479860.2014   24479853.5204
        42.000          35.000
 127873433.90147  81849421.65747  22430573.8504   22430576.2924   22430573.6394
        51.000          45.000
 127572826.90847  81615171.03047  22373379.0014   22373382.8904   22373379.6294
        52.000          45.000
 11 10  9  1  3 30.0000000  0 11G06G16G29G05G02G21G15G26G03G07G08
 138619553.21857  90222995.30857  24475511.6685   24475519.6115   24475512.9505
        42.000          36.000
 116550520.15747 108610774.45547  24081778.7784   24081783.8274   24081778.8244
        45.000          38.000
 113080831.45347 105907132.37847  23421510.1954   23421514.1744   23421509.9404
        47.000          42.000
  99362085.04947  95217198.25347  20810920.6124   20810922.9704   20810920.3104
        55.000          50.000
 116931111.15947 108907335.49547  24154207.0634   24154210.2194   24154207.5794
        44.000          37.000
 132015535.39447  85077019.78247  23218799.6384   23218801.8114   23218800.4154
        50.000          42.000
 132992598.80647  85838370.47547  23404727.3844   23404731.7874   23404727.3154
        48.000          42.000
 119529125.86747  75347355.96947  20842710.6094   20842714.3434   20842710.7834
        54.000          48.000
 118556633.35347 110173969.30847  24463538.0294   24463544.3854   24463538.5914
        42.000          35.000
 127897338.10647  81868048.94847  22435122.1304   22435124.6374   22435121.9554
        51.000          45.000
 127527155.60747  81579582.73547  22364688.0984   22364692.2474   22364688.8034
        51.000          45.000
 11 10  9  1  4  0.0000000  0 11G06G16G29G05G02G21G15G26G03G07G08
 118552751.44257 110170955.26657  24462790.4235   24462795.3335   24462789.7945
        43.000          37.000
 116593931.05947 108644601.69747  24090038.3864   24090044.2144   24090039.0974
        45.000          38.000
 113168650.24847 105975562.78347  23438221.9184   23438226.1444   23438221.6994
        47.000          42.000
  99406493.51847  95251801.99747  20819371.4494   20819373.8454   20819371.2994
        54.000          50.000
 117048236.92347 108998602.16547  24176495.5614   24176498.3724   24176495.7924
        44.000          38.000
 131933814.45347  85013341.52747  23203247.6294   23203252.2674   23203247.8344
        50.000          43.000
 132884202.25747  85753905.42347  23384100.5734   23384104.5144   23384100.3624
        48.000          42.000
 119454848.73347  75289478.11347  20828575.9304   20828579.4734   20828575.9424
        54.000          48.000
 118471314.85747 110107487.49047  24447301.8704   24447309.0214   24447302.5754
        41.000          35.000
 127921870.38847  81887164.62847  22439790.8474   22439793.3314   22439790.6354
        52.000          45.000
 127482067.77547  81544449.43747  22356108.1404   22356112.2514   22356108.5704
        51.000          45.000
 11 10  9  1  4 30.0000000  0 11G06G16G29G05G02G21G15G26G03G07G08
 138486252.36057  90119124.98257  24450145.2795   24450152.6185   24450146.1325
        42.000          37.000
 116637889.54947 108678855.58547  24098403.1964   24098409.1234   24098404.1984
        45.000          39.000
 113256803.84347 106044253.92947  23454996.3964   23455000.3184   23454996.4534
        45.000          40.000
  99451368.73947  95286769.27147  20827911.2334   20827913.7354   20827910.9874
        54.000          49.000
 117165475.91847 109089957.04647  24198805.3994   24198808.4354   24198805.8454
        43.000          38.000
 131852394.49647  84949897.78147  23187754.1874   23187757.8784   23187754.9364
        50.000          42.000
 112776028.86157 105669617.02457  23363512.6235   23363515.7595   23363512.3695
        48.000          42.000
 119381135.62147  75232039.56947  20814548.6774   20814552.0554   20814548.7724
        55.000          48.000
 118386393.89247 110041315.48247  24431142.0224   24431147.6594   24431141.9084
        38.000          33.000
 127947007.42747  81906752.18847  22444574.1254   22444576.3854   22444574.1144
        51.000          45.000
 127437538.24747  81509750.87047  22347634.6534   22347638.8084   22347635.2034
        52.000          45.000
 11 10  9  1  5  0.0000000  0 10G06G16G29G05G02G21G15G26G07G08
 138420260.45747  90067702.81947  24437587.1744   24437594.2334   24437587.0904
        42.000          37.000
 116682423.78047 108713557.48747  24106878.2214   24106884.3414   24106878.9934
        45.000          39.000
 113345320.52847 106113228.01847  23471840.4034   23471843.6284   23471840.6094
        46.000          40.000
  99496741.12547  95322124.11647  20836545.4414   20836548.0724   20836545.1784
        55.000          50.000
 117282856.79647 109181422.63447  24221142.1264   24221145.2104   24221142.9294
        42.000          37.000
 131771308.28847  84886714.04647  23172323.0824   23172326.5504   23172323.4014
        49.000          42.000
 112668070.89347 105585494.31547  23342967.3664   23342971.3004   23342967.2904
        47.000          41.000
 119308017.45847  75175063.21147  20800635.4714   20800639.1904   20800635.5494
        54.000          48.000
 127972777.79447  81926833.01347  22449477.9874   22449480.2264   22449477.8364
        51.000          45.000
 127393600.57147  81475513.66047  22339273.4734   22339277.9154   22339274.3124
        52.000          45.000
 11 10  9  1  5 30.0000000  0 11G06G16G29G05G02G21G15G26G03G07G08
 138354708.90447  90016623.88647  24425113.2664   24425119.9044   24425113.4004
        44.000          38.000
 116727518.05947 108748696.41547  24115458.6504   24115462.8784   24115458.9934
        44.000          37.000
 113434182.31247 106182471.24347  23488750.3794   23488753.5604   23488750.3714
        49.000          42.000
  99542593.54147  95357853.12947  20845271.0094   20845273.6324   20845270.8154
        55.000          49.000
 117400361.24647 109272984.55847  24243502.8244   24243505.0804   24243502.8514
        43.000          37.000
 131690542.57047  84823780.14347  23156954.0704   23156957.9204   23156954.5924
        51.000          43.000
 112560334.35947 105501544.10547  23322465.4384   23322469.2744   23322465.3044
        47.000          41.000
 119235485.41047  75118544.67247  20786833.0924   20786836.9064   20786833.2534
        55.000          48.000
 138217874.88857  89910014.53357  24399064.0965   24399068.5105   24399065.0285
        39.000          33.000
 127999164.93047  81947394.23547  22454499.4664   22454501.7624   22454499.3644
        51.000          45.000
 127350241.77147  81441728.13147  22331022.3414   22331026.3324   22331022.8504
        52.000          45.000
 11 10  9  1  6  0.0000000  0 12G06G16G29G05G02G21G15G26G03G10G07G08
 138289617.43747  89965903.36847  24412727.1234   24412733.8364   24412727.3844
        45.000          39.000
 116773188.62547 108784284.68147  24124148.7904   24124154.3834   24124149.2224
        44.000          38.000
 113523403.11347 106251993.96847  23505728.9864   23505732.8664   23505728.9724
        48.000          43.000
  99588943.01147  95393969.74947  20854090.8794   20854093.5324   20854090.7114
        55.000          49.000
 117518004.49947 109364654.72447  24265889.7424   24265892.8334   24265890.0224
        42.000          37.000
 131610115.83547  84761109.74847  23141649.5434   23141652.7584   23141650.0014
        48.000          42.000
 112452839.00947 105417781.76047  23302009.4954   23302013.2384   23302009.4934
        49.000          42.000
  99163560.07957  95062499.79357  20773145.3545   20773148.8315   20773145.6535
        55.000          48.000
 118134173.69357 109844775.87457  24383148.8625   24383157.3555   24383150.6305
        40.000          34.000
 140578204.17457  91749225.40557  24848221.9635   24848229.9225   24848223.3455
        42.000          36.000
 128026185.36947  81968448.73847  22459641.5674   22459643.8414   22459641.4504
        52.000          45.000
 127307479.23047  81408407.06847  22322884.4804   22322888.5714   22322884.9644
        52.000          45.000
 11 10  9  1  6 30.0000000  0 12G06G16G29G05G02G21G15G26G03G10G07G08
 138224948.70247  89915512.11347  24400421.1254   24400427.6994   24400421.4634
        43.000          38.000
 116819393.05647 108820288.54747  24132941.1044   24132947.8854   24132941.4284
        46.000          40.000
 113612941.93647 106321764.44147  23522767.0334   23522771.2224   23522766.8844
        46.000          41.000
  99635748.84947  95430441.86947  20862997.6624   20863000.3424   20862997.4034
        55.000          49.000
 117635745.37347 109456400.80847  24288294.1874   24288297.9874   24288295.2224
        42.000          37.000
 131529992.32147  84698675.42547  23126402.8144   23126406.2584   23126402.9864
        51.000          43.000
 112345548.38847 105334178.77747  23281593.2754   23281596.7584   23281592.9774
        48.000          42.000
 119092196.70257  75006892.03357  20759565.7355   20759569.3055   20759565.8135
        54.000          48.000
 138050970.52857  89779946.41057  24367312.6645   24367320.1585   24367312.8755
        43.000          36.000
 140694524.83847  91839865.22247  24870357.9024   24870364.4174   24870358.1154
        41.000          35.000
 128053799.73047  81989966.28847  22464896.4284   22464899.0174   22464896.3454
        51.000          45.000
 127265275.27347  81375520.76547  22314853.6214   22314857.4954   22314854.1114
        52.000          45.000
 11 10  9  1  7  0.0000000  0 12G06G16G29G05G02G21G15G26G03G10G07G08
 138160735.04547  89865475.37347  24388201.3674   24388208.5684   24388201.3404
        44.000          38.000
 116866159.55547 108856730.07147  24141840.9324   24141845.9344   24141841.9864
        45.000          38.000
 113702825.48447 106391803.50547  23539871.1734   23539875.2494   23539871.3364
        47.000          41.000
  99683040.51347  95467293.02747  20871996.6574   20871999.0664   20871996.4504
        55.000          49.000
 117753611.33347 109548244.42847  24310723.6124   24310726.6994   24310723.9614
        43.000          37.000
 131450204.51847  84636502.70747  23111219.9424   23111223.8894   23111220.5814
        50.000          42.000
 112238494.31947 105250760.27147  23261221.1544   23261225.1914   23261220.7964
        48.000          42.000
  99021432.96657  94951750.79557  20746100.4755   20746104.2275   20746100.4345
        55.000          48.000
 117968266.60257 109715520.88857  24351559.8185   24351562.5475   24351558.1085
        43.000          37.000
 120810830.99357 111930477.80157  24892504.0405   24892513.9445   24892505.8095
        42.000          36.000
 128082036.63247  82011968.78447  22470269.9914   22470272.5964   22470269.7354
        51.000          45.000
 127223662.44047  81343095.36447  22306934.7134   22306938.6814   22306935.3444
        52.000          45.000
 11 10  9  1  7 30.0000000  0 12G06G16G29G05G02G21G15G26G03G10G07G08
 138096993.77047  89815806.89547  24376071.4324   24376078.1774   24376071.6944
        43.000          37.000
 116913501.51147 108893620.11647  24150848.8814   24150852.3414   24150848.7414
        42.000          35.000
 113793065.89847 106462120.78647  23557044.2304   23557046.6944   23557044.0784
        48.000          41.000
  99730830.15247  95504531.90847  20881090.5874   20881092.9624   20881090.4054
        55.000          49.000
 117871614.87147 109640195.28447  24333178.6644   24333182.1054   24333179.2194
        42.000          37.000
 131370769.67747  84574605.31147  23096104.4644   23096108.0004   23096105.0354
        50.000          43.000
 112131693.14447 105167538.43747  23240897.7274   23240901.4394   23240897.3834
        47.000          42.000
 118951290.45257  74897093.80157  20732752.0325   20732755.5585   20732752.1165
        54.000          48.000
 137885872.75857  89651307.54457  24335887.6975   24335894.0995   24335888.1935
        43.000          36.000
 140927344.41257  92021280.04157  24914665.3195   24914671.8585   24914666.1725
        41.000          35.000
 128110910.25147  82034467.64747  22475764.4324   22475767.0664   22475764.2474
        51.000          45.000
 127182656.79547  81311142.95947  22299131.7224   22299135.7394   22299132.0424
        52.000          45.000
 11 10  9  1  8  0.0000000  0 11G06G16G29G05G02G21G15G26G03G07G08
 138033679.35047  89766470.64847  24364023.3484   24364030.1644   24364023.8984
        43.000          37.000
 116961370.22947 108930920.21347  24159958.4514   24159963.5054   24159958.7344
        47.000          39.000
 113883613.84947 106532677.74347  23574274.3774   23574277.8344   23574274.1234
        45.000          41.000
  99779070.54347  95542121.77647  20890270.4434   20890272.9794   20890270.2064
        55.000          49.000
 117989707.19547 109732215.32847  24355651.1014   24355653.7294   24355651.5904
        43.000          37.000
 131291643.05747  84512947.97547  23081046.7014   23081050.7864   23081047.3314
        50.000          43.000
 112025101.85347 105084480.48347  23220613.7504   23220617.5134   23220613.2854
        47.000          42.000
  98881713.34457  94842878.09657  20719512.5755   20719516.2585   20719512.7595
        54.000          48.000
 137803940.59247  89587464.50447  24320295.6044   24320302.7884   24320296.6534
        43.000          37.000
 128140373.29747  82057425.96047  22481370.9704   22481373.5134   22481370.8754
        51.000          45.000
 127142213.05247  81279628.24747  22291435.4164   22291439.6384   22291435.9984
        52.000          45.000
 11 10  9  1  8 30.0000000  0 12G06G16G29G05G02G21G15G26G03G10G07G08
 137970828.83447  89717495.80947  24352063.7194   24352070.2994   24352063.7754
        43.000          36.000
 117009798.33347 108968656.19147  24169174.6504   24169178.9364   24169175.2144
        44.000          38.000
 113974500.78947 106603498.96747  23591568.7574   23591572.9974   23591568.8394
        45.000          40.000
 119827796.97657  75580091.90957  20899542.2375   20899544.6215   20899542.2285
        55.000          49.000
 118107919.98047 109824329.12847  24378146.4504   24378149.2994   24378146.9154
        42.000          36.000
 131212861.13747  84451559.22247  23066055.4254   23066058.9484   23066056.0864
        51.000          43.000
 111918755.99547 105001613.71147  23200376.4054   23200380.6454   23200376.2164
        48.000          42.000
 118812756.88357  74789148.13357  20706388.8015   20706391.9175   20706388.8475
        55.000          48.000
 117722438.86157 109523952.51057  24304791.3335   24304797.6325   24304791.1945
        43.000          38.000
 121160345.54357 112202833.51257  24959009.6065   24959017.9245   24959011.6885
        41.000          35.000
 128170459.38947  82080870.54247  22487095.6704   22487097.8674   22487095.5274
        51.000          45.000
 127102366.93147  81248579.12547  22283853.0534   22283857.1104   22283853.5064
        52.000          45.000
 11 10  9  1  9  0.0000000  0 12G06G16G29G05G02G21G15G26G03G10G07G08
 137908431.90847  89668874.47647  24340190.0284   24340196.7384   24340190.0534
        43.000          36.000
 117058771.83047 109006817.21347  24178493.3874   24178497.9124   24178493.3424
        45.000          37.000
 114065710.11447 106674571.11947  23608926.0524   23608929.0374   23608925.8244
        48.000          41.000
  99876983.13157  95618416.60257  20908904.0005   20908906.6825   20908903.6395
        55.000          49.000
 118226238.19847 109916525.08147  24400661.7494   24400665.1614   24400662.1664
        42.000          36.000
 131134413.56347  84390431.20547  23051127.4454   23051130.8544   23051127.9344
        49.000          42.000
 131812674.29957  84918962.45457  23180184.9855   23180186.1865   23180184.4115
        47.000          42.000
  98744384.99157  94735870.55557  20693378.7475   20693381.9405   20693378.8765
        55.000          48.000
 137641380.09357  89460788.93857  24289367.0515   24289374.1365   24289366.6495
        41.000          37.000
 141277064.11457  92293808.11857  24981199.1375   24981205.2975   24981200.1125
        39.000          35.000
 128201152.60647  82104787.86247  22492935.9364   22492938.0834   22492935.8094
        51.000          45.000
 127063108.00147  81217987.68647  22276382.3124   22276386.4494   22276382.9734
        52.000          45.000
 11 10  9  1  9 30.0000000  0 11G06G16G29G05G02G21G15G26G03G07G08
 137846483.90947  89620603.11647  24328402.0324   24328408.0454   24328402.5084
        43.000          36.000
 117108281.12047 109045395.56347  24187915.2844   24187920.9364   24187915.5674
        45.000          39.000
 114157232.71847 106745887.21247  23626342.5554   23626345.6124   23626342.6644
        47.000          41.000
  99926639.45447  95657109.69647  20918353.3664   20918356.0504   20918353.1694
        55.000          49.000
 118344652.70947 110008796.19547  24423195.0504   24423198.5824   24423195.6044
        44.000          37.000
 131056294.28447  84329558.57347  23036262.3294   23036266.1724   23036262.8124
        51.000          43.000
 111706744.16357 104836407.83857  23160035.1555   23160038.9805   23160034.5345
        48.000          42.000
 118676616.28357  74683064.61657  20680482.0125   20680485.1195   20680481.9325
        55.000          48.000
 137560763.39247  89397970.91447  24274025.5154   24274032.1794   24274025.5334
        41.000          36.000
 128232445.91247  82129172.67647  22498890.3224   22498892.6454   22498890.1114
        51.000          45.000
 127024430.29347  81187849.26647  22269022.2634   22269026.2854   22269022.8254
        52.000          45.000
 11 10  9  1 10  0.0000000  0 11G06G16G29G05G02G21G15G26G03G07G08
 137785015.74147  89572705.45647  24316705.3714   24316712.0724   24316705.6984
        43.000          37.000
 117158354.40547 109084413.33947  24197443.6014   24197450.2174   24197444.2284
        44.000          38.000
 114249096.48247 106817469.60447  23643823.0594   23643826.5454   23643823.0334
        45.000          40.000
  99976787.69847  95696186.73147  20927895.8984   20927898.4694   20927895.6704
        54.000          49.000
 118463190.69747 110101163.44247  24445752.3164   24445755.3524   24445752.5284
        42.000          37.000
 130978536.94047  84268968.33247  23021465.4744   23021470.1434   23021466.2024
        50.000          43.000
 131601131.54657  84754113.78357  23139936.5305   23139940.0005   23139936.5465
        48.000          42.000
  98609454.56357  94630727.87957  20667703.8785   20667707.6965   20667703.9895
        55.000          48.000
 137480611.42147  89335514.98747  24258773.2154   24258779.7354   24258773.0934
        41.000          35.000
 128264366.99647  82154046.29447  22504964.8584   22504967.0444   22504964.6334
        51.000          45.000
 126986365.21147  81158188.26047  22261778.5294   22261782.7344   22261779.1364
        52.000          45.000
 11 10  9  1 10 30.0000000  0 11G06G16G29G05G02G21G15G26G03G07G08
 137723998.73347  89525159.47747  24305093.8394   24305101.4484   24305094.1914
        42.000          37.000
 117208958.48647 109123844.75947  24207074.6684   24207078.2354   24207075.0374
        46.000          38.000
 114341266.50447 106889290.37747  23661362.1024   23661366.3994   23661361.8644
        46.000          41.000
 120027391.50657  75735618.16057  20937525.2005   20937528.0255   20937525.3445
        55.000          50.000
 118581818.93747 110193600.97547  24468326.4184   24468329.1894   24468326.8814
        42.000          36.000
 130901111.86447  84208636.88747  23006731.4884   23006735.7064   23006732.0994
        51.000          42.000
 111495771.44357 104672020.77457  23119883.3575   23119885.5825   23119883.0165
        48.000          42.000
 118542904.58357  74578872.02757  20655038.9515   20655042.5205   20655039.0505
        55.000          48.000
 137400896.23647  89273399.44347  24243602.9074   24243608.6714   24243603.7004
        40.000          35.000
 128296885.07547  82179385.44147  22511152.5824   22511154.3734   22511152.3154
        51.000          45.000
 126948882.82247  81128981.22047  22254645.9164   22254650.0954   22254646.6054
        52.000          45.000
 11 10  9  1 11  0.0000000  0 11G06G16G29G05G02G21G15G26G03G07G08
 137663447.23347  89477976.34247  24293571.1314   24293580.1614   24293571.5084
        42.000          38.000
 117260102.96547 109163696.97947  24216806.7264   24216812.2764   24216807.1334
        43.000          38.000
 114433751.16347 106961356.18947  23678961.9974   23678965.5734   23678961.8674
        48.000          41.000
 100078474.59357  95775424.93657  20947244.7165   20947247.1115   20947244.6585
        54.000          49.000
 118700546.96647 110286116.32147  24490919.1854   24490922.5064   24490920.1004
        43.000          37.000
 130824033.42347  84148575.79647  22992065.0664   22992068.4454   22992065.7554
        50.000          43.000
 131390598.08057  84590060.28757  23099874.6235   23099878.4515   23099874.6605
        48.000          43.000
  98476956.64557  94527484.66857  20642489.6035   20642493.1645   20642489.6855
        55.000          48.000
 137321631.67647  89211634.86547  24228520.4134   24228525.9244   24228520.1834
        40.000          35.000
 128330009.74247  82205197.23647  22517455.4634   22517457.4534   22517455.3884
        51.000          45.000
 126911996.51147  81100238.78547  22247626.6644   22247630.6044   22247627.2364
        52.000          45.000
 11 10  9  1 11 30.0000000  0 12G06G16G29G05G02G21G15G26G03G10G07G08
 137603366.91447  89431160.53047  24282138.8154   24282146.7384   24282138.9634
        42.000          38.000
 117311789.66947 109203971.25447  24226642.6164   24226650.2554   24226642.4644
        44.000          39.000
 114526551.99247 107033668.38247  23696621.8004   23696625.1184   23696621.9074
        47.000          41.000
 120130015.49457  75815585.52157  20957053.5325   20957056.2175   20957053.2285
        54.000          50.000
 118819376.26447 110378710.70447  24513532.1934   24513535.1184   24513532.4454
        44.000          37.000
 130747306.81547  84088788.65147  22977463.7854   22977468.4984   22977464.3334
        51.000          43.000
 111285736.48057 104508354.71657  23079916.1615   23079918.7395   23079915.7965
        49.000          43.000
 118411630.28057  74476580.78057  20630057.9735   20630061.4245   20630057.9775
        55.000          48.000
 137242824.77447  89150226.88947  24213523.6404   24213529.5784   24213524.0324
        41.000          35.000
 121860702.28757 112748578.56457  25092272.3145   25092277.2005   25092272.3625
        42.000          35.000
 128363743.72547  82231483.61447  22523874.8064   22523876.5864   22523874.6434
        51.000          45.000
 126875711.31847  81071964.50147  22240721.8064   22240725.8174   22240722.3974
        52.000          45.000
 11 10  9  1 12  0.0000000  0 11G06G16G29G05G02G21G15G26G03G07G08
 137543751.55447  89384706.78547  24270794.7444   24270802.8604   24270795.1604
        44.000          38.000
 117364009.15647 109244660.83047  24236581.5084   24236587.4724   24236581.8064
        47.000          39.000
 114619658.37747 107106218.80247  23714339.1804   23714342.3004   23714339.0864
        46.000          40.000
 100182022.58457  95856109.95257  20966949.9235   20966952.5895   20966949.6625
        55.000          49.000
 118938296.39847 110471375.78647  24536161.4264   24536164.5774   24536161.8744
        43.000          37.000
 130670927.79147  84029272.77547  22962930.0504   22962933.3354   22962930.7074
        50.000          43.000
 111181097.65547 104426818.44747  23060003.1554   23060006.5444   23060003.3094
        49.000          43.000
  98346912.42557  94426151.97957  20617742.0965   20617745.4005   20617741.9545
        55.000          48.000
 137164470.33947  89089171.44547  24198613.6804   24198619.3464   24198613.7824
        43.000          35.000
 128398077.77747  82258237.43047  22530408.1974   22530410.3214   22530408.2784
        50.000          45.000
 126840021.09247  81044153.88147  22233930.2434   22233934.2944   22233930.8384
        52.000          45.000
 11 10  9  1 12 30.0000000  0 12G06G16G29G05G02G21G15G26G03G10G07G08
 137484618.40747  89338628.84047  24259542.7824   24259549.6494   24259542.7234
        43.000          38.000
 117416775.63547 109285777.12947  24246622.6294   24246628.3584   24246623.1204
        46.000          38.000
 114713082.64247 107179017.03047  23732116.6864   23732120.5114   23732116.9024
        45.000          40.000
 120234504.58457  75897005.76657  20976936.9525   20976939.6065   20976936.9625
        55.000          49.000
 119057320.35047 110564121.85847  24558811.0324   24558814.4294   24558811.6434
        42.000          37.000
 130594912.29647  83970040.21847  22948463.6904   22948467.8694   22948464.0334
        51.000          43.000
 131076697.45057  84345463.51757  23040140.6305   23040144.2875   23040141.1265
        48.000          42.000
 118282805.65657  74376197.15557  20605544.8225   20605548.6825   20605545.0415
        55.000          48.000
 117086706.23457 109028602.39157  24183796.3585   24183796.3945   24183793.8615
        43.000          33.000
 142094373.72357  92930638.96357  25136754.8455   25136765.0095   25136753.7985
        43.000          35.000
 128433026.17647  82285470.03847  22537058.7454   22537060.7294   22537058.6204
        50.000          44.000
 126804943.26547  81016821.08847  22227254.8034   22227258.8164   22227255.4154
        52.000          45.000
 11 10  9  1 13  0.0000000  0 11G06G16G29G05G02G21G15G26G03G07G08
 137425946.56347  89292910.45347  24248377.9424   24248384.5964   24248377.6034
        45.000          38.000
 117470063.16247 109327299.55447  24256762.9794   24256768.9864   24256763.4774
        45.000          38.000
 114806798.00447 107252041.81447  23749950.4034   23749954.5604   23749950.3494
        46.000          41.000
 100287446.07157  95938259.08957  20987010.7165   20987013.1595   20987010.6375
        55.000          49.000
 119176422.39547 110656928.71747  24581475.8274   24581478.1814   24581476.1264
        43.000          37.000
 130519239.21147  83911074.29147  22934064.1074   22934067.9074   22934064.6564
        50.000          43.000
 110972563.18557 104264319.80357  23020324.5195   23020328.1785   23020325.0225
        48.000          42.000
  98219328.25657  94326737.08957  20593463.1785   20593466.3195   20593463.4415
        55.000          48.000
 137009176.16757  88968167.04457  24169059.5175   24169064.9725   24169057.9225
        44.000          36.000
 128468564.09547  82313161.91847  22543821.2694   22543823.3434   22543821.2594
        51.000          45.000
 106770438.19357 100989931.54657  22220690.3115   22220695.1265   22220692.4565
        52.000          45.000
 11 10  9  1 13 30.0000000  0 11G06G16G29G05G02G21G15G26G03G07G08
 137367748.81347  89247561.91347  24237302.6914   24237309.2594   24237302.9364
        44.000          38.000
 117523880.13147 109369234.47147  24267004.4084   24267010.6064   24267004.8704
        43.000          37.000
 114900812.95447 107325300.10147  23767840.9884   23767845.1234   23767840.9204
        46.000          41.000
 120340846.35257  75979871.65157  20997171.9305   20997174.1975   20997171.4135
        55.000          49.000
 119295611.28447 110749803.27647  24604156.2854   24604159.8874   24604156.8804
        43.000          37.000
 130443920.68547  83852384.09847  22919731.5504   22919735.4714   22919732.0694
        51.000          43.000
 130868703.69257  84183392.31257  23000558.7885   23000561.8005   23000558.3265
        49.000          42.000
 118156456.99157  74277746.73357  20581499.1765   20581502.2855   20581498.8565
        55.000          49.000
 116932199.46057 108908183.61057  24154412.2105   24154417.9655   24154411.2525
        43.000          37.000
 128504701.38447  82341320.89847  22550698.3074   22550700.0824   22550697.9954
        50.000          45.000
 126736595.78157  80963569.96857  22214244.1305   22214246.9015   22214243.0195
        52.000          45.000
 11 10  9  1 14  0.0000000  0 11G06G16G29G05G02G21G15G26G03G07G08
 137310030.26147  89202586.26947  24226319.1774   24226326.2914   24226319.5274
        44.000          38.000
 117578228.71847 109411583.63847  24277345.9944   24277352.6744   24277346.6404
        44.000          37.000
 114995128.50747 107398792.66547  23785788.6284   23785792.6784   23785788.4594
        45.000          39.000
 100394702.54457  96021836.71157  21007420.8255   21007423.2315   21007420.7255
        55.000          49.000
 119414888.42747 110842746.57147  24626853.9164   24626857.4644   24626854.0324
        43.000          38.000
 130368964.52747  83793976.42747  22905467.6354   22905471.7494   22905468.2794
        50.000          43.000
 110765099.68157 104102666.44457  22980840.3725   22980842.3485   22980839.8505
        49.000          43.000
  98094209.62357  94229242.17657  20569653.6685   20569656.7185   20569653.7045
        55.000          48.000
 136855695.33057  88848569.01657  24139853.7935   24139859.5415   24139853.2105
        41.000          36.000
 128541440.40447  82369948.65947  22557689.3554   22557691.4614   22557689.3064
        51.000          44.000
 106703284.74757 100937607.66957  22207909.7395   22207913.9685   22207910.2885
        52.000          45.000
 11 10  9  1 14 30.0000000  0 11G06G16G29G05G02G21G15G26G03G07G08
 137252790.52047  89157983.63147  24215426.9474   24215434.8444   24215427.2054
        44.000          38.000
 117633104.31347 109454343.58647  24287789.5194   24287796.0834   24287790.0964
        45.000          38.000
 115089739.02447 107472514.82647  23803792.2964   23803796.4824   23803792.4924
        45.000          39.000
 120449021.05257  76064161.24657  21017757.4985   21017759.9855   21017757.4575
        55.000          49.000
 119534249.24847 110935754.93047  24649567.5034   24649570.4324   24649568.0064
        41.000          36.000
 130294370.81747  83735851.58647  22891273.3474   22891277.6264   22891273.8404
        51.000          43.000
 130661726.51057  84022111.30857  22961173.5035   22961176.8815   22961172.6625
        49.000          43.000
 118032577.81357  74181214.80157  20557927.1515   20557930.7695   20557927.2815
        55.000          49.000
 116779640.59057 108789303.12557  24125383.8025   24125390.4085   24125385.2295
        42.000          36.000
 128578777.16047  82399042.24147  22564794.3694   22564796.1964   22564794.1114
        51.000          44.000
 126670594.40557  80912131.77457  22201690.9835   22201695.8255   22201692.3155
        52.000          46.000
 11 10  9  1 15  0.0000000  0 11G06G16G29G05G02G21G15G26G03G07G08
 137196034.88947  89113758.38947  24204626.4034   24204634.3234   24204626.3274
        42.000          38.000
 117688507.18047 109497514.14547  24298332.7994   24298339.8924   24298333.5044
        43.000          37.000
 115184645.11347 107546467.50547  23821852.8324   23821856.6184   23821852.8424
        47.000          40.000
 100503793.80457  96106840.29557  21028182.1335   21028185.1595   21028182.0025
        54.000          49.000
 119653694.20347 111028828.91847  24672297.0194   24672300.4674   24672297.2264
        42.000          37.000
 130220143.73247  83678012.47347  22877148.1674   22877152.2014   22877148.8704
        50.000          42.000
 110558617.99157 103941762.13757  22941555.7435   22941560.1225   22941555.7185
        49.000          43.000
  97971582.61857  94133687.21557  20546319.5735   20546322.9735   20546319.8495
        55.000          49.000
 136704099.16757  88730440.43157  24111008.6065   24111015.1185   24111008.2765
        41.000          36.000
 128616713.35847  82428602.77847  22572013.2644   22572015.2124   22572013.2474
        51.000          44.000
 106638535.97857 100887152.95057  22195588.7415   22195593.0765   22195590.1475
        52.000          45.000
 11 10  9  1 15 30.0000000  0 11G06G16G29G05G02G21G15G26G03G07G08
 137139764.76147  89069911.68447  24193918.1924   24193926.5954   24193918.4824
        43.000          38.000
 117744435.53947 109541094.30847  24308974.5514   24308981.4284   24308975.3794
        43.000          35.000
 115279842.83147 107620647.55047  23839968.6374   23839972.1614   23839968.5794
        47.000          41.000
 120559048.25657  76149897.66257  21038694.3725   21038696.6565   21038694.1235
        55.000          49.000
 119773220.20147 111121966.04447  24695041.7964   24695044.8844   24695042.3514
        41.000          36.000
 130146284.69747  83620460.20847  22863092.6594   22863096.7934   22863093.3984
        52.000          44.000
 130455830.39557  83861674.55457  22921990.7545   22921993.4805   22921990.2775
        49.000          43.000
 117911219.88557  74086651.29557  20534832.5155   20534835.9065   20534832.5315
        55.000          49.000
 116628993.45157 108671910.84357  24096720.4215   24096728.2475   24096721.6205
        42.000          37.000
 128655247.01647  82458628.76347  22579346.4654   22579348.2634   22579346.2964
        50.000          44.000
 126607075.32357  80862638.40257  22189602.5895   22189607.0575   22189603.8265
        52.000          45.000
 11 10  9  1 16  0.0000000  0 11G06G16G29G05G02G21G15G26G03G07G08
 137083976.88447  89026440.75347  24183302.9794   24183310.5044   24183303.2374
        44.000          39.000
 117800882.18247 109585078.72947  24319716.3644   24319722.4054   24319717.4374
        44.000          36.000
 115375323.37647 107695047.61247  23858138.2074   23858142.0474   23858138.1404
        45.000          40.000
 100614738.90557  96193293.18757  21049292.7305   21049295.0875   21049292.3915
        54.000          49.000
 119892819.72247 111215160.36847  24717801.1004   24717804.8534   24717801.2834
        43.000          37.000
 130072791.04147  83563192.92447  22849107.3934   22849111.4584   22849108.3074
        50.000          43.000
 110353280.51957 103781767.14857  22902475.5555   22902478.0695   22902475.6045
        49.000          43.000
  97851470.88357  94040092.14157  20523463.8705   20523467.3005   20523464.0285
        55.000          49.000
 136554412.42357  88613798.89857  24082525.8645   24082532.6855   24082525.5905
        41.000          37.000
 128694371.26547  82489114.71647  22586791.7784   22586793.9144   22586791.6224
        50.000          44.000
 106576248.08057 100838620.48857  22183732.8885   22183736.2095   22183733.1625
        52.000          45.000
 11 10  9  1 16 30.0000000  0 11G06G16G29G05G02G21G15G26G03G07G08
 137028673.81547  88983347.69547  24172778.9804   24172786.2714   24172779.2814
        44.000          38.000
 117857844.98747 109629465.48347  24330557.0734   24330563.4354   24330557.3334
        47.000          39.000
 115471085.24447 107769666.79947  23876361.0744   23876365.0814   23876361.1664
        45.000          39.000
 120670893.59657  76237051.76657  21059977.1375   21059979.4965   21059976.9275
        54.000          49.000
 120012491.18547 111308410.79247  24740574.5194   24740577.8044   24740574.2584
        42.000          36.000
 129999665.36847  83506212.53147  22835190.7744   22835194.9544   22835191.1214
        50.000          43.000
 130250994.77557  83702062.76257  22883011.6935   22883014.6965   22883011.6515
        49.000          43.000
 117792361.93257  73994035.36357  20512214.8565   20512218.1725   20512214.9395
        55.000          49.000
 116480299.81057 108556050.73557  24068420.4695   24068427.1785   24068420.7585
        43.000          36.000
 128734085.93447  82520060.98047  22594349.3104   22594351.5834   22594349.4514
        50.000          44.000
 126545989.95057  80815039.24857  22177977.6765   22177981.3835   22177978.4075
        53.000          45.000
 11 10  9  1 17  0.0000000  0 11G06G16G29G05G02G21G15G26G03G07G08
 136973844.90047  88940624.07647  24162344.2384   24162352.9374   24162344.2264
        44.000          37.000
 117915309.70947 109674243.09647  24341492.5484   24341499.5854   24341493.0424
        45.000          39.000
 115567113.85347 107844494.05847  23894635.4044   23894638.9124   23894635.2164
        46.000          40.000
 100727467.17257  96281132.26857  21070744.8555   21070747.5945   21070744.9525
        54.000          49.000
 120132220.49047 111401706.18147  24763358.1814   24763360.6384   24763357.6944
        39.000          36.000
 129926897.43847  83449510.64647  22821344.0794   22821347.0304   22821344.5264
        52.000          44.000
 130148967.27747  83622560.57747  22863596.1894   22863599.7284   22863596.0044
        49.000          43.000
 117733867.42347  73948455.44647  20501083.5394   20501086.8034   20501083.5894
        55.000          48.000
 116406648.31747 108498659.93147  24054404.8884   24054410.7494   24054405.8364
        43.000          35.000
 128774378.08047  82551457.39647  22602016.9444   22602018.8624   22602016.7824
        50.000          44.000
 126516345.52647  80791939.84447  22172336.4944   22172340.0984   22172337.0244
        52.000          45.000
 11 10  9  1 17 30.0000000  0 11G06G16G29G05G02G21G15G26G03G07G08
 136919529.42247  88898300.40347  24152008.4214   24152015.1144   24152008.8124
        44.000          36.000
 117973311.39147 109719438.91547  24352529.1154   24352536.7194   24352529.3734
        42.000          37.000
 115663443.31647 107919555.78847  23912966.2304   23912970.3724   23912965.8934
        45.000          40.000
 120784539.29857  76325605.43157  21081603.6395   21081605.8835   21081603.2745
        54.000          49.000
 120252042.47447 111495073.87947  24786159.1304   24786162.7364   24786159.4104
        42.000          36.000
 129854527.14047  83393118.77647  22807571.7904   22807575.6194   22807572.5554
        50.000          43.000
 130047237.21747  83543290.46547  22844237.9294   22844240.9154   22844237.7884
        49.000          43.000
 117676030.60647  73903388.28847  20490077.1754   20490080.3784   20490077.2794
        55.000          49.000
 116333505.81347 108441665.66847  24040487.9204   24040493.2504   24040487.3164
        43.000          36.000
 128815282.78147  82583331.19847  22609800.5934   22609802.9374   22609800.5874
        50.000          44.000
 126487336.62647  80769335.63347  22166816.0584   22166819.7074   22166816.5394
        52.000          45.000
 11 10  9  1 18  0.0000000  0 11G06G16G29G05G02G21G15G26G03G07G08
 136865690.92547  88856348.39647  24141763.2984   24141769.3854   24141763.6584
        43.000          36.000
 118031809.82747 109765021.84347  24363661.6294   24363666.3914   24363661.5204
        45.000          36.000
 115760032.38047 107994819.80047  23931346.4884   23931350.7054   23931346.4494
        45.000          40.000
 100842035.36857  96370407.67257  21092544.3935   21092546.4955   21092544.3565
        54.000          49.000
 120371916.78747 111588482.27847  24808970.9034   24808974.2374   24808971.5254
        41.000          36.000
 129782517.77347  83337008.10147  22793868.7754   22793871.7604   22793869.1604
        53.000          44.000
 129945767.87447  83464223.30947  22824928.9434   22824932.3464   22824928.9064
        49.000          43.000
 117618813.18247  73858803.25847  20479189.0484   20479192.2584   20479189.1414
        55.000          49.000
 116260837.52547 108385041.27047  24026658.1454   24026664.6174   24026658.7834
        43.000          36.000
 128856760.24447  82615651.38547  22617693.5624   22617695.4374   22617693.3864
        51.000          44.000
 126458925.97247  80747197.63847  22161409.6904   22161413.0534   22161410.1874
        52.000          45.000
 11 10  9  1 18 30.0000000  0 12G06G16G29G05G02G21G15G26G03G10G07G08
 136812347.25147  88814781.93147  24131612.6764   24131618.9744   24131612.9394
        44.000          38.000
 138090750.69457  89810934.17557  24374889.8375   24374899.6945   24374891.5385
        46.000          38.000
 115856893.47047 108070295.75547  23949778.6324   23949782.8954   23949778.5824
        45.000          39.000
 120899976.04057  76415556.07657  21103571.2665   21103573.6755   21103571.2215
        55.000          49.000
 120491856.67047 111681941.81047  24831794.6224   24831797.8914   24831794.9584
        40.000          36.000
 129710888.65847  83281194.52847  22780236.7784   22780240.0224   22780237.6154
        50.000          43.000
 129844577.16547  83385373.38847  22805672.9614   22805676.1054   22805672.5974
        50.000          44.000
 117562233.77847  73814715.39447  20468422.4464   20468425.5144   20468422.5464
        56.000          49.000
 116188660.86347 108328799.74247  24012923.8324   24012930.4834   24012924.2264
        43.000          37.000
 123499746.70357 114025757.69957  25404171.2675   25404175.8115   25404170.6965
        41.000          34.000
 128898824.62347  82648428.89947  22625698.0154   22625700.1194   22625697.9794
        50.000          44.000
 126431130.66847  80725539.30847  22156120.2224   22156123.5404   22156120.8054
        52.000          45.000
 11 10  9  1 19  0.0000000  0 12G06G16G29G05G02G21G15G26G03G10G07G08
 136759508.01447  88773609.16747  24121557.7914   24121565.1254   24121557.9514
        45.000          39.000
 118150295.31057 109857338.76157  24386216.4675   24386224.9195   24386218.0425
        42.000          38.000
 115954031.61247 108145987.73147  23968263.5954   23968266.9814   23968263.3114
        45.000          38.000
 100958375.13757  96461061.40157  21114684.5175   21114687.0225   21114684.6355
        54.000          49.000
 120611867.29847 111775456.37447  24854631.2424   24854635.7104   24854631.6364
        39.000          35.000
 129639647.07047  83225682.19247  22766679.4554   22766682.0994   22766680.1114
        52.000          44.000
 129743674.88947  83306748.15947  22786471.8844   22786475.2094   22786471.7584
        50.000          43.000
 117506301.83147  73771132.08447  20457778.8764   20457782.0074   20457779.0224
        56.000          49.000
 116116986.16947 108272949.22447  23999284.2864   23999290.8894   23999285.1344
        43.000          36.000
 143616987.98657  94117104.77957  25426488.9635   25426495.9005   25426489.3555
        40.000          35.000
 128941481.94347  82681668.35847  22633815.3964   22633817.5314   22633815.4554
        50.000          44.000
 126403958.91547  80704366.60147  22150949.3684   22150952.7854   22150949.9834
        52.000          45.000
 11 10  9  1 19 30.0000000  0 12G06G16G29G05G02G21G15G26G03G10G07G08
 136707161.66047  88732819.60247  24111596.7264   24111604.1444   24111597.2464
        45.000          40.000
 138210366.44257  89904156.08457  24397640.5675   24397646.7315   24397640.9475
        44.000          38.000
 116051432.56847 108221884.57747  23986798.5494   23986802.2614   23986798.4414
        46.000          39.000
 121017233.74457  76506927.38457  21125882.5815   21125884.3965   21125882.1725
        54.000          49.000
 120731934.73447 111869015.36747  24877479.4684   24877483.3834   24877479.8854
        40.000          34.000
 129568784.43247  83170465.12547  22753195.5564   22753197.6224   22753196.0164
        50.000          43.000
 109643051.98457 103228341.90157  22767324.1515   22767326.8425   22767323.5565
        50.000          43.000
 117451007.00247  73728045.15947  20447256.7354   20447259.8354   20447256.7574
        55.000          49.000
 116045804.39447 108217482.70347  23985739.4204   23985745.0894   23985739.7074
        44.000          36.000
 123734366.85357 114208592.24057  25448807.3025   25448808.4405   25448806.5295
        41.000          33.000
 128984718.52447  82715359.11047  22642043.2114   22642045.2454   22642043.0414
        50.000          44.000
 126377400.36847  80683671.80147  22145895.3614   22145898.9104   22145895.8964
        52.000          45.000
 11 10  9  1 20  0.0000000  0 12G06G16G29G05G02G21G15G26G03G10G07G08
 136655312.30347  88692417.61747  24101729.7914   24101737.8034   24101730.2814
        44.000          40.000
 118270871.89357 109951299.49557  24409157.2175   24409164.3075   24409159.3195
        45.000          38.000
 116149093.44247 108297983.88947  24005382.6854   24005387.0604   24005382.7384
        46.000          40.000
 101076512.18057  96553117.53157  21137164.2015   21137166.3515   21137164.1065
        54.000          49.000
 120852057.55547 111962617.36147  24900338.7134   24900342.7074   24900338.9624
        41.000          36.000
 129498303.49347  83115545.45647  22739781.4524   22739785.0004   22739781.8164
        52.000          44.000
 129542686.67657  83150127.80857  22748229.7815   22748233.9515   22748229.7175
        49.000          43.000
 117396352.94647  73685458.09047  20436855.9684   20436859.0024   20436856.1064
        55.000          49.000
 115975118.93047 108162402.98547  23972288.1274   23972294.5734   23972288.5074
        42.000          36.000
 143851592.66357  94299922.86857  25471126.2995   25471131.1545   25471128.3265
        41.000          34.000
 129028533.82147  82749500.75247  22650381.0544   22650383.1994   22650381.0574
        51.000          44.000
 126351456.24447  80663455.63547  22140958.2554   22140961.8714   22140958.8304
        52.000          45.000
 11 10  9  1 20 30.0000000  0 12G06G16G29G05G02G21G15G26G03G10G07G08
 116603958.29657 108652399.98157  24091958.7815   24091967.7965   24091959.6925
        44.000          40.000
 138331917.02157  89998871.18457  24420771.5085   24420777.8355   24420771.8235
        42.000          36.000
 136246982.05757  88374251.39657  24024017.7365   24024023.2425   24024017.4715
        44.000          40.000
 121136254.36057  76599671.24357  21148532.0415   21148533.7435   21148531.7685
        54.000          49.000
 120972241.80147 112056267.30547  24923209.9894   24923211.6284   24923209.3004
        40.000          34.000
 129428215.06947  83060931.51347  22726444.8444   22726446.4844   22726445.6954
        52.000          44.000
 109442654.74357 103072185.70257  22729191.0965   22729194.6565   22729190.4225
        50.000          44.000
 117342348.03747  73643376.45147  20426579.1294   20426582.0784   20426579.2154
        55.000          49.000
 115904941.10347 108107719.04247  23958934.3564   23958940.6764   23958933.8544
        43.000          37.000
 123968867.88057 114391292.42557  25493451.3715   25493460.8055   25493453.7225
        39.000          33.000
 129072935.00847  82784099.04947  22658830.3764   22658832.6274   22658830.4534
        50.000          44.000
 126326136.77947  80643726.36047  22136140.0804   22136143.4894   22136140.6294
        52.000          45.000
 11 10  9  1 21  0.0000000  0 11G06G16G29G05G02G21G15G26G03G07G08
 136553104.07457  88612771.36757  24082282.8745   24082291.8935   24082283.3385
        42.000          38.000
 118393480.10157 110046848.62557  24432479.6835   24432487.0165   24432480.1865
        43.000          36.000
 116345159.39957 108450753.20657  24042700.1565   24042704.5095   24042699.8775
        45.000          40.000
 101196413.26457  96646545.56757  21159982.1205   21159984.1395   21159981.9105
        54.000          49.000
 121092473.50947 112149954.27947  24946088.9584   24946091.9444   24946089.0944
        39.000          35.000
 129358509.50147  83006616.11147  22713179.0214   22713181.7874   22713179.4914
        52.000          43.000
 129342905.18857  82994463.54557  22710205.8265   22710209.0935   22710205.7375
        48.000          43.000
 117288983.45547  73601794.09347  20416423.8154   20416426.8414   20416423.9164
        55.000          49.000
 115835261.04347 108053422.90047  23945674.0284   23945680.3874   23945674.1264
        43.000          36.000
 129117908.85847  82819143.70347  22667388.4524   22667390.7724   22667388.4954
        50.000          44.000
 126301430.97947  80624475.37347  22131438.3914   22131441.8264   22131438.8204
        52.000          45.000
 11 10  9  1 21 30.0000000  0 10G06G16G29G05G21G15G26G03G07G08
 136502779.42047  88573557.55547  24072706.0244   24072713.8064   24072706.3974
        43.000          38.000
 118455517.52447 110095189.54847  24444285.0354   24444292.2664   24444285.7134
        45.000          38.000
 116443607.35547 108527465.91647  24061434.0754   24061438.2584   24061433.9114
        46.000          40.000
 101257043.29747  96693789.95447  21171519.4894   21171521.4654   21171519.2184
        54.000          49.000
 129289211.33147  82952618.07647  22699991.9834   22699994.2214   22699992.7124
        52.000          44.000
 129243444.68447  82916961.68147  22691279.0674   22691282.8044   22691278.8344
        50.000          44.000
 117236283.03347  73560729.34247  20406394.7914   20406397.6984   20406394.8864
        55.000          49.000
 115766103.97547 107999534.03047  23932514.4974   23932520.3614   23932514.9744
        44.000          37.000
 129163476.46047  82854651.14147  22676059.4914   22676061.6634   22676059.5124
        50.000          44.000
 126277361.99447  80605720.30547  22126858.2594   22126861.6794   22126859.0444
        52.000          45.000
 11 10  9  1 22  0.0000000  0 10G06G16G29G05G21G15G26G03G07G08
 136452936.60947  88534719.30947  24063221.5544   24063228.8804   24063222.0174
        44.000          37.000
 118518024.00647 110143896.05747  24456179.3344   24456187.1584   24456179.9214
        43.000          37.000
 116542282.03547 108604355.27447  24080211.1674   24080215.5494   24080211.1844
        45.000          40.000
 101318087.86447  96741357.25247  21183135.7304   21183137.7304   21183135.4834
        54.000          49.000
 129220280.70047  82898905.96047  22686874.7924   22686877.6694   22686875.4874
        52.000          44.000
 129144252.57647  82839669.21347  22672403.2164   22672407.1724   22672403.1264
        50.000          43.000
 117184206.61847  73520150.68347  20396484.7664   20396487.4684   20396484.8054
        55.000          49.000
 115697431.90947 107946023.28147  23919447.2604   23919453.1374   23919446.9644
        44.000          38.000
 129209594.56847  82890587.57847  22684835.3964   22684837.4854   22684835.1914
        50.000          44.000
 126253890.16147  80587430.88947  22122391.4234   22122394.8004   22122392.1884
        53.000          46.000
 11 10  9  1 22 30.0000000  0 10G06G16G29G05G21G15G26G03G07G08
 136403612.79147  88496285.20947  24053836.1934   24053841.6854   24053836.4134
        46.000          37.000
 118581032.55347 110192993.47247  24468170.4474   24468176.6424   24468170.4194
        44.000          35.000
 116641216.29447 108681447.05747  24099037.6554   24099041.9664   24099037.4534
        45.000          40.000
 101379581.35747  96789274.52047  21194837.3324   21194839.2144   21194837.0724
        54.000          49.000
 129151756.75647  82845510.92047  22673834.7774   22673836.4034   22673835.4744
        52.000          44.000
 129045366.77147  82762615.60247  22653586.1614   22653589.1054   22653586.1424
        50.000          44.000
 117132791.74847  73480087.48347  20386700.5664   20386703.2864   20386700.6304
        56.000          49.000
 115629282.81347 107892920.14147  23906478.2494   23906485.0824   23906478.3454
        42.000          38.000
 129256297.21547  82926979.55847  22693722.3084   22693724.3764   22693722.2704
        50.000          44.000
 126231051.49747  80569634.69647  22118045.3014   22118048.5284   22118045.9334
        52.000          45.000
 11 10  9  1 23  0.0000000  0 10G06G16G29G05G21G15G26G03G07G08
 136354801.51547  88458250.63947  24044548.8564   24044551.6194   24044548.4964
        45.000          37.000
 118644533.41147 110242475.13047  24480253.6304   24480258.6574   24480253.8924
        44.000          36.000
 116740397.53947 108758730.93347  24117911.7344   24117915.3604   24117911.5534
        45.000          39.000
 101441513.64447  96837533.56447  21206622.6064   21206624.3784   21206622.4174
        54.000          49.000
 129083632.65547  82792427.53247  22660871.4404   22660873.8794   22660872.1854
        51.000          44.000
 128946779.35047  82685794.20147  22634825.3454   22634828.6494   22634825.2094
        51.000          44.000
 117082031.07747  73440533.93747  20377040.9454   20377043.5384   20377040.9734
        55.000          49.000
 115561649.59147 107840218.89947  23893607.1634   23893615.0664   23893607.2814
        41.000          37.000
 129303574.15647  82963818.98847  22702718.6894   22702720.5514   22702718.6704
        50.000          44.000
 126208838.67047  80552326.16347  22113818.0724   22113821.3354   22113818.7064
        52.000          45.000
 11 10  9  1 23 30.0000000  0 10G06G16G29G05G21G15G26G03G07G08
 136306505.09447  88420617.64747  24035357.1924   24035361.5044   24035357.7804
        46.000          38.000
 118708523.24747 110292337.34747  24492430.2874   24492437.9634   24492430.9514
        45.000          38.000
 116839824.50347 108836206.54547  24136831.7864   24136835.7244   24136831.7184
        47.000          39.000
 101503883.78247  96886133.67247  21218491.2874   21218493.1424   21218491.1314
        54.000          49.000
 129015910.63947  82739657.34847  22647983.3194   22647985.6254   22647984.2014
        52.000          44.000
 128848494.26747  82609208.60147  22616122.2634   22616125.6654   22616122.0794
        49.000          44.000
 117031926.71047  73401491.59247  20367506.4454   20367509.0174   20367506.4924
        56.000          49.000
 115494536.30447 107787922.88247  23880835.8624   23880842.4714   23880836.4964
        42.000          36.000
 129351423.95047  83001104.79947  22711824.0204   22711825.9164   22711823.9554
        50.000          44.000
 126187252.19447  80535505.21747  22109710.6114   22109713.9254   22109711.1764
        52.000          45.000
 11 10  9  1 24  0.0000000  0 10G06G16G29G05G21G15G26G03G07G08
 136258728.61947  88383389.44147  24026265.4634   24026270.7344   24026265.8574
        45.000          39.000
 118773004.46747 110342582.30047  24504700.9084   24504707.9554   24504701.4194
        43.000          38.000
 116939498.12647 108913874.37047  24155798.9754   24155802.8284   24155798.8404
        46.000          38.000
 101566694.68047  96935077.19947  21230443.7284   21230445.7624   21230443.5474
        54.000          49.000
 128948597.57947  82687205.93147  22635174.6104   22635176.7404   22635175.2384
        51.000          44.000
 128750517.43947  82532863.34647  22597477.7424   22597481.0314   22597477.4074
        51.000          44.000
 116982484.82347  73362965.53747  20358097.8464   20358100.4974   20358097.9624
        55.000          49.000
 115427949.32647 107736036.86947  23868165.2494   23868170.1604   23868165.9204
        44.000          36.000
 129399849.25847  83038838.96447  22721038.8414   22721040.8024   22721038.7804
        50.000          44.000
 126166297.40047  80519176.32247  22105723.5924   22105726.7504   22105724.0684
        52.000          45.000
 11 10  9  1 24 30.0000000  0 10G06G16G29G05G21G15G26G03G07G08
 136211437.65247  88346539.49247  24017266.2644   24017272.3974   24017266.1314
        45.000          39.000
 118837938.77447 110393180.06747  24517057.8934   24517064.4474   24517058.1484
        44.000          36.000
 117039379.39747 108991703.95747  24174805.7204   24174809.7594   24174805.5804
        45.000          38.000
 101629909.05047  96984335.23747  21242472.9094   21242474.8934   21242472.6704
        54.000          48.000
 128881658.59747  82635045.88447  22622435.9354   22622438.2194   22622436.4044
        52.000          44.000
 108652785.81557 102456702.31457  22578885.6915   22578889.2935   22578885.9795
        51.000          44.000
 116933670.71447  73324928.56947  20348808.8104   20348811.3854   20348808.9374
        56.000          49.000
 115361855.25747 107684535.08947  23855587.8824   23855592.3404   23855588.9664
        44.000          36.000
 129448812.50347  83076992.20947  22730356.2184   22730358.1664   22730356.1844
        50.000          44.000
 126145940.21947  80503313.55947  22101849.7584   22101853.0834   22101850.4364
        52.000          46.000
 11 10  9  1 25  0.0000000  0 10G06G16G29G05G21G15G26G03G07G08
 136164697.35047  88310119.03547  24008370.9214   24008377.7454   24008371.2394
        44.000          39.000
 118903386.83547 110444178.55347  24529511.7514   24529518.1594   24529512.3094
        42.000          36.000
 117139528.00247 109069741.97547  24193862.9704   24193867.3484   24193863.0034
        43.000          38.000
 101693587.67247  97033954.90347  21254590.6444   21254592.5034   21254590.4364
        54.000          48.000
 128815157.60747  82583226.27447  22609781.8924   22609783.6234   22609782.5594
        52.000          44.000
 128555418.89157  82380831.40057  22560357.2425   22560360.8475   22560357.0545
        50.000          44.000
 116885548.52147  73287430.82647  20339651.4614   20339653.9584   20339651.5994
        56.000          49.000
 135296328.62357  87633477.58557  23843117.5585   23843123.7015   23843117.4085
        44.000          36.000
 109498343.35557 103115580.84457  22739787.1245   22739789.8815   22739787.6175
        50.000          44.000
 126126243.34147  80487965.28647  22098101.5914   22098104.9334   22098102.2034
        52.000          45.000
 11 10  9  1 25 30.0000000  0 10G06G16G29G05G21G15G26G03G07G08
 136118448.71347  88274081.37447  23999569.5674   23999576.7674   23999569.9484
        44.000          39.000
 118969286.25847 110495528.64347  24542051.9774   24542060.0304   24542052.7234
        44.000          37.000
 117239881.82247 109147939.80247  24212959.4714   24212964.1564   24212959.3014
        42.000          38.000
 101757669.50847  97083888.80547  21266785.0814   21266786.8834   21266784.8674
        54.000          48.000
 128749038.68247  82531704.70347  22597200.3344   22597202.7854   22597200.8454
        52.000          45.000
 108458365.66757 102305212.25657  22541883.0525   22541884.8545   22541883.4405
        50.000          44.000
 116838059.75947  73250426.65147  20330614.5014   20330617.1364   20330614.6514
        56.000          49.000
 115231229.35757 107582738.92057  23830738.7665   23830747.8985   23830739.4685
        41.000          36.000
 129548469.29357  83154645.95157  22749321.1685   22749322.4195   22749321.4495
        50.000          44.000
 126107147.51347  80473085.33247  22094467.8874   22094471.1294   22094468.3884
        52.000          45.000
 11 10  9  1 26  0.0000000  0 10G06G16G29G05G21G15G26G03G07G08
 136072718.68647  88238448.01947  23990866.8804   23990874.2114   23990867.0844
        43.000          39.000
 119035659.22147 110547247.79447  24554682.6474   24554690.1654   24554683.0984
        43.000          38.000
 117340462.36347 109226314.56847  24232098.7694   24232103.7364   24232098.7524
        43.000          39.000
 101822177.84247  97134155.08547  21279060.6444   21279062.3664   21279060.4154
        54.000          48.000
 128683328.90347  82480502.24147  22584696.1214   22584698.4344   22584696.8074
        51.000          44.000
 128361575.95757  82229787.61057  22523467.9375   22523470.8345   22523468.0495
        51.000          44.000
 116791230.72947  73213936.55347  20321703.2404   20321705.7474   20321703.2454
        55.000          49.000
 135166762.11857  87532513.88157  23818464.8045   23818471.8725   23818465.4865
        43.000          37.000
 109599120.44057 103194112.58957  22758961.2295   22758962.9385   22758961.1415
        50.000          44.000
 126088678.62947  80458693.80347  22090953.4204   22090956.7284   22090954.0724
        52.000          45.000
 11 10  9  1 26 30.0000000  0 10G06G16G29G05G21G15G26G03G07G08
 136027531.66347  88203237.48747  23982267.9194   23982275.5484   23982267.5644
        44.000          38.000
 119102526.67747 110599351.97247  24567407.5124   24567415.3014   24567408.0564
        43.000          37.000
 117441289.40247 109304880.88947  24251286.3054   24251289.8834   24251286.1754
        45.000          39.000
 101887134.88947  97184770.94347  21291421.5514   21291423.3074   21291421.3884
        54.000          48.000
 128618052.84547  82429637.63247  22572274.7614   22572276.7954   22572275.2284
        53.000          44.000
 108265129.78957 102154634.96057  22505115.1275   22505118.1125   22505115.0675
        51.000          44.000
 116745086.33747  73177979.98147  20312922.2154   20312924.6714   20312922.3684
        56.000          49.000
 115102820.10157 107482688.83157  23806296.2605   23806303.1185   23806295.1995
        42.000          38.000
 129650346.47257  83234026.68757  22768711.5365   22768713.9775   22768712.1025
        50.000          43.000
 126070860.67347  80444809.32847  22087563.1244   22087566.5084   22087563.7914
        52.000          45.000
 11 10  9  1 27  0.0000000  0 10G06G16G29G05G21G15G26G03G07G08
 135982855.90647  88168425.29247  23973766.7464   23973773.1294   23973766.7154
        44.000          39.000
 119169852.75447 110651813.62247  24580219.0314   24580226.0124   24580219.3244
        42.000          36.000
 117542327.00247 109383611.74847  24270512.7434   24270517.4044   24270512.9154
        46.000          40.000
 101952505.20047  97235708.81947  21303861.1354   21303862.8924   21303860.8714
        54.000          48.000
 128553178.69647  82379086.05447  22559929.8794   22559931.8734   22559930.4404
        52.000          44.000
 128168985.69857  82079714.65057  22486820.7725   22486824.1855   22486819.9675
        51.000          45.000
 116699593.92847  73142531.32247  20304265.3534   20304267.8724   20304265.4594
        56.000          49.000
 135039408.13057  87433282.67057  23794225.3935   23794230.9315   23794224.4625
        43.000          38.000
 109702134.86157 103274380.53257  22778566.5315   22778569.0055   22778566.7395
        50.000          44.000
 126053660.65247  80431406.48047  22084290.2564   22084293.7714   22084290.7224
        52.000          45.000
 11 10  9  1 27 30.0000000  0 10G06G16G29G05G21G15G26G03G07G08
 135938703.43047  88134020.66347  23965364.7344   23965371.3384   23965365.1734
        44.000          38.000
 119237645.57747 110704639.01447  24593119.9624   24593127.8284   24593120.6254
        44.000          37.000
 117643582.72947 109462512.43747  24289781.2394   24289785.2234   24289781.1754
        45.000          39.000
 102018298.15347  97286976.08247  21316381.0194   21316382.9164   21316380.8804
        54.000          48.000
 128488719.64847  82328857.90247  22547663.4094   22547666.5994   22547663.8514
        52.000          44.000
 108073154.91757 102005042.37657  22468584.6705   22468588.0035   22468584.6195
        51.000          45.000
 116654765.79047  73107600.23447  20295734.8594   20295737.4414   20295734.9404
        56.000          49.000
 114976483.43357 107384245.56457  23782254.1515   23782260.6775   23782255.5865
        44.000          38.000
 129754498.63057  83315188.12657  22788527.7795   22788529.1645   22788527.2345
        50.000          44.000
 126037090.69347  80418494.78447  22081136.9484   22081140.7104   22081137.5324
        53.000          46.000
 11 10  9  1 28  0.0000000  0 10G06G16G29G05G21G15G26G03G07G08
 135895080.36947  88100028.54547  23957063.9104   23957069.3644   23957064.2924
        45.000          39.000
 119305907.29047 110757829.64247  24606110.4214   24606117.6364   24606110.5704
        45.000          38.000
 137745043.55457  89541571.37757  24309089.2765   24309094.3695   24309091.3115
        45.000          37.000
 102084516.23647  97338574.55747  21328981.8964   21328983.8354   21328981.6744
        54.000          48.000
 128424681.90647  82278957.94047  22535478.3204   22535479.7054   22535479.0884
        52.000          44.000
 127977655.53757  81930627.65457  22450411.2525   22450414.6165   22450410.8655
        50.000          45.000
 116610607.67747  73073191.28647  20287331.8324   20287334.4124   20287331.9474
        55.000          49.000
 134914125.36757  87335654.47157  23770388.8385   23770395.4865   23770389.4285
        44.000          38.000
 109807375.37257 103356385.54557  22798593.8875   22798595.8225   22798593.9095
        50.000          44.000
 126021155.05747  80406077.52247  22078104.5034   22078108.0604   22078105.2044
        52.000          46.000
 11 10  9  1 28 30.0000000  0 10G06G16G29G05G21G15G26G03G07G08
 135851982.56847  88066445.82247  23948862.8854   23948867.9394   23948863.0394
        44.000          39.000
 119374629.48447 110811379.10447  24619187.8004   24619195.6054   24619188.3664
        44.000          38.000
 117846763.12257 109620838.03657  24328441.8345   24328445.6735   24328441.6425
        43.000          37.000
 102151152.68147  97390499.06247  21341662.3854   21341664.2564   21341662.1914
        54.000          48.000
 128361062.56747  82229384.34447  22523371.5924   22523374.9894   22523372.4354
        52.000          45.000
 107882446.88757 101856434.81557  22432296.0905   22432300.1125   22432296.8535
        50.000          44.000
 116567115.23447  73039301.06647  20279055.4364   20279058.1154   20279055.5304
        56.000          49.000
 134852307.64147  87287484.73347  23758625.5064   23758631.6094   23758625.9204
        43.000          37.000
 109860826.05847 103398035.45447  22808765.1094   22808766.9544   22808765.3084
        50.000          44.000
 126005849.42047  80394151.40947  22075191.6654   22075195.1214   22075192.1304
        52.000          46.000
 11 10  9  1 29  0.0000000  0  9G06G16G05G21G15G26G03G07G08
 135809413.78347  88033275.23247  23940762.0484   23940768.3694   23940762.5844
        44.000          39.000
 119443812.34647 110865287.67147  24632352.6524   24632360.2544   24632353.2854
        43.000          37.000
 102218208.00147  97442749.98947  21354422.6454   21354424.3674   21354422.4024
        54.000          48.000
 128297864.69347  82180138.96147  22511346.1454   22511348.7494   22511346.7484
        52.000          44.000
 127787617.13457  81782549.80857  22414244.5195   22414246.5745   22414244.2335
        51.000          45.000
 116524291.90347  73005932.22147  20270906.5344   20270909.0384   20270906.6464
        56.000          49.000
 134791032.82147  87239738.05347  23746965.3944   23746972.0904   23746965.5774
        43.000          37.000
 109914827.18247 103440114.20747  22819041.4574   22819042.9464   22819041.1694
        49.000          43.000
 125991175.85847  80382717.78847  22072399.1894   22072402.6024   22072399.6034
        52.000          46.000
 11 10  9  1 29 30.0000000  0 10G06G16G29G05G21G15G26G03G07G08
 135767383.56647  88000524.44447  23932763.6164   23932770.8394   23932764.3474
        44.000          39.000
 119513460.95947 110919559.21747  24645606.1304   24645613.7894   24645606.8064
        43.000          35.000
 138050775.52257  89779811.20657  24367263.2965   24367266.7865   24367262.5975
        42.000          38.000
 102285688.88447  97495332.58247  21367263.6594   21367265.4414   21367263.5194
        54.000          48.000
 128235099.29547  82131230.56447  22499402.1394   22499404.0644   22499402.7724
        52.000          44.000
 107693079.37057 101708883.72157  22396255.2065   22396257.4475   22396254.7065
        51.000          45.000
 116482146.98547  72973091.97847  20262886.6024   20262889.1714   20262886.6904
        56.000          49.000
 134730311.40647  87192422.64947  23735410.0124   23735417.2664   23735410.5344
        44.000          38.000
 109969384.91447 103482626.65247  22829423.3904   22829425.2184   22829423.3504
        50.000          44.000
 125977142.63047  80371783.03047  22069728.4584   22069731.9714   22069728.9874
        52.000          46.000
 11 10  9  1 30  0.0000000  0 10G06G16G29G05G21G15G26G03G07G08
 135725861.84547  87968169.84347  23924862.0344   23924869.8874   23924862.5844
        44.000          39.000
 119583541.21847 110974167.12647  24658942.5794   24658948.8054   24658943.1584
        43.000          35.000
 118153060.40057 109859509.99057  24386729.3075   24386733.4605   24386728.8635
        43.000          39.000
 102353562.00947  97548220.76147  21380179.5584   21380181.3794   21380179.3744
        54.000          48.000
 128172735.57247  82082634.86947  22487535.0744   22487538.4924   22487535.6524
        52.000          45.000
 127598846.28857  81635455.66357  22378323.1435   22378325.3315   22378322.5895
        51.000          45.000
 116440649.80447  72940756.35747  20254990.1884   20254992.7594   20254990.3444
        56.000          49.000
 134670113.86147  87145515.54347  23723955.6334   23723961.6394   23723955.6654
        44.000          38.000
 110024465.73347 103525546.74847  22839904.9254   22839906.6144   22839905.0474
        50.000          44.000
 125963719.96347  80361324.41247  22067173.6144   22067177.1024   22067174.3454
        53.000          46.000
 11 10  9  1 30 30.0000000  0 10G06G16G29G05G21G15G26G03G07G08
 135684895.38147  87936247.91747  23917066.9014   23917073.6774   23917067.3544
        45.000          39.000
 119654096.20847 111029144.84447  24672369.3824   24672375.7444   24672369.4234
        42.000          35.000
 138255578.34157  89939395.44557  24406237.0105   24406240.8755   24406237.2595
        45.000          40.000
 102421871.38247  97601448.86547  21393178.3014   21393180.2024   21393178.1174
        54.000          48.000
 128110822.66047  82034390.96247  22475753.2764   22475756.9564   22475754.0054
        53.000          44.000
 107504959.25257 101562297.74757  22360456.8495   22360458.9825   22360456.9605
        52.000          45.000
 116399847.41747  72908962.15147  20247225.8504   20247228.3694   20247225.9344
        56.000          49.000
 134610488.28147  87099054.03447  23712609.3114   23712615.5224   23712609.8004
        44.000          38.000
 110080113.46347 103568908.66747  22850494.5644   22850496.1314   22850494.3724
        49.000          43.000
 125950952.30947  80351375.77347  22064744.1394   22064747.3524   22064744.7784
        53.000          46.000
 11 10  9  1 31  0.0000000  0 10G06G16G29G05G21G15G26G03G07G08
 135644453.67047  87904734.80347  23909371.2554   23909378.2974   23909371.4854
        45.000          39.000
 119725091.88647 111084465.80647  24685878.4394   24685886.9334   24685879.1174
        41.000          36.000
 118358297.50457 110019439.46557  24425781.5315   24425784.6905   24425780.9135
        44.000          40.000
 102490583.57647  97654990.77747  21406253.8904   21406255.6954   21406253.5794
        54.000          48.000
 128049330.37547  81986474.94647  22464051.7794   22464054.3404   22464052.3104
        53.000          44.000
 127411367.62057  81489361.50757  22342651.3225   22342654.8975   22342651.7275
        51.000          45.000
 116359708.87447  72877685.12247  20239587.9054   20239590.5684   20239588.0874
        56.000          49.000
 134551404.60547  87053014.69847  23701366.4904   23701371.7544   23701366.6634
        43.000          37.000
 110136294.20347 103612685.83347  22861185.1434   22861187.0034   22861185.0964
        49.000          43.000
 125938808.49147  80341912.95247  22062433.4564   22062436.6794   22062434.0334
        52.000          46.000
 11 10  9  1 31 30.0000000  0 10G06G16G29G05G21G15G26G03G07G08
 135604554.27447  87873644.35547  23901778.7224   23901785.5954   23901778.9844
        45.000          39.000
 119796541.23747 111140140.44247  24699475.2814   24699483.7304   24699475.9244
        41.000          37.000
 138461174.87457  90099597.94157  24445363.1035   24445367.7005   24445363.9955
        45.000          40.000
 102559712.94247  97708857.67647  21419408.8704   21419410.6924   21419408.6464
        54.000          48.000
 127988275.57647  81938899.55547  22452434.1234   22452436.4784   22452434.7644
        53.000          45.000
 107318164.80457 101416741.51057  22324911.4445   22324913.7475   22324911.3635
        51.000          45.000
 116320251.21947  72846938.59347  20232079.5744   20232082.2974   20232079.6674
        56.000          49.000
 134492881.22347  87007412.01247  23690229.2704   23690235.1714   23690229.4224
        43.000          37.000
 110193021.80747 103656889.16147  22871980.0994   22871982.1894   22871980.0014
        49.000          43.000
 125927304.69347  80332948.62947  22060244.3934   22060247.8154   22060244.9084
        53.000          46.000
 11 10  9  1 32  0.0000000  0 10G06G16G29G05G21G15G26G03G07G08
 135565180.08047  87842963.26647  23894286.0204   23894292.8184   23894286.3764
        45.000          39.000
 119868423.40247 111196152.34647  24713153.9284   24713162.8284   24713154.5204
        42.000          37.000
 118564255.60457 110179918.26757  24464980.4465   24464985.6415   24464980.6935
        45.000          39.000
 102629239.69547  97763034.25447  21432639.4584   21432641.4014   21432639.2364
        54.000          48.000
 127927642.54047  81891652.98347  22440895.7544   22440898.9384   22440896.2404
        52.000          45.000
 127225256.43157  81344347.00457  22307231.0275   22307233.0995   22307231.4425
        51.000          45.000
 116281456.99947  72816708.91747  20224697.6744   20224700.4634   20224697.7204
        56.000          50.000
 134434901.26247  86962232.74447  23679196.0284   23679201.1044   23679196.6494
        45.000          37.000
 110250275.80947 103701502.63347  22882875.0814   22882877.0164   22882874.9364
        50.000          43.000
 125916424.35247  80324470.48247  22058173.7494   22058177.1734   22058174.4334
        52.000          46.000
 11 10  9  1 32 30.0000000  0 10G06G16G29G05G21G15G26G03G07G08
 135526358.43147  87812712.39847  23886898.3374   23886905.5744   23886898.8024
        45.000          39.000
 119940762.05347 111252519.88047  24726920.3184   24726928.7394   24726920.8654
        44.000          37.000
 138667569.57357  90260429.91257  24484635.3795   24484638.9375   24484636.1455
        45.000          39.000
 102699188.22247  97817539.41347  21445950.3214   21445952.3254   21445950.2844
        54.000          48.000
 127867458.95247  81844756.24447  22429443.8754   22429446.2454   22429444.5764
        53.000          45.000
 107132685.76557 101272210.11957  22289618.5225   22289621.5835   22289617.8955
        51.000          45.000
 116243354.37647  72787018.22447  20217447.2104   20217450.0504   20217447.3594
        56.000          49.000
 134377493.80047  86917499.72547  23668271.7434   23668277.2404   23668272.6174
        45.000          38.000
 110308080.62947 103746545.38147  22893874.8354   22893876.9514   22893875.0414
        48.000          43.000
 125906193.97047  80316498.87347  22056227.0584   22056230.2984   22056227.6854
        52.000          45.000
 11 10  9  1 33  0.0000000  0 10G06G16G29G05G21G15G26G03G07G08
 135488066.55847  87782874.31047  23879612.1354   23879618.6014   23879612.5294
        45.000          38.000
 120013530.55347 111309222.49247  24740767.6794   24740775.9814   24740768.2504
        44.000          37.000
 118771040.14657 110341054.74657  24504325.7775   24504329.5365   24504325.3615
        44.000          39.000
 102769533.24747  97872353.62247  21459336.6844   21459338.5604   21459336.3564
        54.000          48.000
 127807703.84947  81798194.06147  22418072.3754   22418075.6244   22418073.0644
        53.000          45.000
 127040463.67757  81200351.82857  22272067.1885   22272069.6085   22272066.8545
        51.000          45.000
 116205920.31947  72757848.76347  20210323.7974   20210326.6754   20210323.8544
        56.000          49.000
 134320636.69147  86873195.42147  23657452.4404   23657458.0594   23657453.0474
        42.000          37.000
 110366409.88547 103791996.70847  22904974.7794   22904976.5924   22904974.5604
        50.000          43.000
 125896589.45647  80309015.08847  22054399.1964   22054402.4224   22054399.9104
        52.000          46.000
 11 10  9  1 33 30.0000000  0 10G06G16G29G05G21G15G26G03G07G08
 135450319.35447  87753460.79347  23872429.2144   23872434.9284   23872429.0894
        45.000          38.000
 120086739.56547 111366268.41247  24754698.6614   24754706.8754   24754699.5994
        44.000          37.000
 138874668.12157  90421797.91257  24524050.0155   24524055.2365   24524050.5505
        44.000          38.000
 102840286.55647  97927486.14347  21472800.4584   21472802.4264   21472800.3004
        53.000          48.000
 127748392.09547  81751977.56047  22406785.4634   22406788.3054   22406786.0604
        53.000          45.000
 106948563.27857 101128737.35657  22254581.4585   22254584.6565   22254581.5665
        51.000          45.000
 116169168.48447  72729210.91347  20203330.1894   20203333.0654   20203330.3534
        56.000          49.000
 134264345.67947  86829332.28747  23646739.7344   23646745.7124   23646740.0284
        43.000          36.000
 110425274.83047 103837865.47647  22916176.1984   22916178.1104   22916176.2184
        49.000          43.000
 125887623.93147  80302029.01747  22052693.0664   22052696.3364   22052693.6674
        52.000          46.000
 11 10  9  1 34  0.0000000  0 10G06G16G29G05G21G15G26G03G07G08
 135413113.39347  87724468.86047  23865349.7934   23865355.1294   23865350.2404
        46.000          39.000
 120160381.73847 111423651.80447  24768713.4304   24768720.6214   24768713.3934
        43.000          36.000
 118978493.21057 110502698.78157  24543808.7885   24543814.5125   24543808.7105
        44.000          37.000
 102911441.00747  97982930.92947  21486340.9014   21486342.9554   21486340.6134
        54.000          48.000
 127689519.93647  81706103.26347  22395582.3414   22395584.8354   22395582.9034
        52.000          45.000
 126857043.21157  81057429.33057  22237161.2215   22237162.9435   22237160.2345
        52.000          45.000
 116133096.31647  72701103.01847  20196465.6554   20196468.4494   20196465.7464
        56.000          50.000
 134208617.73147  86785907.92347  23636135.0384   23636140.4574   23636135.2504
        44.000          37.000
 110484668.88547 103884146.54947  22927478.4764   22927480.7774   22927478.6874
        50.000          43.000
 125879293.71647  80295538.07647  22051107.8624   22051110.9964   22051108.3904
        53.000          46.000
 11 10  9  1 34 30.0000000  0 10G06G16G29G05G21G15G26G03G07G08
 135376449.61047  87695899.53447  23858372.6984   23858378.1074   23858372.8584
        46.000          38.000
 120234454.03047 111481370.34847  24782808.4944   24782815.4614   24782808.9204
        41.000          35.000
 139082549.41057  90583793.06357  24563600.7495   24563603.4705   24563601.2055
        42.000          36.000
 102982994.97447  98038687.05547  21499957.3944   21499959.4484   21499957.0904
        54.000          48.000
 127631089.66747  81660573.32947  22384463.0724   22384466.0644   22384463.7154
        53.000          45.000
 106765811.88057 100986334.96057  22219804.1305   22219807.0195   22219804.9045
        52.000          45.000
 116097702.79847  72673523.74247  20189730.4034   20189733.2354   20189730.4554
        56.000          49.000
 134153454.59547  86742923.66147  23625637.9744   23625644.2234   23625638.8424
        44.000          37.000
 110544589.49947 103930837.91847  22938881.2014   22938883.2754   22938881.1334
        49.000          43.000
 125871598.16847  80289541.59747  22049643.3464   22049646.5034   22049643.9484
        52.000          46.000
 11 10  9  1 35  0.0000000  0 10G06G16G29G05G21G15G26G03G07G08
 135340330.61847  87667754.73347  23851499.5274   23851505.0574   23851499.8884
        45.000          38.000
 120308955.42047 111539423.37147  24796984.3734   24796993.9804   24796985.3784
        40.000          34.000
 119186678.58657 110664918.43957  24583426.7715   24583433.0115   24583426.9655
        42.000          36.000
 103054948.25847  98094754.22847  21513649.8434   21513652.0034   21513649.7014
        54.000          48.000
 127573103.94847  81615389.71947  22373429.1174   22373431.7514   22373429.7604
        52.000          45.000
 126674970.14557  80915553.88257  22202514.2425   22202516.0865   22202513.8885
        52.000          45.000
 116062991.54447  72646476.29647  20183124.8544   20183127.5854   20183124.9934
        56.000          50.000
 134098859.63147  86700382.20947  23615249.3724   23615256.0714   23615249.3444
        44.000          38.000
 110605036.08247 103977939.10047  22950383.9114   22950385.9554   22950383.5794
        49.000          43.000
 125864539.00347  80284040.93947  22048300.1544   22048303.2374   22048300.8644
        52.000          46.000
 11 10  9  1 35 30.0000000  0 10G06G16G29G05G21G15G26G03G07G08
 135304754.87647  87640033.50547  23844729.6634   23844734.9564   23844729.8514
        46.000          38.000
 120383879.70347 111597805.83847  24811242.6144   24811250.9794   24811243.2664
        41.000          35.000
 139291037.73157  90746241.76057  24603282.1605   24603287.2895   24603284.1255
        40.000          34.000
 103127296.92547  98151129.70747  21527417.4454   21527419.5724   21527417.3044
        54.000          48.000
 127515562.01247  81570551.94047  22362479.3114   22362481.5254   22362480.1334
        53.000          45.000
 106584443.46457 100845011.95557  22185288.3375   22185290.4525   22185288.1595
        51.000          45.000
 116028959.52047  72619958.08147  20176648.5574   20176651.3324   20176648.6974
        56.000          50.000
 134044832.06847  86658283.01147  23604967.8334   23604974.8564   23604968.5914
        43.000          38.000
 110666003.63747 104025446.31447  22961985.7014   22961987.3964   22961985.4254
        49.000          43.000
 125858113.73047  80279034.21047  22047077.2954   22047080.5674   22047077.8734
        52.000          46.000
 11 10  9  1 36  0.0000000  0 10G06G16G29G05G21G15G26G03G07G08
 135269730.35247  87612741.62847  23838064.6324   23838069.7704   23838064.7484
        45.000          38.000
 120459231.55847 111656521.48047  24825581.9074   24825590.2444   24825582.4214
        42.000          35.000
 119395574.58957 110827701.85557  24623173.4305   24623178.0515   24623174.2905
        40.000          34.000
 103200045.71847  98207817.02547  21541261.0524   21541263.3444   21541260.8274
        54.000          48.000
 127458471.71847  81526065.69647  22351615.6044   22351618.0354   22351616.1744
        53.000          45.000
 126494253.44957  80774727.98257  22168129.9115   22168133.3735   22168129.8235
        51.000          46.000
 115995614.98547  72593975.44147  20170303.1954   20170305.9804   20170303.3224
        56.000          49.000
 133991380.85347  86616632.75047  23594795.8054   23594803.2984   23594796.0604
        44.000          38.000
 110727496.65147 104073362.82147  22973687.5564   22973689.4814   22973687.5614
        49.000          43.000
 125852329.60747  80274527.09747  22045976.6274   22045979.7574   22045977.1764
        52.000          45.000
 11 10  9  1 36 30.0000000  0 10G06G16G29G05G21G15G26G03G07G08
 135235267.13447  87585887.39047  23831505.5394   23831511.7404   23831506.0734
        45.000          38.000
 120535017.13447 111715575.10547  24840003.9544   24840012.4444   24840004.4334
        44.000          36.000
 139500344.20157  90909354.34857  24643101.1835   24643100.7575   24643099.1345
        41.000          34.000
 103273202.02947  98264821.97347  21555182.2864   21555184.4754   21555181.9994
        54.000          48.000
 127401844.54747  81481940.24947  22340839.5074   22340842.8244   22340840.0194
        52.000          45.000
 106404469.63757 100704772.22357  22151041.0525   22151043.1155   22151040.9355
        52.000          46.000
 115962967.38247  72568535.89347  20164090.5284   20164093.0894   20164090.6924
        56.000          49.000
 133938516.36247  86575439.74847  23584736.3614   23584743.4044   23584736.5764
        44.000          38.000
 110789522.16047 104121694.47847  22985490.1714   22985492.4054   22985490.3294
        49.000          43.000
 125847195.73047  80270526.86847  22044999.6144   22045002.7604   22045000.3224
        52.000          46.000
 11 10  9  1 37  0.0000000  0 10G06G16G29G05G21G15G26G03G07G08
 135201334.69047  87559446.65047  23825048.2084   23825055.0954   23825048.7614
        45.000          38.000
 120611202.59147 111774940.38347  24854501.6184   24854509.6904   24854502.1424
        44.000          37.000
 119605107.80657 110990967.93257  24663051.2005   24663057.3925   24663050.2925
        40.000          34.000
 103346732.90647  98322118.88847  21569174.6544   21569176.7254   21569174.5134
        54.000          48.000
 127345651.98947  81438153.84147  22330146.8954   22330149.8474   22330147.5954
        52.000          45.000
 126315007.45057  80635064.25957  22134015.1575   22134016.8435   22134015.2345
        52.000          46.000
 115930986.57647  72543616.00547  20158004.6014   20158007.2454   20158004.6774
        56.000          50.000
 133886210.00047  86534681.56647  23574783.2634   23574789.6494   23574783.9564
        46.000          38.000
 110852046.50247 104170414.81747  22997388.4284   22997390.1544   22997388.2714
        49.000          43.000
 125842680.55347  80267008.64047  22044140.3074   22044143.3374   22044141.0194
        52.000          46.000
 11 10  9  1 37 30.0000000  0 10G06G16G29G05G21G15G26G03G07G08
 135167991.49647  87533464.96947  23818703.8334   23818710.3784   23818704.0024
        45.000          39.000
 120687841.97047 111834659.20947  24869086.2044   24869094.0834   24869086.3834
        45.000          38.000
 139710183.83657  91072852.00657  24683041.0615   24683045.5035   24683040.1815
        41.000          34.000
 103420693.82147  98379750.90847  21583248.8514   21583250.9344   21583248.7194
        54.000          48.000
 127289952.45647  81394751.49547  22319547.5214   22319550.1284   22319548.1294
        53.000          45.000
 106225905.55157 100565627.91657  22117064.1305   22117067.2465   22117063.4405
        52.000          46.000
 115899730.36347  72519260.64147  20152056.7044   20152059.2504   20152056.7684
        56.000          49.000
 133834520.74747  86494404.29847  23564947.7144   23564953.0844   23564947.7684
        45.000          38.000
 110915124.97047 104219566.94347  23009391.7964   23009393.6424   23009391.7024
        49.000          43.000
 125838841.59847  80264017.19547  22043409.7884   22043412.8644   22043410.3964
        52.000          45.000
 11 10  9  1 38  0.0000000  0 10G06G16G29G05G21G15G26G03G07G08
 135135179.08347  87507897.00047  23812459.3324   23812466.3634   23812459.8554
        45.000          39.000
 120764873.29247 111894683.43947  24883744.6234   24883752.2834   24883744.8944
        43.000          38.000
 119815313.80657 111154760.33757  24703055.1475   24703062.3605   24703055.8575
        39.000          34.000
 103495023.37647  98437669.96047  21597393.3244   21597395.5534   21597393.1794
        54.000          48.000
 127234687.52247  81351687.80347  22309030.8584   22309033.8954   22309031.4084
        53.000          45.000
 126137149.66757  80496464.67757  22100176.1605   22100179.8585   22100176.5165
        52.000          46.000
 115869139.62147  72495423.74147  20146235.4634   20146237.8494   20146235.5424
        56.000          50.000
 133783391.12147  86454563.19847  23555217.1544   23555223.3874   23555217.8614
        44.000          38.000
 110978694.96047 104269101.95647  23021488.7604   23021490.6454   23021488.4924
        49.000          43.000
 125835619.50847  80261506.66747  22042796.4774   22042799.4624   22042797.1804
        52.000          45.000
 11 10  9  1 38 30.0000000  0 10G06G16G29G05G21G15G26G03G07G08
 135102892.71247  87482739.24847  23806315.4374   23806321.9184   23806315.6564
        45.000          39.000
 120842287.18947 111955005.85047  24898475.7184   24898483.6144   24898476.1534
        42.000          37.000
 139920543.51957  91236743.45157  24723096.0505   24723098.6555   24723094.3905
        40.000          34.000
 103569712.98047  98495869.48847  21611606.3804   21611608.6314   21611606.1854
        54.000          48.000
 127179853.22547  81308959.56347  22298596.7404   22298599.9904   22298597.3664
        53.000          45.000
 106048771.02857 100427605.75357  22083352.5795   22083355.0675   22083352.5365
        52.000          46.000
 115839209.09447  72472101.30547  20140539.8074   20140542.2774   20140539.8954
        56.000          50.000
 133732816.24647  86415154.58447  23545592.3884   23545599.0384   23545593.3774
        45.000          38.000
 111042748.17547 104319013.53047  23033677.8404   23033679.7524   23033677.6764
        49.000          43.000
 125833007.77447  80259471.62647  22042299.5214   22042302.6214   22042300.1564
        52.000          45.000
 11 10  9  1 39  0.0000000  0 10G06G16G29G05G21G15G26G03G07G08
 135071159.19847  87458012.20947  23800276.3474   23800283.2114   23800276.7314
        45.000          39.000
 120920107.58047 112015645.03147  24913283.3854   24913292.0124   24913284.6224
        40.000          35.000
 140025999.38647  91318916.87247  24743162.0434   24743166.8874   24743161.9694
        38.000          34.000
 103644788.32047  98554369.84447  21625892.7044   21625894.8374   21625892.4734
        54.000          48.000
 127125477.55247  81266588.66847  22288248.8754   22288252.4204   22288249.3554
        53.000          45.000
 105960716.89247 100358992.04347  22066596.4134   22066598.7034   22066596.2424
        52.000          46.000
 115809965.96847  72449314.50247  20134974.9404   20134977.5024   20134975.0534
        56.000          49.000
 133682824.46847  86376200.51447  23536079.2244   23536085.7124   23536079.9924
        45.000          39.000
 111107309.01947 104369320.57347  23045963.1974   23045964.9384   23045963.2144
        49.000          43.000
 125831032.93447  80257932.87747  22041923.5854   22041926.5834   22041924.2994
        52.000          46.000
 11 10  9  1 39 30.0000000  0 10G06G16G05G18G21G15G26G03G07G08
 135040044.39047  87433767.27247  23794355.9224   23794362.1964   23794356.0314
        45.000          40.000
 120998396.45847 112076649.20947  24928181.4964   24928190.5844   24928181.9504
        38.000          34.000
 103720311.68947  98613219.09847  21640264.4594   21640266.5654   21640264.1674
        53.000          48.000
 138863181.95957  90412843.71457  24521868.1585   24521874.6025   24521869.4215
        46.000          37.000
 127071627.49947  81224627.60047  22278002.7854   22278004.7534   22278003.4554
        54.000          45.000
 105873087.85547 100290709.60647  22049921.3414   22049923.6214   22049921.0864
        52.000          46.000
 115781475.45547  72427114.16047  20129553.3454   20129555.7834   20129553.4334
        56.000          49.000
 133633481.46247  86337751.55547  23526690.2534   23526696.6374   23526690.2724
        45.000          39.000
 111172439.68947 104420071.73347  23058357.3124   23058358.9004   23058356.9054
        48.000          43.000
 125829759.26047  80256940.34347  22041681.1164   22041684.3604   22041681.8754
        52.000          45.000
 11 10  9  1 40  0.0000000  0 10G06G16G05G18G21G15G26G03G07G08
 135009452.01147  87409929.07747  23788534.2524   23788541.0884   23788534.5794
        45.000          40.000
 121077054.24947 112137940.93547  24943149.5944   24943158.4484   24943150.5554
        42.000          34.000
 103796185.42647  98672341.69347  21654702.4694   21654704.6984   21654702.2174
        53.000          48.000
 118760527.46757 110332858.53657  24502328.9655   24502333.9045   24502330.2605
        46.000          38.000
 127018207.97847  81183002.11647  22267836.3004   22267839.7184   22267836.7804
        52.000          45.000
 105785789.17647 100222684.45247  22033309.1244   22033311.5324   22033308.8374
        52.000          46.000
 115753641.78347  72405425.63147  20124256.7414   20124259.2194   20124256.8684
        56.000          50.000
 133584693.53147  86299735.30247  23517405.2864   23517411.6944   23517405.9294
        45.000          39.000
 111238041.71147 104471190.16247  23070840.9664   23070842.8294   23070840.8124
        49.000          43.000
 125829090.45347  80256419.23247  22041553.9034   22041556.9124   22041554.4494
        52.000          46.000
 11 10  9  1 40 30.0000000  0 10G06G16G05G18G21G15G26G03G07G08
 134979405.36447  87386516.36947  23782816.2424   23782822.6874   23782816.5894
        45.000          40.000
 141156062.13257  92199498.44857  24958192.2045   24958199.7915   24958192.6815
        43.000          34.000
 103872428.57747  98731752.06247  21669211.0434   21669213.1244   21669210.6674
        53.000          48.000
 138657937.13757  90252917.27657  24482806.4645   24482811.3445   24482807.0405
        46.000          38.000
 126965241.84347  81141729.97247  22257757.6224   22257760.2844   22257758.2664
        53.000          45.000
 105698843.96247 100154934.89047  22016763.8664   22016766.3834   22016763.6934
        52.000          46.000
 115726486.31447  72384265.52447  20119089.2184   20119091.7754   20119089.2954
        56.000          50.000
 133536483.09847  86262169.23847  23508231.1224   23508236.9464   23508231.3024
        46.000          39.000
 111304133.82347 104522690.47347  23083417.8514   23083419.6164   23083417.7324
        49.000          43.000
 125829047.46047  80256385.73547  22041545.8424   22041548.7674   22041546.4194
        52.000          46.000
 11 10  9  1 41  0.0000000  0 10G06G16G05G18G21G15G26G03G07G08
 134949918.41447  87363539.80447  23777205.0604   23777211.9144   23777205.1044
        46.000          40.000
 121235536.79057 112261432.78857  24973310.5545   24973316.4495   24973310.8065
        44.000          35.000
 103949052.61147  98791459.06247  21683792.0634   21683794.2074   21683791.9184
        54.000          48.000
 118555449.40157 110173060.72657  24463301.2385   24463305.3115   24463302.4065
        45.000          38.000
 126912744.36747  81100822.97247  22247767.3354   22247769.9244   22247767.9284
        53.000          45.000
 105612267.80047 100087472.86347  22000289.0634   22000291.7564   22000288.8674
        53.000          46.000
 115700023.31147  72363644.93647  20114053.4644   20114056.0604   20114053.5794
        56.000          50.000
 113488886.47857 106225084.97857  23499169.5885   23499174.7275   23499170.1935
        45.000          38.000
 131370734.16657  84574589.30957  23096089.6445   23096091.8735   23096090.2005
        49.000          43.000
 125829644.39247  80256850.93447  22041659.3214   22041662.3234   22041659.8904
        52.000          46.000
 11 10  9  1 41 30.0000000  0 10G06G16G05G18G21G15G26G03G07G08
 134921002.17647  87341007.65847  23771702.2534   23771709.1814   23771702.7814
        46.000          40.000
 141315357.21757  92323624.26257  24988504.4535   24988511.8505   24988505.3285
        45.000          37.000
 104026066.43747  98851469.96447  21698447.3144   21698449.3264   21698447.0364
        53.000          48.000
 138453066.03657  90093282.33157  24443818.0105   24443822.0155   24443818.7885
        44.000          37.000
 126860728.12547  81060291.39647  22237868.1164   22237871.5014   22237868.4854
        53.000          46.000
 105526072.94247 100020308.08347  21983886.8854   21983889.2864   21983886.7184
        52.000          46.000
 115674264.03347  72343572.73447  20109151.6924   20109154.1964   20109151.8244
        56.000          50.000
 133441867.40257  86188446.56257  23490222.6255   23490227.9215   23490223.2035
        43.000          38.000
 111437831.45057 104626870.73457  23108858.7005   23108861.2545   23108859.3855
        48.000          43.000
 125830890.69847  80257822.06647  22041896.5894   22041899.5044   22041897.1704
        52.000          45.000
 11 10  9  1 42  0.0000000  0 10G06G16G05G18G21G15G26G03G07G08
 134892636.41347  87318904.74347  23766304.4874   23766310.9174   23766304.6964
        46.000          41.000
 121395576.69857 112386130.78857  25003771.5295   25003779.5075   25003772.3185
        43.000          37.000
 104103446.75647  98911766.32947  21713172.2124   21713174.2384   21713171.9764
        53.000          47.000
 118350755.63257 110013557.15757  24424350.6935   24424355.2415   24424351.9875
        42.000          36.000
 126809172.56247  81020118.77247  22228057.5244   22228060.6404   22228058.0424
        53.000          45.000
 105440239.10147  99953424.72747  21967552.9634   21967555.3814   21967552.8734
        53.000          46.000
 115649187.13947  72324032.29947  20104379.7684   20104382.2804   20104379.9224
        56.000          50.000
 113395450.86257 106152283.53357  23481385.7865   23481389.7175   23481386.3205
        43.000          36.000
 131505422.78557  84679541.09457  23121720.3605   23121722.6865   23121720.1525
        49.000          42.000
 125832765.14047  80259282.72647  22042253.1194   22042256.2134   22042253.6934
        52.000          46.000
 11 10  9  1 42 30.0000000  0 10G06G16G05G18G21G15G26G03G07G08
 134864834.85047  87297241.24447  23761014.0744   23761020.6014   23761014.0944
        46.000          40.000
 141476215.10457  92448970.64357  25019113.4335   25019120.3735   25019113.5215
        41.000          37.000
 104181205.06447  98972357.10847  21727969.2704   21727971.3704   21727969.0754
        53.000          47.000
 138248535.59957  89933899.26457  24404903.4375   24404909.4505   24404904.6925
        42.000          36.000
 126758093.07147  80980317.16447  22218336.9954   22218338.3714   22218337.6184
        53.000          45.000
 105354781.49647  99886834.37247  21951290.8744   21951293.4784   21951290.6284
        52.000          46.000
 115624806.55847  72305034.43647  20099740.2394   20099742.8224   20099740.2684
        56.000          49.000
 133349603.65157  86116553.38257  23472664.5055   23472669.4755   23472665.4035
        43.000          36.000
 111573525.71457 104732610.47657  23134677.6715   23134679.3025   23134677.2365
        49.000          42.000
 125835280.82447  80261243.03547  22042731.7244   22042734.8264   22042732.2814
        52.000          46.000
 11 10  9  1 43  0.0000000  0 10G06G16G05G18G21G15G26G03G07G08
 134837593.64847  87276014.39547  23755829.8074   23755836.6934   23755830.1574
        46.000          40.000
 121557177.23457 112512046.54857  25034527.7325   25034538.1625   25034527.8435
        40.000          36.000
 104259334.63247  99033237.19547  21742836.9834   21742839.0714   21742836.8064
        53.000          47.000
 118146455.48057 109854358.91957  24385476.8815   24385482.2965   24385478.1245
        45.000          37.000
 126707485.23447  80940882.81147  22208706.2474   22208708.3644   22208706.8354
        54.000          46.000
 105269697.08647  99820534.96747  21935099.7954   21935102.5084   21935099.6404
        52.000          46.000
 115601117.71947  72286575.58447  20095232.4594   20095235.0104   20095232.5224
        56.000          50.000
 113304361.98857 106081296.86757  23464058.7355   23464064.3585   23464059.0715
        44.000          37.000
 131642083.62957  84786028.88857  23147726.1555   23147728.5985   23147725.8315
        48.000          42.000
 125838432.70647  80263699.12847  22043331.6024   22043334.6174   22043332.2904
        52.000          45.000
 11 10  9  1 43 30.0000000  0 10G06G16G05G18G21G15G26G03G07G08
 134810920.36647  87255230.15247  23750754.1374   23750760.4984   23750754.4954
        46.000          40.000
 141638575.74257  92575477.21057  25050015.7145   25050024.6375   25050016.4495
        40.000          36.000
 104337840.53047  99094410.72647  21757776.0204   21757778.0194   21757775.8194
        53.000          47.000
 138044499.62257  89774916.78257  24366071.2135   24366075.4855   24366071.2395
        46.000          38.000
 126657357.97147  80901822.89547  22199167.5204   22199170.2404   22199168.0964
        53.000          45.000
 105184994.04047  99754532.71947  21918981.4604   21918983.7494   21918981.3734
        52.000          46.000
 115578127.56747  72268661.17047  20090857.5204   20090860.1144   20090857.6284
        56.000          50.000
 133259747.42257  86046535.06857  23455566.6615   23455571.9985   23455567.2805
        44.000          37.000
 111711179.45557 104839877.39757  23160869.6715   23160870.4045   23160868.5985
        48.000          43.000
 125842226.24447  80266655.02147  22044053.4994   22044056.5654   22044054.1294
        52.000          45.000
 11 10  9  1 44  0.0000000  0 10G06G16G05G18G21G15G26G03G07G08
 134784822.63147  87234894.23447  23745788.2074   23745794.0994   23745788.4374
        46.000          40.000
 121720391.08057 112639237.19257  25065578.5925   25065585.5335   25065579.5345
        41.000          36.000
 104416727.98247  99155881.59247  21772787.7484   21772789.7584   21772787.5354
        53.000          47.000
 117942626.50957 109695534.44457  24346686.3975   24346690.9635   24346686.6795
        46.000          38.000
 126607719.87047  80863143.91947  22189720.7194   22189723.4374   22189721.2614
        53.000          45.000
 105100681.10147  99688834.28747  21902937.2734   21902939.4164   21902937.0214
        53.000          46.000
 115555843.83347  72251297.06147  20086617.1824   20086619.8654   20086617.2494
        56.000          49.000
 113215730.77857 106012233.69357  23447192.2125   23447198.1135   23447191.9795
        45.000          38.000
 131780702.41057  84894042.05057  23174105.3115   23174107.9745   23174106.1675
        48.000          42.000
 125846669.15847  80270116.98547  22044898.9434   22044902.1104   22044899.5604
        52.000          45.000
 11 10  9  1 44 30.0000000  0 10G06G16G05G18G21G15G26G03G07G08
 134759272.32047  87214984.91347  23740925.9534   23740931.8784   23740926.4444
        46.000          40.000
 141802514.60257  92703223.07657  25081211.2685   25081219.8995   25081211.6005
        42.000          36.000
 104495965.83747  99217625.43647  21787866.1734   21787868.0664   21787865.8994
        53.000          47.000
 137840834.95357  89616212.69657  24327318.9055   24327324.3945   24327319.2175
        44.000          37.000
 126558542.96747  80824823.87347  22180363.6264   22180365.4834   22180364.1684
        53.000          46.000
 105016731.13147  99623418.76247  21886961.9904   21886964.2584   21886961.6834
        53.000          46.000
 115534237.45047  72234460.75847  20082505.7484   20082508.4384   20082505.8954
        56.000          50.000
 133172299.03157  85978390.87057  23438927.3885   23438933.3015   23438927.7505
        45.000          38.000
 111850756.10657 104948635.55957  23187432.5815   23187434.0905   23187432.4445
        48.000          42.000
 125851732.04547  80274062.08847  22045862.4034   22045865.6184   22045863.1464
        52.000          45.000
 11 10  9  1 45  0.0000000  0 10G06G16G05G18G21G15G26G03G07G08
 134734294.20147  87195521.49947  23736172.4014   23736178.8394   23736172.6174
        46.000          40.000
 121885078.83857 112767565.72057  25096915.4795   25096923.5635   25096915.2595
        42.000          35.000
 104575575.96747  99279659.27747  21803015.4594   21803017.5484   21803015.3534
        53.000          47.000
 117739184.84157 109537008.96857  24307972.6185   24307976.5855   24307973.3985
        41.000          36.000
 126509854.35647  80786884.86947  22171098.4624   22171101.1454   22171099.0204
        53.000          46.000
 104933169.56547  99558305.89647  21871060.7014   21871063.1434   21871060.6054
        53.000          46.000
 115513333.00047  72218171.45547  20078527.9194   20078530.5214   20078528.0124
        56.000          49.000
 113129446.66057 105944992.34957  23430778.8265   23430785.3635   23430779.4135
        44.000          38.000
 131921244.53157  85003554.14057  23200851.1815   23200853.5215   23200851.7325
        48.000          42.000
 125857438.52947  80278508.84147  22046948.2454   22046951.2534   22046949.0934
        52.000          46.000
 11 10  9  1 45 30.0000000  0 10G06G16G05G18G21G15G26G03G07G08
 134709894.33147  87176508.64547  23731529.3664   23731536.1204   23731529.5824
        46.000          40.000
 121967987.66347 112832170.51847  25112690.6154   25112699.6244   25112691.7744
        43.000          34.000
 104655562.48047  99341986.50447  21818236.3484   21818238.3754   21818235.9754
        53.000          47.000
 117637645.77747 109457887.55447  24288650.8944   24288655.5284   24288651.1044
        42.000          36.000
 126461660.43747  80749331.30447  22161927.0034   22161930.1524   22161927.6864
        54.000          46.000
 104850004.06347  99493501.71647  21855234.6974   21855237.2304   21855234.3144
        53.000          46.000
 115493136.23647  72202433.58747  20074684.7664   20074687.3474   20074684.8634
        56.000          50.000
 113087249.70347 105912111.80947  23422749.0874   23422755.9944   23422749.2854
        43.000          38.000
 131992253.24047  85058885.57347  23214364.0644   23214366.0274   23214363.9834
        48.000          42.000
 125863793.71447  80283461.00847  22048157.6144   22048160.5304   22048158.0584
        52.000          46.000
 11 10  9  1 46  0.0000000  0 10G06G16G05G18G21G15G26G03G07G08
 134686039.48647  87157920.55647  23726989.7124   23726996.3014   23726989.8754
        46.000          40.000
 122051242.18947 112897044.26947  25128534.1354   25128542.0484   25128534.6594
        42.000          34.000
 104735889.15847  99404578.71447  21833521.8624   21833524.0094   21833521.6444
        53.000          47.000
 117536196.15147 109378835.54847  24269346.4634   24269351.4234   24269347.2104
        47.000          38.000
 126413928.56447  80712137.83247  22152844.1854   22152846.2654   22152845.0234
        53.000          46.000
 104767201.80047  99428980.48847  21839477.9734   21839480.2634   21839477.7924
        53.000          46.000
 115473613.37347  72187220.98847  20070969.5834   20070972.3264   20070969.6494
        56.000          50.000
 113045638.76647 105879687.99547  23414831.0594   23414837.6954   23414831.3784
        44.000          38.000
 132063715.89047  85114570.70447  23227963.2164   23227965.0694   23227963.2154
        49.000          42.000
 125870762.83347  80288891.55047  22049483.7204   22049486.7094   22049484.2144
        52.000          45.000
 11 10  9  1 46 30.0000000  0 10G06G16G05G18G21G15G26G03G07G08
 134662768.80547  87139787.98047  23722561.8684   23722567.2724   23722562.1074
        47.000          40.000
 142134818.33957  92962158.49657  25144448.2515   25144457.4135   25144449.8595
        40.000          34.000
 104816592.75247  99467464.58447  21848879.4284   21848881.4704   21848879.1964
        53.000          47.000
 117434875.75947 109299884.30647  24250066.3114   24250071.3194   24250067.1004
        47.000          39.000
 126366698.47147  80675335.37347  22143855.7304   22143858.3914   22143856.1784
        53.000          46.000
 104684802.85147  99364773.54347  21823798.1014   21823800.2254   21823797.8864
        53.000          46.000
 115454803.08647  72172563.80347  20067390.0634   20067392.6314   20067390.1384
        56.000          50.000
 113004652.88047 105847751.03547  23407031.4884   23407038.1584   23407032.2494
        44.000          39.000
 132135668.44347  85170637.64947  23241655.0754   23241657.0174   23241655.0044
        47.000          42.000
 125878383.73547  80294829.87547  22050934.0064   22050936.9584   22050934.5194
        52.000          45.000
 11 10  9  1 47  0.0000000  0 10G06G16G05G18G21G15G26G03G07G08
 134640066.25747  87122097.82847  23718241.7724   23718246.6494   23718241.9664
        47.000          40.000
 122218824.82357 113027620.70957  25160432.2555   25160440.8135   25160434.1995
        39.000          34.000
 104897655.53147  99530630.53647  21864305.0284   21864307.1014   21864304.7884
        53.000          47.000
 117333671.11947 109221023.61647  24230807.5264   24230812.2844   24230808.6304
        45.000          38.000
 126319955.89147  80638912.68747  22134961.8234   22134963.6054   22134962.4834
        54.000          46.000
 104602792.78247  99300869.66347  21808191.7954   21808194.0524   21808191.7384
        53.000          46.000
 115436689.19447  72158449.24547  20063942.8964   20063945.4944   20063942.9384
        56.000          50.000
 112964278.41047 105816290.47847  23399349.0314   23399354.8944   23399349.5524
        44.000          39.000
 132208092.23147  85227071.74947  23255437.2374   23255439.0064   23255436.8244
        47.000          42.000
 125886640.23647  80301263.50647  22052505.2304   22052508.2534   22052505.7254
        52.000          46.000
 11 10  9  1 47 30.0000000  0 10G06G16G05G18G21G15G26G03G07G08
 134617935.28647  87104853.39747  23714030.1284   23714034.8544   23714030.4294
        48.000          41.000
 142303144.48657  93093314.40257  25176485.1795   25176496.9675   25176488.1145
        40.000          34.000
 104979077.11147  99594075.95647  21879799.1154   21879801.0014   21879798.8384
        53.000          47.000
 117232583.88347 109142254.41447  24211571.0914   24211576.2764   24211571.8274
        44.000          37.000
 126273704.11947  80602872.38947  22126160.0724   22126162.0544   22126160.6674
        53.000          45.000
 104521175.20947  99237271.55347  21792660.3964   21792662.8884   21792660.3054
        53.000          47.000
 115419273.77747  72144878.76947  20060628.8114   20060631.4994   20060628.9724
        56.000          50.000
 112924518.78347 105785309.23847  23391782.7814   23391788.2694   23391783.2754
        45.000          39.000
 132280986.57947  85283872.43847  23269308.4194   23269310.5684   23269308.4294
        48.000          42.000
 125895533.88447  80308193.72347  22054197.5874   22054200.3294   22054198.0754
        52.000          46.000
 11 10  9  1 48  0.0000000  0 10G06G16G05G18G21G15G26G03G07G08
 134596365.35247  87088045.79847  23709925.3744   23709930.0344   23709925.5034
        47.000          40.000
 122387880.36357 113159347.33557  25192606.3935   25192616.2135   25192607.5545
        41.000          35.000
 105060845.86047  99657791.92147  21895359.2054   21895360.9584   21895358.8994
        53.000          47.000
 117131605.93947 109063570.31947  24192355.0094   24192360.6214   24192355.9134
        44.000          37.000
 126227934.54547  80567207.87647  22117449.3594   22117452.6344   22117449.6584
        53.000          46.000
 104439942.15147  99173973.21247  21777202.3614   21777204.5834   21777202.2644
        53.000          47.000
 115402547.53547  72131845.46947  20057445.8764   20057448.4164   20057445.9714
        56.000          50.000
 112885364.93047 105754800.16947  23384331.5564   23384337.3974   23384332.2244
        45.000          39.000
 132354339.46047  85341030.50447  23283267.0984   23283269.0344   23283266.6944
        48.000          42.000
 125905053.66247  80315611.67747  22056009.2024   22056011.9264   22056009.7064
        52.000          45.000
 11 10  9  1 48 30.0000000  0 10G06G16G05G18G21G15G26G03G07G08
 134575379.85247  87071693.56447  23705931.5234   23705936.4714   23705932.0154
        47.000          40.000
 142472977.12057  93225660.80457  25208796.2185   25208804.9105   25208796.9085
        41.000          35.000
 105142982.09547  99721794.22547  21910989.1134   21910990.9154   21910988.7804
        53.000          47.000
 117030761.05547 108984989.84847  24173164.9844   24173169.9464   24173165.8574
        44.000          36.000
 126182670.23447  80531936.47947  22108837.2264   22108839.8554   22108837.8004
        54.000          46.000
 104359117.35947  99110993.04947  21761821.7664   21761823.9974   21761821.5744
        53.000          47.000
 115386531.99347  72119365.80347  20054398.2494   20054400.7754   20054398.3404
        56.000          50.000
 112846840.32647 105724781.38647  23377000.9234   23377005.8344   23377001.3724
        45.000          39.000
 132428170.19747  85398560.92247  23297316.6174   23297318.7064   23297316.4434
        48.000          42.000
 125915221.87447  80323534.88447  22057943.9724   22057946.9624   22057944.7224
        52.000          45.000
 11 10  9  1 49  0.0000000  0 10G06G16G05G18G21G15G26G03G07G08
 134554969.76447  87055789.46047  23702047.7124   23702052.7254   23702048.0984
        47.000          40.000
 122558428.58557 113292250.49357  25225053.3715   25225060.8815   25225054.2925
        42.000          36.000
 105225474.47447  99786073.98947  21926686.7324   21926688.8414   21926686.5194
        53.000          47.000
 116930041.67447 108906507.40647  24153998.4994   24154003.7114   24153999.1994
        44.000          36.000
 126137904.49347  80497053.67647  22100319.0104   22100320.7964   22100319.5714
        53.000          45.000
 104278692.86947  99048324.59747  21746517.4384   21746519.7394   21746517.2714
        53.000          47.000
 115371217.98647  72107432.49247  20051484.3644   20051486.9894   20051484.3744
        56.000          50.000
 112808936.75647 105695246.39847  23369788.2034   23369793.0274   23369788.2624
        46.000          39.000
 132502467.11147  85456454.55547  23311454.8984   23311457.0374   23311455.0634
        48.000          42.000
 125926028.63947  80331955.76447  22060000.4874   22060003.4584   22060001.0594
        52.000          45.000
 11 10  9  1 49 30.0000000  0 10G06G16G05G18G21G15G26G03G07G08
 134535123.73347  87040325.00347  23698270.9124   23698275.5514   23698271.2424
        46.000          39.000
 142644202.66857  93359088.71057  25241375.2745   25241382.6745   25241376.1855
        41.000          36.000
 105308309.22147  99850620.52547  21942449.6764   21942451.7624   21942449.4204
        52.000          47.000
 116829436.80047 108828114.16847  24134854.3614   24134859.0454   24134854.9544
        46.000          38.000
 126093626.25147  80462550.77547  22091892.6604   22091895.3594   22091893.2214
        53.000          46.000
 104198658.40347  98985960.20647  21731287.4024   21731289.4134   21731287.1784
        53.000          47.000
 115356593.65947  72096036.58947  20048701.7074   20048704.4344   20048701.8624
        56.000          50.000
 112771643.31047 105666186.50747  23362691.2704   23362695.6064   23362691.7304
        46.000          39.000
 132577215.30347  85514699.81747  23325679.0254   23325681.1384   23325678.8534
        48.000          42.000
 125937460.81247  80340863.97147  22062175.9334   22062178.9854   22062176.5744
        52.000          45.000
 11 10  9  1 50  0.0000000  0 10G06G16G05G18G21G15G26G03G07G08
 134515851.62847  87025307.75047  23694603.1694   23694608.5514   23694603.3824
        45.000          39.000
 122730304.79057 113426177.41257  25257762.8605   25257771.1525   25257764.1375
        42.000          36.000
 105391493.87047  99915439.76147  21958279.1104   21958281.1184   21958279.0534
        53.000          47.000
 116728957.15147 108749818.42347  24115733.6304   24115738.7104   24115734.4534
        46.000          39.000
 126049846.95747  80428436.87547  22083562.2594   22083564.9764   22083562.9064
        54.000          46.000
 104119025.49247  98923908.87347  21716133.4594   21716135.5084   21716133.3054
        53.000          47.000
 115342668.94047  72085185.90447  20046052.0754   20046054.8214   20046052.1284
        56.000          50.000
 112734971.54247 105637611.44047  23355712.6314   23355716.3434   23355713.4164
        46.000          39.000
 132652421.76747  85573302.15547  23339990.4554   23339992.5594   23339990.4124
        48.000          42.000
 125949527.67247  80350266.75947  22064472.1574   22064475.1844   22064472.7174
        52.000          45.000
 11 10  9  1 50 30.0000000  0 10G06G16G05G18G21G15G26G03G07G08
 134497162.97547  87010745.04147  23691046.4524   23691052.2204   23691046.6134
        46.000          39.000
 142816742.93957  93493523.16057  25274217.7155   25274227.5055   25274219.5185
        43.000          37.000
 105475035.18047  99980536.96147  21974176.5094   21974178.3884   21974176.2194
        53.000          47.000
 116628613.30047 108671628.52647  24096638.6734   24096644.3324   24096639.1924
        43.000          38.000
 126006576.58847  80394719.18747  22075328.8224   22075331.4954   22075329.5314
        54.000          46.000
 104039803.78947  98862177.80147  21701058.0694   21701060.2714   21701057.9224
        53.000          47.000
 115329452.64647  72074887.20347  20043537.2824   20043540.1994   20043537.3144
        55.000          50.000
 112698931.12547 105609528.25447  23348854.2714   23348858.6684   23348854.7674
        46.000          39.000
 132728092.99147  85632266.69247  23354390.2194   23354392.2694   23354390.4594
        48.000          42.000
 125962237.39047  80360170.47647  22066890.7454   22066893.6174   22066891.3694
        52.000          45.000
 11 10  9  1 51  0.0000000  0 10G06G16G05G18G21G15G26G03G07G08
 134479041.41247  86996624.37447  23687598.5944   23687604.0124   23687598.6834
        46.000          39.000
 142903549.21147  93561164.51047  25290737.6984   25290745.6024   25290738.2174
        43.000          36.000
 105558914.68647 100045897.57347  21990138.2374   21990140.1814   21990138.0284
        52.000          47.000
 116528389.27247 108593532.08847  24077566.3734   24077571.8464   24077566.8734
        46.000          39.000
 125963800.76947  80361387.81247  22067188.0824   22067191.3864   22067188.4884
        53.000          46.000
 103960977.84147  98800754.93647  21686058.0804   21686060.0914   21686057.7934
        53.000          47.000
 115316928.34547  72065128.16947  20041153.9094   20041156.7224   20041154.0604
        56.000          50.000
 112663505.92147 105581924.36847  23342112.8644   23342117.1814   23342113.6494
        46.000          39.000
 132804208.93047  85691577.73447  23368874.6874   23368876.6844   23368874.6854
        48.000          41.000
 125975572.30447  80370561.35147  22069428.1114   22069431.1864   22069428.9064
        52.000          45.000
 11 10  9  1 51 30.0000000  0 10G06G16G05G18G21G15G26G03G07G08
 134461497.53347  86982954.05247  23684259.7194   23684265.2774   23684260.0304
        45.000          39.000
 142990695.23147  93629070.56547  25307321.5774   25307328.9194   25307321.3694
        42.000          36.000
 105643140.31247 100111527.86147  22006166.0294   22006167.9834   22006165.6344
        53.000          47.000
 116428297.07047 108515538.36347  24058519.5774   24058524.2054   24058520.2474
        47.000          38.000
 125921529.63847  80328449.38247  22059144.3784   22059146.5044   22059145.1084
        54.000          46.000
 103882559.26047  98739649.32947  21671135.6144   21671137.6464   21671135.3674
        53.000          47.000
 115305105.16447  72055915.41547  20038903.9164   20038906.7354   20038904.0594
        56.000          50.000
 112628707.62347 105554808.90347  23335490.8254   23335494.9014   23335491.3674
        45.000          39.000
 132880777.37647  85751241.40147  23383445.2104   23383447.3614   23383445.3394
        47.000          42.000
 125989541.78647  80381446.62947  22072086.6874   22072089.5344   22072087.3694
        52.000          45.000
 11 10  9  1 52  0.0000000  0 10G06G16G05G18G21G15G26G03G07G08
 134444528.07647  86969731.29747  23681029.9904   23681035.3464   23681030.2284
        45.000          39.000
 143078174.66947  93697236.47447  25323968.0804   25323975.0784   25323968.1874
        42.000          35.000
 105727706.82947 100177423.85447  22022258.3744   22022260.4374   22022258.1764
        52.000          46.000
 116328334.50447 108437645.45847  24039497.9524   24039501.3754   24039497.9134
        45.000          37.000
 125879761.39847  80295903.03147  22051195.6734   22051198.8364   22051196.2784
        54.000          46.000
 103804547.01247  98678860.48247  21656290.3444   21656292.5234   21656289.9754
        53.000          47.000
  95293980.71357  92047247.25657  20036786.8695   20036789.6275   20036786.9065
        56.000          50.000
 112594534.21547 105528180.53747  23328986.6244   23328992.3674   23328986.8674
        44.000          38.000
 132957792.18847  85811252.88247  23398100.9574   23398102.6584   23398100.5124
        48.000          42.000
 126004141.89347  80392823.33147  22074864.8094   22074867.9404   22074865.4324
        52.000          45.000
 11 10  9  1 52 30.0000000  0 10G06G16G05G18G21G15G26G03G07G08
 134428137.74747  86956959.76947  23677910.9674   23677915.9404   23677911.1424
        45.000          39.000
 143165989.22647  93765663.55147  25340677.3594   25340686.2884   25340678.5014
        41.000          35.000
 105812616.65247 100243587.34347  22038416.2564   22038418.1924   22038415.9024
        52.000          46.000
 116228507.93547 108359858.78947  24020500.5334   24020505.6754   24020501.2874
        47.000          39.000
 125838501.10347  80263752.13447  22043344.2644   22043346.7544   22043344.7084
        55.000          46.000
 103726947.01347  98618392.81147  21641523.6964   21641526.0114   21641523.5534
        53.000          47.000
 115283560.41857  72039128.13457  20034803.3595   20034805.9175   20034803.4295
        56.000          50.000
 112560990.77547 105502043.04847  23322603.8954   23322608.8374   23322604.4614
        45.000          39.000
 133035255.23047  85871613.62847  23412841.4724   23412843.7844   23412841.1204
        48.000          42.000
 126019376.04547  80404694.02747  22077763.7964   22077766.8314   22077764.5784
        52.000          45.000
 11 10  9  1 53  0.0000000  0 10G06G16G05G18G21G15G26G03G07G08
 134412323.63247  86944637.25647  23674901.6864   23674906.3654   23674902.0164
        46.000          39.000
 143254132.40347  93834346.64847  25357451.1864   25357458.5824   25357451.6244
        39.000          34.000
 105897864.77747 100310014.53347  22054638.4394   22054640.2354   22054638.1994
        52.000          46.000
 116128814.65947 108282175.89147  24001529.6234   24001534.8724   24001530.1954
        46.000          39.000
 125797747.84947  80231996.40847  22035589.7364   22035591.2834   22035590.3814
        54.000          46.000
 103649757.04247  98558244.71847  21626834.9724   21626837.2364   21626834.7794
        53.000          47.000
  95273837.44857  92031552.34257  20032952.7885   20032955.4715   20032952.8125
        56.000          50.000
 112528075.04447 105476394.57147  23316340.1554   23316344.8124   23316340.5994
        45.000          39.000
 133113160.52547  85932318.96047  23427666.4734   23427668.5754   23427666.1764
        47.000          41.000
 126035240.59047  80417055.98647  22080782.8174   22080785.7474   22080783.4534
        52.000          45.000
 11 10  9  1 53 30.0000000  0  9G06G05G18G21G15G26G03G07G08
 134397089.51347  86932766.87647  23672002.4144   23672007.0834   23672002.7674
        46.000          39.000
 105983451.84847 100376705.69247  22070925.1144   22070927.1604   22070924.8554
        52.000          46.000
 116029259.06547 108204600.11247  23982584.5934   23982589.7274   23982585.4234
        46.000          38.000
 125757506.73547  80200640.06147  22027930.4044   22027934.1324   22027931.0144
        53.000          46.000
 103572981.93047  98498419.89147  21612225.1104   21612227.5614   21612224.9834
        53.000          47.000
 115264807.58357  72024514.67857  20031235.4825   20031238.2565   20031235.7625
        56.000          50.000
 112495791.05747 105451238.37247  23310196.9884   23310201.2664   23310197.2474
        46.000          39.000
 133191508.12947  85993368.93647  23442575.6414   23442577.6944   23442575.7204
        47.000          41.000
 126051737.31547  80429910.54847  22083922.0984   22083925.1214   22083922.7124
        52.000          45.000
 11 10  9  1 54  0.0000000  0  9G06G05G18G21G15G26G03G07G08
 134382425.94147  86921341.27447  23669211.6094   23669216.6734   23669211.7454
        46.000          39.000
 106069366.63347 100443652.29747  22087274.2584   22087276.2214   22087274.1124
        52.000          46.000
 115929833.53647 108127125.82747  23963664.5194   23963669.2144   23963665.3384
        45.000          37.000
 125717767.77247  80169674.87447  22020368.8874   22020371.5084   22020369.4974
        54.000          46.000
 103496613.57947  98438911.96147  21597692.8934   21597695.1454   21597692.7104
        53.000          47.000
  95256473.84757  92018019.26757  20029650.0625   20029653.0275   20029650.3805
        56.000          50.000
 112464130.55347 105426567.92747  23304171.7424   23304176.6074   23304172.3354
        45.000          39.000
 133270286.10647  86054754.28447  23457566.5264   23457569.0214   23457565.9234
        47.000          41.000
 126068856.18447  80443249.97647  22087179.7184   22087182.5564   22087180.4754
        52.000          45.000
 11 10  9  1 54 30.0000000  0  9G06G05G18G21G15G26G03G07G08
 134368352.02547  86910374.75547  23666533.5984   23666538.4724   23666533.9514
        46.000          40.000
 106155626.68747 100510867.83947  22103688.9464   22103690.8274   22103688.7464
        52.000          46.000
 115830559.13047 108049769.25647  23944772.7244   23944777.3904   23944773.5464
        46.000          37.000
 125678552.62647  80139117.82547  22012906.6454   22012907.7104   22012907.3714
        54.000          46.000
 103420673.54947  98379737.85447  21583242.1184   21583244.5054   21583241.8744
        53.000          47.000
 115248861.49057  72012089.09657  20028200.4185   20028203.1845   20028200.5355
        56.000          50.000
 112433114.16947 105402399.33947  23298269.6744   23298274.1924   23298270.2564
        45.000          39.000
 133349511.57647  86116488.38547  23472642.6324   23472644.8754   23472642.5254
        47.000          41.000
 126086615.93447  80457088.73647  22090559.2064   22090562.2694   22090559.8024
        52.000          45.000
 11 10  9  1 55  0.0000000  0  9G06G05G18G21G15G26G03G07G08
 134354849.53847  86899853.73447  23663964.0504   23663968.7744   23663964.2294
        47.000          40.000
 106242210.96947 100578335.99847  22120165.5644   22120167.3204   22120165.0534
        52.000          46.000
 115731417.37047 107972515.72847  23925907.4614   23925911.2934   23925908.0644
        46.000          38.000
 125639843.28347  80108954.99947  22005539.8884   22005542.4864   22005540.3284
        53.000          46.000
 103345143.69847  98320883.46847  21568869.0924   21568871.4084   21568868.9414
        54.000          47.000
 115241934.10447  72006691.65547  20026881.6934   20026884.3014   20026881.8754
        56.000          50.000
 112402723.51747 105378718.37447  23292486.3064   23292490.9774   23292486.8584
        45.000          39.000
 133429161.99547  86178553.59147  23487799.7864   23487802.1114   23487799.7134
        47.000          41.000
 126104995.86147  80471410.69747  22094056.8484   22094059.8664   22094057.3874
        52.000          45.000
 11 10  9  1 55 30.0000000  0  9G06G05G18G21G15G26G03G07G08
 134341937.56647  86889792.76247  23661506.4694   23661511.5514   23661506.7984
        45.000          39.000
 106329136.38547 100646070.03447  22136706.7454   22136708.8624   22136706.5384
        52.000          46.000
 115632429.07447 107895381.94747  23907070.6524   23907075.5674   23907071.1694
        44.000          38.000
 125601660.36947  80079202.56947  21998272.9724   21998275.8124   21998273.3204
        54.000          46.000
 103270044.16647  98262364.31847  21554578.2224   21554580.4794   21554578.0004
        53.000          47.000
 115235717.10647  72001847.77847  20025698.2664   20025700.7164   20025698.3914
        56.000          50.000
 112372978.46447 105355540.38647  23286826.1844   23286830.6314   23286826.5684
        46.000          39.000
 133509254.18447  86240963.06947  23503040.7784   23503043.0894   23503040.6564
        47.000          41.000
 126124014.46747  80486230.31747  22097675.8704   22097679.0294   22097676.5934
        52.000          45.000
 11 10  9  1 56  0.0000000  0  9G06G05G18G21G15G26G03G07G08
 134329593.89447  86880174.93647  23659156.6444   23659162.0374   23659157.0204
        45.000          39.000
 106416378.20647 100714050.63147  22153308.4304   22153310.4814   22153308.1164
        52.000          46.000
 115533572.73347 107818350.88247  23888258.6614   23888263.3384   23888259.5204
        46.000          39.000
 125563981.52947  80049842.61547  21991104.2074   21991105.6274   21991105.1344
        54.000          46.000
 103195354.02747  98204164.22047  21540365.1174   21540367.4174   21540364.9204
        53.000          47.000
 115230186.41547  71997538.26547  20024645.7054   20024648.1994   20024645.8204
        56.000          50.000
 112343857.21947 105332848.61147  23281284.7174   23281289.3154   23281284.8744
        46.000          40.000
 133589762.22847  86303696.55947  23518360.9764   23518363.0674   23518360.7234
        47.000          41.000
 126143648.15047  80501529.26247  22101412.1984   22101415.2464   22101412.7844
        52.000          45.000
 11 10  9  1 56 30.0000000  0  9G06G05G18G21G15G26G03G07G08
 134317834.49947  86871012.37847  23656918.7064   23656923.8074   23656918.9414
        45.000          40.000
 106503950.94847 100782289.24247  22169972.8664   22169974.8714   22169972.6414
        52.000          46.000
 115434867.09947 107741437.51747  23869475.8804   23869480.7064   23869476.2234
        45.000          39.000
 125526824.33747  80020889.01647  21984032.6374   21984034.2464   21984033.0604
        54.000          46.000
 103121090.94747  98146296.82647  21526233.3734   21526235.7884   21526233.1814
        54.000          47.000
 115225359.07447  71993776.88347  20023726.9794   20023729.4134   20023727.0534
        56.000          50.000
 112315377.17547 105310656.33647  23275865.5634   23275870.1944   23275865.7604
        47.000          40.000
 133670699.81947  86366764.83947  23533763.0734   23533765.0594   23533762.7384
        47.000          41.000
 126163912.13447  80517319.31847  22105268.2924   22105271.4374   22105268.8624
        52.000          45.000
 11 10  9  1 57  0.0000000  0  9G06G05G18G21G15G26G03G07G08
 134306649.40747  86862297.37147  23654789.4794   23654794.2944   23654789.5624
        45.000          39.000
 106591842.42747 100850776.24747  22186697.9154   22186699.9484   22186697.7754
        52.000          46.000
 115336302.96547 107664634.50847  23850719.4844   23850724.2854   23850720.1574
        47.000          39.000
 125490180.34147  79992335.31047  21977059.4454   21977061.1444   21977060.1154
        54.000          46.000
 103047246.53647  98088755.59647  21512181.4184   21512183.6684   21512181.1414
        53.000          47.000
 115221224.34047  71990555.19947  20022939.9754   20022942.4134   20022940.0684
        56.000          50.000
 112287528.91547 105288956.37147  23270566.0824   23270570.8174   23270566.6114
        46.000          40.000
 133752054.14247  86430157.83147  23549243.8964   23549246.2914   23549243.8934
        46.000          41.000
 126184795.42647  80533592.00747  22109242.1614   22109245.2734   22109242.8524
        52.000          45.000
 11 10  9  1 57 30.0000000  0  9G06G05G18G21G15G26G03G07G08
 134296074.00147  86854057.25847  23652776.9444   23652780.6094   23652777.2114
        45.000          39.000
 106680085.74947 100919537.32347  22203490.1164   22203491.9724   22203489.9144
        51.000          46.000
 115237917.08647 107587970.54447  23831997.2884   23832001.1324   23831997.5454
        46.000          39.000
 125454086.51447  79964210.56547  21970190.9214   21970193.2484   21970191.6964
        54.000          46.000
 102973857.65347  98031569.40247  21498216.0254   21498218.2514   21498215.8474
        54.000          47.000
 115217817.00647  71987900.12247  20022291.5614   20022293.9674   20022291.6284
        56.000          50.000
 112260348.42747 105267776.68447  23265393.8144   23265398.4774   23265394.3304
        47.000          40.000
 133833858.02147  86493901.20047  23564810.9704   23564812.8924   23564810.9214
        47.000          41.000
 126206332.79947  80550374.46347  22113340.6734   22113343.7014   22113341.4274
        52.000          45.000
 11 10  9  1 58  0.0000000  0  9G06G05G18G21G15G26G03G07G08
 134286045.58947  86846243.32447  23650868.7174   23650872.3414   23650869.0654
        46.000          40.000
 106768616.39447 100988522.16347  22220336.9884   22220339.0524   22220336.8104
        52.000          46.000
 115139647.66347 107511397.10047  23813297.0124   23813301.2934   23813297.4144
        46.000          39.000
 125418480.70147  79936465.88247  21963415.2234   21963417.3554   21963415.9694
        54.000          46.000
 102900862.94047  97974690.45547  21484325.4694   21484327.8414   21484325.3844
        54.000          48.000
 115215074.55547  71985763.26247  20021769.6284   20021772.0264   20021769.6894
        56.000          50.000
 112233774.30947 105247069.49947  23260336.9774   23260342.0994   23260337.5474
        47.000          40.000
 133916045.62047  86557943.46747  23580450.5004   23580452.8554   23580450.2614
        46.000          41.000
 126228459.95947  80567616.29647  22117551.3414   22117554.3204   22117552.0824
        52.000          45.000
 11 10  9  1 58 30.0000000  0  9G06G05G18G21G15G26G03G07G08
 134276601.95347  86838884.59047  23649071.7094   23649075.9264   23649072.1044
        46.000          40.000
 106857470.48347 101057759.04047  22237245.3964   22237247.4664   22237245.1434
        52.000          46.000
 115041534.36147 107434945.36747  23794626.3914   23794630.8534   23794626.8524
        46.000          39.000
 125383402.20147  79909132.05847  21956740.2404   21956741.9254   21956740.9944
        54.000          46.000
 102828301.87947  97918149.44247  21470517.5414   21470519.8444   21470517.4104
        53.000          47.000
 115213034.04647  71984173.24347  20021381.3074   20021383.7344   20021381.5904
        56.000          50.000
 112207845.17547 105226864.80547  23255403.2924   23255408.1404   23255403.5054
        46.000          40.000
 133998652.45847  86622312.45847  23596169.7444   23596172.3644   23596169.7094
        47.000          41.000
 126251214.01747  80585346.63847  22121881.3964   22121884.5324   22121881.8994
        52.000          45.000
 11 10  9  1 59  0.0000000  0  9G06G05G18G21G15G26G03G07G08
 134267761.50847  86831996.07647  23647389.5074   23647393.8854   23647389.9274
        46.000          40.000
 106946663.28947 101127259.68047  22254218.4174   22254220.4604   22254218.2884
        52.000          46.000
 114943596.79347 107358630.64747  23775989.6154   23775993.8104   23775990.6184
        48.000          40.000
 125348869.73147  79882223.63247  21950168.3074   21950170.5124   21950168.7784
        54.000          46.000
 102756193.36247  97861961.05947  21456795.6114   21456797.9974   21456795.4374
        53.000          47.000
 115211713.14747  71983144.19147  20021129.8044   20021132.1744   20021129.9744
        56.000          50.000
 112182579.66147 105207177.26247  23250594.9784   23250600.4714   23250595.4504
        46.000          40.000
 134081693.40547  86687019.75147  23611972.4734   23611974.4204   23611972.4854
        46.000          41.000
 126274611.37847  80603578.19847  22126333.8374   22126337.0364   22126334.4094
        52.000          45.000
 11 10  9  1 59 30.0000000  0  9G06G05G18G21G15G26G03G07G08
 134259488.13447  86825549.46847  23645814.9084   23645819.0974   23645815.2154
        47.000          40.000
 107036157.37347 101196995.31347  22271248.6084   22271250.5514   22271248.3104
        52.000          46.000
 114845800.06947 107282425.63747  23757379.1104   23757383.2404   23757379.6864
        46.000          39.000
 125314848.67547  79855713.64047  21943694.5384   21943697.0104   21943694.9424
        54.000          46.000
 102684503.11447  97806098.74347  21443153.2904   21443155.6084   21443153.1004
        54.000          48.000
 115211073.79747  71982645.79347  20021008.3124   20021010.6884   20021008.4464
        56.000          50.000
 112157942.07447 105187979.02747  23245906.3334   23245912.0564   23245906.7694
        45.000          40.000
 134165129.61147  86752035.15147  23627849.3344   23627851.5724   23627849.2144
        47.000          41.000
 126298615.19947  80622282.44247  22130901.7664   22130904.9814   22130902.3274
        52.000          45.000
 11 10  9  2  0  0.0000000  0  9G06G05G18G21G15G26G03G07G08
 134251806.11747  86819563.76247  23644353.2304   23644356.6024   23644353.4344
        47.000          40.000
 107125974.98647 101266983.22247  22288340.2424   22288342.2444   22288340.1224
        51.000          46.000
 114748169.55947 107206350.13647  23738800.3864   23738805.1604   23738800.6144
        46.000          39.000
 125281363.95547  79829621.48447  21937323.1954   21937324.6984   21937323.9644
        53.000          46.000
 102613256.27647  97750581.95547  21429595.3904   21429597.5154   21429595.1554
        54.000          47.000
 115211141.19147  71982698.13847  20021021.2664   20021023.7214   20021021.3994
        56.000          50.000
 112133957.79047 105169289.88947  23241341.6164   23241347.9844   23241342.5034
        44.000          39.000
 134248982.17647  86817374.89347  23643806.1604   23643808.2024   23643805.9434
        47.000          40.000
 126323248.19747  80641476.85447  22135589.1614   22135592.4444   22135589.8964
        52.000          45.000
 11 10  9  2  0 30.0000000  0  9G06G05G18G21G15G26G03G07G08
 134244702.06947  86814028.24947  23643000.9154   23643004.5084   23643001.2064
        46.000          40.000
 107216099.71147 101337210.24247  22305490.4114   22305492.4214   22305490.1214
        52.000          46.000
 114650693.30747 107130394.70247  23720251.0624   23720255.5914   23720251.7724
        46.000          39.000
 125248404.08147  79803938.39947  21931050.5844   21931052.7104   21931050.9744
        54.000          46.000
 102542441.19947  97695401.54347  21416119.5384   21416121.6804   21416119.3724
        54.000          47.000
 115211901.47747  71983290.56947  20021165.9194   20021168.3314   20021166.0874
        56.000          50.000
 112110614.07247 105151099.94047  23236899.7724   23236905.9244   23236899.7874
        45.000          39.000
 134333235.46147  86883026.82347  23659838.8404   23659840.8594   23659838.4534
        48.000          41.000
 126348496.62047  80661150.89447  22140394.0234   22140397.0884   22140394.6104
        52.000          45.000
 11 10  9  2  1  0.0000000  0  9G06G05G18G21G15G26G03G07G08
 134238190.77647  86808954.67147  23641761.7574   23641765.8094   23641762.1024
        46.000          40.000
 107306545.61447 101407687.43247  22322701.8514   22322703.8934   22322701.4584
        52.000          46.000
 114553388.18847 107054572.67847  23701734.2944   23701738.7094   23701735.2714
        46.000          39.000
 125215985.33947  79778677.10347  21924881.6074   21924883.7144   21924882.0944
        54.000          46.000
 102472074.35647  97640570.46747  21402728.9744   21402731.0754   21402728.8404
        54.000          48.000
 115213368.89947  71984434.04847  20021445.0964   20021447.5784   20021445.1764
        56.000          50.000
 112087925.88347 105133420.63647  23232582.2274   23232588.6624   23232582.8754
        45.000          39.000
 134417901.31547  86949000.29947  23675950.3694   23675952.5484   23675950.2454
        46.000          41.000
 126374374.03347  80681315.01747  22145318.4684   22145321.6024   22145319.0934
        52.000          45.000
 11 10  9  2  1 30.0000000  0  9G06G05G18G21G15G26G03G07G08
 134232243.36347  86804320.34247  23640629.9194   23640634.3034   23640630.2714
        46.000          40.000
 107397281.83147 101478390.90447  22339968.5014   22339970.3474   22339968.2154
        51.000          46.000
 114456227.27647 106978863.27547  23683245.2284   23683249.6094   23683245.8384
        47.000          40.000
 125184079.65147  79753815.65347  21918810.4734   21918812.2444   21918811.1604
        54.000          46.000
 102402128.01747  97586066.96447  21389418.5114   21389420.5614   21389418.2704
        53.000          48.000
 115215513.60147  71986105.28247  20021853.2214   20021855.6344   20021853.3274
        56.000          50.000
 112065865.57447 105116230.62147  23228384.8674   23228390.8814   23228385.1074
        45.000          39.000
 134502948.10747  87015270.54047  23692134.3354   23692136.2304   23692134.0504
        46.000          40.000
 126400850.56147  80701945.97647  22150356.7204   22150359.8594   22150357.3874
        52.000          45.000
 11 10  9  2  2  0.0000000  0 10G06G05G18G21G15G26G03G19G07G08
 134226880.61447  86800141.64647  23639609.4824   23639613.8164   23639609.6844
        46.000          40.000
 107488326.82747 101549334.99347  22357293.7734   22357295.7044   22357293.5724
        51.000          46.000
 114359231.81647 106903282.66047  23664787.1724   23664791.3704   23664787.7944
        47.000          39.000
 125152708.80547  79729370.98447  21912840.2954   21912842.7484   21912840.6864
        54.000          46.000
 102332624.38247  97531908.51447  21376192.2524   21376194.3034   21376192.0494
        53.000          48.000
 115218355.69947  71988319.89447  20022394.0894   20022396.5014   20022394.1214
        56.000          50.000
 112044454.48247 105099546.52347  23224310.6784   23224316.6424   23224311.1024
        45.000          40.000
 142212372.85457  93022607.15257  25159194.8415   25159200.2305   25159196.6615
        42.000          38.000
 134588394.00847  87081851.90647  23708393.8854   23708395.5884   23708393.6514
        47.000          41.000
 126427945.14547  80723058.59147  22155512.6544   22155515.7474   22155513.1454
        52.000          45.000
 11 10  9  2  2 30.0000000  0 10G06G05G18G21G15G26G03G19G07G08
 134222114.70947  86796428.10547  23638701.9524   23638707.1474   23638702.1164
        45.000          40.000
 107579690.90547 101620527.89847  22374679.5954   22374681.8054   22374679.3644
        51.000          45.000
 114262415.48847 106827841.47147  23646363.7154   23646367.0764   23646364.3294
        45.000          38.000
 125121885.56147  79705352.81447  21906975.2374   21906977.0884   21906975.8954
        54.000          46.000
 102263576.65947  97478105.14447  21363052.7754   21363054.9084   21363052.5864
        54.000          48.000
 115221907.01447  71991087.16547  20023069.8364   20023072.3114   20023069.9834
        56.000          50.000
 112023705.33747 105083378.27347  23220362.4154   23220368.0584   23220363.0824
        45.000          40.000
 122126104.56157 112955384.90657  25142777.2475   25142782.3135   25142780.0115
        41.000          36.000
 134674248.08447  87148751.28647  23724731.2184   23724733.2384   23724731.1924
        47.000          40.000
 126455669.24747  80744661.70647  22160788.5624   22160791.6904   22160789.0394
        51.000          45.000
 11 10  9  2  3  0.0000000  0 10G06G05G18G21G15G26G03G19G07G08
 134217926.08447  86793164.32047  23637904.2274   23637910.0124   23637904.7094
        44.000          40.000
 107671352.35547 101691952.47147  22392122.1634   22392124.3454   22392121.8804
        51.000          46.000
 114165760.64547 106752526.26447  23627970.0304   23627974.6114   23627971.1984
        47.000          39.000
 125091591.23247  79681746.75247  21901210.4284   21901212.1804   21901211.2914
        54.000          46.000
 102194967.23147  97424643.27947  21349996.8594   21349998.7844   21349996.6294
        54.000          48.000
 115226147.33947  71994391.47547  20023876.6134   20023879.0554   20023876.6904
        56.000          50.000
 112003598.83947 105067710.65147  23216536.9964   23216542.1614   23216537.0934
        45.000          39.000
 142040224.57657  92888473.98257  25126429.1645   25126432.3395   25126430.7205
        41.000          34.000
 134760488.23747  87215951.45447  23741141.9224   23741143.9184   23741142.0484
        46.000          40.000
 126484002.48047  80766739.56547  22166180.1064   22166183.2014   22166180.7854
        52.000          45.000
